{"type":"FeatureCollection","features":[{"type":"Feature","geometry":{"type":"Point","coordinates":[10.05407877,56.07625102]},"properties":{"id":"006fea09-8bcc-d855-e063-0c4f210af79a","navn":"Sommerb\u00E6k Skole","hovedtype":"Bygning","undertype":"folkeskole","navnestatus":"officielt","kommuner":["Skanderborg"]}},{"type":"Feature","geometry":{"type":"Point","coordinates":[12.61751995,55.667857]},"properties":{"id":"006fea09-8bcd-d855-e063-0c4f210af79a","navn":"Nord\u00F8stamager Skole","hovedtype":"Bygning","undertype":"folkeskole","navnestatus":"officielt","kommuner":["K\u00F8benhavn"]}},{"type":"Feature","geometry":{"type":"Point","coordinates":[12.28997279,55.65458404]},"properties":{"id":"0138451c-a628-d94f-e063-0c4f210a86d5","navn":"Ole R\u00F8mer-skolen afdeling BKH","hovedtype":"Bygning","undertype":"folkeskole","navnestatus":"officielt","kommuner":["H\u00F8je-Taastrup"]}},{"type":"Feature","geometry":{"type":"Point","coordinates":[10.06442932,56.67568563]},"properties":{"id":"19e4392f-c414-5d41-e053-d380220a2006","navn":"Assens Skole","hovedtype":"Bygning","undertype":"folkeskole","navnestatus":"officielt","kommuner":["Mariagerfjord"]}},{"type":"Feature","geometry":{"type":"Point","coordinates":[10.20148679,56.65466452]},"properties":{"id":"19e4392f-c415-5d41-e053-d380220a2006","navn":"Havndal Skole","hovedtype":"Bygning","undertype":"folkeskole","navnestatus":"officielt","kommuner":["Randers"]}},{"type":"Feature","geometry":{"type":"Point","coordinates":[9.9744999,56.64929007]},"properties":{"id":"19e4392f-c416-5d41-e053-d380220a2006","navn":"Mariager Skole","hovedtype":"Bygning","undertype":"folkeskole","navnestatus":"officielt","kommuner":["Mariagerfjord"]}},{"type":"Feature","geometry":{"type":"Point","coordinates":[11.52668275,54.7716609]},"properties":{"id":"19e4392f-c41e-5d41-e053-d380220a2006","navn":"Bl\u00E6senborgskolen","hovedtype":"Bygning","undertype":"folkeskole","navnestatus":"uofficielt","kommuner":["Lolland"]}},{"type":"Feature","geometry":{"type":"Point","coordinates":[11.50836882,54.77346605]},"properties":{"id":"19e4392f-c420-5d41-e053-d380220a2006","navn":"Borgerskolen","hovedtype":"Bygning","undertype":"folkeskole","navnestatus":"uofficielt","kommuner":["Lolland"]}},{"type":"Feature","geometry":{"type":"Point","coordinates":[11.42421435,54.80160514]},"properties":{"id":"19e4392f-c422-5d41-e053-d380220a2006","navn":"\u00D8stofte Landsbyordning","hovedtype":"Bygning","undertype":"folkeskole","navnestatus":"officielt","kommuner":["Lolland"]}},{"type":"Feature","geometry":{"type":"Point","coordinates":[9.8631059,54.9922815]},"properties":{"id":"19e4392f-c429-5d41-e053-d380220a2006","navn":"N\u00F8rreskov-Skolen","hovedtype":"Bygning","undertype":"folkeskole","navnestatus":"officielt","kommuner":["S\u00F8nderborg"]}},{"type":"Feature","geometry":{"type":"Point","coordinates":[9.74418703,55.05650316]},"properties":{"id":"19e4392f-c42c-5d41-e053-d380220a2006","navn":"Nordals Skolen","hovedtype":"Bygning","undertype":"folkeskole","navnestatus":"officielt","kommuner":["S\u00F8nderborg"]}},{"type":"Feature","geometry":{"type":"Point","coordinates":[9.13349113,55.13239772]},"properties":{"id":"19e4392f-c433-5d41-e053-d380220a2006","navn":"Agerskov Skole","hovedtype":"Bygning","undertype":"folkeskole","navnestatus":"officielt","kommuner":["T\u00F8nder"]}},{"type":"Feature","geometry":{"type":"Point","coordinates":[9.20304967,55.19874473]},"properties":{"id":"19e4392f-c435-5d41-e053-d380220a2006","navn":"Bevtoft Skole","hovedtype":"Bygning","undertype":"folkeskole","navnestatus":"uofficielt","kommuner":["Haderslev"]}},{"type":"Feature","geometry":{"type":"Point","coordinates":[9.06356017,55.18744327]},"properties":{"id":"19e4392f-c438-5d41-e053-d380220a2006","navn":"Toftlund Skole","hovedtype":"Bygning","undertype":"folkeskole","navnestatus":"officielt","kommuner":["T\u00F8nder"]}},{"type":"Feature","geometry":{"type":"Point","coordinates":[9.20621108,55.35425979]},"properties":{"id":"19e4392f-c440-5d41-e053-d380220a2006","navn":"Jels Skole","hovedtype":"Bygning","undertype":"folkeskole","navnestatus":"officielt","kommuner":["Vejen"]}},{"type":"Feature","geometry":{"type":"Point","coordinates":[9.06924052,55.36735935]},"properties":{"id":"19e4392f-c443-5d41-e053-d380220a2006","navn":"R\u00F8dding Skole","hovedtype":"Bygning","undertype":"folkeskole","navnestatus":"officielt","kommuner":["Vejen"]}},{"type":"Feature","geometry":{"type":"Point","coordinates":[9.15533025,55.41877929]},"properties":{"id":"19e4392f-c444-5d41-e053-d380220a2006","navn":"Skodborg B\u00F8rnecenter","hovedtype":"Bygning","undertype":"folkeskole","navnestatus":"officielt","kommuner":["Vejen"]}},{"type":"Feature","geometry":{"type":"Point","coordinates":[9.32358986,55.06132991]},"properties":{"id":"19e4392f-c450-5d41-e053-d380220a2006","navn":"H\u00E6rvejsskolen","hovedtype":"Bygning","undertype":"folkeskole","navnestatus":"officielt","kommuner":["Aabenraa"]}},{"type":"Feature","geometry":{"type":"Point","coordinates":[9.43683084,55.12379613]},"properties":{"id":"19e4392f-c451-5d41-e053-d380220a2006","navn":"Genner Univers","hovedtype":"Bygning","undertype":"folkeskole","navnestatus":"officielt","kommuner":["Aabenraa"]}},{"type":"Feature","geometry":{"type":"Point","coordinates":[9.87168226,54.94776917]},"properties":{"id":"19e4392f-c452-5d41-e053-d380220a2006","navn":"Augustenborg Skole","hovedtype":"Bygning","undertype":"folkeskole","navnestatus":"officielt","kommuner":["S\u00F8nderborg"]}},{"type":"Feature","geometry":{"type":"Point","coordinates":[9.20890742,55.0781265]},"properties":{"id":"19e4392f-c453-5d41-e053-d380220a2006","navn":"Hellevad B\u00F8rneunivers","hovedtype":"Bygning","undertype":"folkeskole","navnestatus":"officielt","kommuner":["Aabenraa"]}},{"type":"Feature","geometry":{"type":"Point","coordinates":[9.30864519,55.02616248]},"properties":{"id":"19e4392f-c454-5d41-e053-d380220a2006","navn":"Hjordk\u00E6r Skole","hovedtype":"Bygning","undertype":"folkeskole","navnestatus":"officielt","kommuner":["Aabenraa"]}},{"type":"Feature","geometry":{"type":"Point","coordinates":[9.97246399,54.98219655]},"properties":{"id":"19e4392f-c455-5d41-e053-d380220a2006","navn":"Fynshav B\u00F8rneunivers","hovedtype":"Bygning","undertype":"folkeskole","navnestatus":"officielt","kommuner":["S\u00F8nderborg"]}},{"type":"Feature","geometry":{"type":"Point","coordinates":[9.34023438,55.12864103]},"properties":{"id":"19e4392f-c456-5d41-e053-d380220a2006","navn":"Hovslund B\u00F8rneunivers","hovedtype":"Bygning","undertype":"folkeskole","navnestatus":"officielt","kommuner":["Aabenraa"]}},{"type":"Feature","geometry":{"type":"Point","coordinates":[9.44757106,54.84247266]},"properties":{"id":"19e4392f-c465-5d41-e053-d380220a2006","navn":"Kollund Skole","hovedtype":"Bygning","undertype":"folkeskole","navnestatus":"officielt","kommuner":["Aabenraa"]}},{"type":"Feature","geometry":{"type":"Point","coordinates":[9.68131398,54.92158384]},"properties":{"id":"19e4392f-c467-5d41-e053-d380220a2006","navn":"Nyb\u00F8l Skole","hovedtype":"Bygning","undertype":"folkeskole","navnestatus":"officielt","kommuner":["S\u00F8nderborg"]}},{"type":"Feature","geometry":{"type":"Point","coordinates":[9.70486366,54.95158646]},"properties":{"id":"19e4392f-c468-5d41-e053-d380220a2006","navn":"Nydamskolen","hovedtype":"Bygning","undertype":"folkeskole","navnestatus":"officielt","kommuner":["S\u00F8nderborg"]}},{"type":"Feature","geometry":{"type":"Point","coordinates":[9.90255469,54.92368294]},"properties":{"id":"19e4392f-c46c-5d41-e053-d380220a2006","navn":"H\u00F8rup Centralskole","hovedtype":"Bygning","undertype":"folkeskole","navnestatus":"officielt","kommuner":["S\u00F8nderborg"]}},{"type":"Feature","geometry":{"type":"Point","coordinates":[10.00283642,54.90217635]},"properties":{"id":"19e4392f-c46d-5d41-e053-d380220a2006","navn":"Lysabild B\u00F8rneunivers","hovedtype":"Bygning","undertype":"folkeskole","navnestatus":"officielt","kommuner":["S\u00F8nderborg"]}},{"type":"Feature","geometry":{"type":"Point","coordinates":[9.67094454,54.88851635]},"properties":{"id":"19e4392f-c473-5d41-e053-d380220a2006","navn":"Broager Skole","hovedtype":"Bygning","undertype":"folkeskole","navnestatus":"officielt","kommuner":["S\u00F8nderborg"]}},{"type":"Feature","geometry":{"type":"Point","coordinates":[9.56012625,55.3221058]},"properties":{"id":"19e4392f-c478-5d41-e053-d380220a2006","navn":"Fjelstrup Skole","hovedtype":"Bygning","undertype":"folkeskole","navnestatus":"officielt","kommuner":["Haderslev"]}},{"type":"Feature","geometry":{"type":"Point","coordinates":[9.5307947,55.40461405]},"properties":{"id":"19e4392f-c47b-5d41-e053-d380220a2006","navn":"Sj\u00F8lund-Hejls Skole","hovedtype":"Bygning","undertype":"folkeskole","navnestatus":"officielt","kommuner":["Kolding"]}},{"type":"Feature","geometry":{"type":"Point","coordinates":[9.58613461,54.91967717]},"properties":{"id":"19e4392f-c482-5d41-e053-d380220a2006","navn":"Gr\u00E5sten Skole","hovedtype":"Bygning","undertype":"folkeskole","navnestatus":"officielt","kommuner":["S\u00F8nderborg"]}},{"type":"Feature","geometry":{"type":"Point","coordinates":[9.55522353,54.89445669]},"properties":{"id":"19e4392f-c484-5d41-e053-d380220a2006","navn":"Rinken\u00E6s Skole","hovedtype":"Bygning","undertype":"folkeskole","navnestatus":"officielt","kommuner":["S\u00F8nderborg"]}},{"type":"Feature","geometry":{"type":"Point","coordinates":[9.76739108,54.9110444]},"properties":{"id":"19e4392f-c48e-5d41-e053-d380220a2006","navn":"Dybb\u00F8l-Skolen","hovedtype":"Bygning","undertype":"folkeskole","navnestatus":"officielt","kommuner":["S\u00F8nderborg"]}},{"type":"Feature","geometry":{"type":"Point","coordinates":[9.8042083,54.92086488]},"properties":{"id":"19e4392f-c48f-5d41-e053-d380220a2006","navn":"Alssund-skolen","hovedtype":"Bygning","undertype":"folkeskole","navnestatus":"officielt","kommuner":["S\u00F8nderborg"]}},{"type":"Feature","geometry":{"type":"Point","coordinates":[9.81163238,54.90552893]},"properties":{"id":"19e4392f-c490-5d41-e053-d380220a2006","navn":"S\u00F8nderskov-Skolen","hovedtype":"Bygning","undertype":"folkeskole","navnestatus":"officielt","kommuner":["S\u00F8nderborg"]}},{"type":"Feature","geometry":{"type":"Point","coordinates":[9.82891832,54.92500746]},"properties":{"id":"19e4392f-c491-5d41-e053-d380220a2006","navn":"Ulkeb\u00F8l Skole","hovedtype":"Bygning","undertype":"folkeskole","navnestatus":"officielt","kommuner":["S\u00F8nderborg"]}},{"type":"Feature","geometry":{"type":"Point","coordinates":[9.50816065,55.26151464]},"properties":{"id":"19e4392f-c493-5d41-e053-d380220a2006","navn":"F\u00E6llesskolen Favrdal-Fjelstrup - Afdeling Favrdal","hovedtype":"Bygning","undertype":"folkeskole","navnestatus":"officielt","kommuner":["Haderslev"]}},{"type":"Feature","geometry":{"type":"Point","coordinates":[9.49081998,55.2323312]},"properties":{"id":"19e4392f-c49c-5d41-e053-d380220a2006","navn":"Kl\u00F8vermarkskolen","hovedtype":"Bygning","undertype":"folkeskole","navnestatus":"officielt","kommuner":["Haderslev"]}},{"type":"Feature","geometry":{"type":"Point","coordinates":[9.45285669,55.17840393]},"properties":{"id":"19e4392f-c49d-5d41-e053-d380220a2006","navn":"F\u00E6llesskolen HoptrupMarstrupVilstrup","hovedtype":"Bygning","undertype":"folkeskole","navnestatus":"officielt","kommuner":["Haderslev"]}},{"type":"Feature","geometry":{"type":"Point","coordinates":[9.47594316,55.25391033]},"properties":{"id":"19e4392f-c4a1-5d41-e053-d380220a2006","navn":"Sct. Severin Skolen","hovedtype":"Bygning","undertype":"folkeskole","navnestatus":"uofficielt","kommuner":["Haderslev"]}},{"type":"Feature","geometry":{"type":"Point","coordinates":[8.80388607,54.94250343]},"properties":{"id":"19e4392f-c4a3-5d41-e053-d380220a2006","navn":"M\u00F8gelt\u00F8nder Skole","hovedtype":"Bygning","undertype":"folkeskole","navnestatus":"officielt","kommuner":["T\u00F8nder"]}},{"type":"Feature","geometry":{"type":"Point","coordinates":[8.85974956,54.93706639]},"properties":{"id":"19e4392f-c4a4-5d41-e053-d380220a2006","navn":"T\u00F8nder Overbygningsskole","hovedtype":"Bygning","undertype":"folkeskole","navnestatus":"officielt","kommuner":["T\u00F8nder"]}},{"type":"Feature","geometry":{"type":"Point","coordinates":[9.2887012,55.24597466]},"properties":{"id":"19e4392f-c4ad-5d41-e053-d380220a2006","navn":"Bregnbjergskolen","hovedtype":"Bygning","undertype":"folkeskole","navnestatus":"officielt","kommuner":["Haderslev"]}},{"type":"Feature","geometry":{"type":"Point","coordinates":[9.38733293,55.246222]},"properties":{"id":"19e4392f-c4af-5d41-e053-d380220a2006","navn":"F\u00E6llesskolen Hammelev-Sct. Severin - Afdeling Hammelev","hovedtype":"Bygning","undertype":"folkeskole","navnestatus":"officielt","kommuner":["Haderslev"]}},{"type":"Feature","geometry":{"type":"Point","coordinates":[9.31022793,55.19637548]},"properties":{"id":"19e4392f-c4b0-5d41-e053-d380220a2006","navn":"Over Jerstal Skole","hovedtype":"Bygning","undertype":"folkeskole","navnestatus":"uofficielt","kommuner":["Haderslev"]}},{"type":"Feature","geometry":{"type":"Point","coordinates":[9.31006348,55.31944381]},"properties":{"id":"19e4392f-c4b4-5d41-e053-d380220a2006","navn":"F\u00E6llesskolen Nustrup-Sommersted","hovedtype":"Bygning","undertype":"folkeskole","navnestatus":"officielt","kommuner":["Haderslev"]}},{"type":"Feature","geometry":{"type":"Point","coordinates":[9.40967403,55.06204041]},"properties":{"id":"19e4392f-c4c1-5d41-e053-d380220a2006","navn":"H\u00F8je Kolstrup Skole","hovedtype":"Bygning","undertype":"folkeskole","navnestatus":"officielt","kommuner":["Aabenraa"]}},{"type":"Feature","geometry":{"type":"Point","coordinates":[9.46107889,55.0875133]},"properties":{"id":"19e4392f-c4c2-5d41-e053-d380220a2006","navn":"L\u00F8jt Kirkeby Skole","hovedtype":"Bygning","undertype":"folkeskole","navnestatus":"officielt","kommuner":["Aabenraa"]}},{"type":"Feature","geometry":{"type":"Point","coordinates":[9.40568909,55.03493094]},"properties":{"id":"19e4392f-c4c3-5d41-e053-d380220a2006","navn":"Kongeh\u00F8jskolen","hovedtype":"Bygning","undertype":"folkeskole","navnestatus":"officielt","kommuner":["Aabenraa"]}},{"type":"Feature","geometry":{"type":"Point","coordinates":[9.43195944,54.99369179]},"properties":{"id":"19e4392f-c4c4-5d41-e053-d380220a2006","navn":"Stubb\u00E6k Skole","hovedtype":"Bygning","undertype":"folkeskole","navnestatus":"officielt","kommuner":["Aabenraa"]}},{"type":"Feature","geometry":{"type":"Point","coordinates":[8.68852065,54.96659472]},"properties":{"id":"19e4392f-c4cd-5d41-e053-d380220a2006","navn":"Digeskolen","hovedtype":"Bygning","undertype":"folkeskole","navnestatus":"officielt","kommuner":["T\u00F8nder"]}},{"type":"Feature","geometry":{"type":"Point","coordinates":[10.50954862,54.85649233]},"properties":{"id":"19e4392f-c4d2-5d41-e053-d380220a2006","navn":"Marstal Skole","hovedtype":"Bygning","undertype":"folkeskole","navnestatus":"officielt","kommuner":["\u00C6r\u00F8"]}},{"type":"Feature","geometry":{"type":"Point","coordinates":[9.51013988,54.98323664]},"properties":{"id":"19e4392f-c4d4-5d41-e053-d380220a2006","navn":"Felsted Centralskole","hovedtype":"Bygning","undertype":"folkeskole","navnestatus":"officielt","kommuner":["Aabenraa"]}},{"type":"Feature","geometry":{"type":"Point","coordinates":[9.49260115,55.25559342]},"properties":{"id":"19e4392f-c4d5-5d41-e053-d380220a2006","navn":"10. ved Kl\u00F8ften","hovedtype":"Bygning","undertype":"folkeskole","navnestatus":"officielt","kommuner":["Haderslev"]}},{"type":"Feature","geometry":{"type":"Point","coordinates":[9.54168367,55.23295674]},"properties":{"id":"19e4392f-c4d6-5d41-e053-d380220a2006","navn":"Starup Skole","hovedtype":"Bygning","undertype":"folkeskole","navnestatus":"officielt","kommuner":["Haderslev"]}},{"type":"Feature","geometry":{"type":"Point","coordinates":[9.78710442,55.48523334]},"properties":{"id":"19e4392f-c4d8-5d41-e053-d380220a2006","navn":"Hylleh\u00F8jskolen","hovedtype":"Bygning","undertype":"folkeskole","navnestatus":"officielt","kommuner":["Middelfart"]}},{"type":"Feature","geometry":{"type":"Point","coordinates":[9.74876678,55.4932838]},"properties":{"id":"19e4392f-c4d9-5d41-e053-d380220a2006","navn":"Lilleb\u00E6ltskolen","hovedtype":"Bygning","undertype":"folkeskole","navnestatus":"officielt","kommuner":["Middelfart"]}},{"type":"Feature","geometry":{"type":"Point","coordinates":[9.77332397,55.5387743]},"properties":{"id":"19e4392f-c4db-5d41-e053-d380220a2006","navn":"Strib Skole","hovedtype":"Bygning","undertype":"folkeskole","navnestatus":"officielt","kommuner":["Middelfart"]}},{"type":"Feature","geometry":{"type":"Point","coordinates":[9.7291762,55.50488421]},"properties":{"id":"19e4392f-c4dc-5d41-e053-d380220a2006","navn":"Vestre Skole","hovedtype":"Bygning","undertype":"folkeskole","navnestatus":"officielt","kommuner":["Middelfart"]}},{"type":"Feature","geometry":{"type":"Point","coordinates":[9.74174206,55.50005726]},"properties":{"id":"19e4392f-c4dd-5d41-e053-d380220a2006","navn":"\u00D8stre Skole","hovedtype":"Bygning","undertype":"folkeskole","navnestatus":"officielt","kommuner":["Middelfart"]}},{"type":"Feature","geometry":{"type":"Point","coordinates":[9.64563143,55.25100519]},"properties":{"id":"19e4392f-c4e2-5d41-e053-d380220a2006","navn":"\u00D8sby Skole","hovedtype":"Bygning","undertype":"folkeskole","navnestatus":"officielt","kommuner":["Haderslev"]}},{"type":"Feature","geometry":{"type":"Point","coordinates":[9.40604682,54.93756611]},"properties":{"id":"19e4392f-c4e7-5d41-e053-d380220a2006","navn":"Kliplev Skole","hovedtype":"Bygning","undertype":"folkeskole","navnestatus":"officielt","kommuner":["Aabenraa"]}},{"type":"Feature","geometry":{"type":"Point","coordinates":[10.58048447,56.36078261]},"properties":{"id":"19e4392f-c4ea-5d41-e053-d380220a2006","navn":"Kolind Skole","hovedtype":"Bygning","undertype":"folkeskole","navnestatus":"officielt","kommuner":["Syddjurs"]}},{"type":"Feature","geometry":{"type":"Point","coordinates":[9.57114122,55.01090134]},"properties":{"id":"19e4392f-c4eb-5d41-e053-d380220a2006","navn":"Varn\u00E6s Skole","hovedtype":"Bygning","undertype":"folkeskole","navnestatus":"officielt","kommuner":["Aabenraa"]}},{"type":"Feature","geometry":{"type":"Point","coordinates":[10.49653078,56.38598616]},"properties":{"id":"19e4392f-c4ec-5d41-e053-d380220a2006","navn":"Marienhoffskolen","hovedtype":"Bygning","undertype":"folkeskole","navnestatus":"officielt","kommuner":["Syddjurs"]}},{"type":"Feature","geometry":{"type":"Point","coordinates":[8.84106874,56.78403657]},"properties":{"id":"19e4392f-c4f2-5d41-e053-d380220a2006","navn":"Dueholmskolen","hovedtype":"Bygning","undertype":"folkeskole","navnestatus":"officielt","kommuner":["Mors\u00F8"]}},{"type":"Feature","geometry":{"type":"Point","coordinates":[8.85685011,56.79694142]},"properties":{"id":"19e4392f-c4f4-5d41-e053-d380220a2006","navn":"M.C. Holms Skole","hovedtype":"Bygning","undertype":"folkeskole","navnestatus":"officielt","kommuner":["Mors\u00F8"]}},{"type":"Feature","geometry":{"type":"Point","coordinates":[8.83442675,56.78631114]},"properties":{"id":"19e4392f-c4fa-5d41-e053-d380220a2006","navn":"10\u0027eren Mors","hovedtype":"Bygning","undertype":"folkeskole","navnestatus":"officielt","kommuner":["Mors\u00F8"]}},{"type":"Feature","geometry":{"type":"Point","coordinates":[8.72717905,56.75615615]},"properties":{"id":"19e4392f-c4fb-5d41-e053-d380220a2006","navn":"Sydmors Skole og B\u00F8rnehus","hovedtype":"Bygning","undertype":"folkeskole","navnestatus":"officielt","kommuner":["Mors\u00F8"]}},{"type":"Feature","geometry":{"type":"Point","coordinates":[8.71987039,56.83746251]},"properties":{"id":"19e4392f-c4fc-5d41-e053-d380220a2006","navn":"\u00D8ster J\u00F8lby Skole","hovedtype":"Bygning","undertype":"folkeskole","navnestatus":"officielt","kommuner":["Mors\u00F8"]}},{"type":"Feature","geometry":{"type":"Point","coordinates":[8.95764438,55.06054774]},"properties":{"id":"19e4392f-c505-5d41-e053-d380220a2006","navn":"L\u00F8gumkloster Distriktsskole - Distriktsskolen","hovedtype":"Bygning","undertype":"folkeskole","navnestatus":"officielt","kommuner":["T\u00F8nder"]}},{"type":"Feature","geometry":{"type":"Point","coordinates":[9.03601501,54.99921312]},"properties":{"id":"19e4392f-c509-5d41-e053-d380220a2006","navn":"\u00D8ster H\u00F8jst Filialskole","hovedtype":"Bygning","undertype":"folkeskole","navnestatus":"uofficielt","kommuner":["T\u00F8nder"]}},{"type":"Feature","geometry":{"type":"Point","coordinates":[12.32991509,55.67018958]},"properties":{"id":"19e4392f-c515-5d41-e053-d380220a2006","navn":"Egelundskolen","hovedtype":"Bygning","undertype":"folkeskole","navnestatus":"officielt","kommuner":["Albertslund"]}},{"type":"Feature","geometry":{"type":"Point","coordinates":[10.54115547,55.45344126]},"properties":{"id":"19e4392f-c517-5d41-e053-d380220a2006","navn":"Munkebo Skole","hovedtype":"Bygning","undertype":"folkeskole","navnestatus":"officielt","kommuner":["Kerteminde"]}},{"type":"Feature","geometry":{"type":"Point","coordinates":[9.63168302,56.59196667]},"properties":{"id":"19e4392f-c51b-5d41-e053-d380220a2006","navn":"Brattingsborgskolen","hovedtype":"Bygning","undertype":"folkeskole","navnestatus":"officielt","kommuner":["Viborg"]}},{"type":"Feature","geometry":{"type":"Point","coordinates":[9.50114969,56.61947702]},"properties":{"id":"19e4392f-c51c-5d41-e053-d380220a2006","navn":"M\u00F8ldrup Skole","hovedtype":"Bygning","undertype":"folkeskole","navnestatus":"officielt","kommuner":["Viborg"]}},{"type":"Feature","geometry":{"type":"Point","coordinates":[9.40432121,56.55675331]},"properties":{"id":"19e4392f-c51d-5d41-e053-d380220a2006","navn":"Skals Skole","hovedtype":"Bygning","undertype":"folkeskole","navnestatus":"officielt","kommuner":["Viborg"]}},{"type":"Feature","geometry":{"type":"Point","coordinates":[9.34337975,56.62294819]},"properties":{"id":"19e4392f-c51e-5d41-e053-d380220a2006","navn":"Ulbjerg Skole","hovedtype":"Bygning","undertype":"folkeskole","navnestatus":"officielt","kommuner":["Viborg"]}},{"type":"Feature","geometry":{"type":"Point","coordinates":[12.34105444,55.66980976]},"properties":{"id":"19e4392f-c520-5d41-e053-d380220a2006","navn":"Herstedvester Skole","hovedtype":"Bygning","undertype":"folkeskole","navnestatus":"officielt","kommuner":["Albertslund"]}},{"type":"Feature","geometry":{"type":"Point","coordinates":[12.39190874,54.99643719]},"properties":{"id":"19e4392f-c527-5d41-e053-d380220a2006","navn":"M\u00F8n Skole Hjertebjerg","hovedtype":"Bygning","undertype":"folkeskole","navnestatus":"officielt","kommuner":["Vordingborg"]}},{"type":"Feature","geometry":{"type":"Point","coordinates":[12.28070938,54.99517521]},"properties":{"id":"19e4392f-c528-5d41-e053-d380220a2006","navn":"M\u00F8n Skole -  Afdeling Stege","hovedtype":"Bygning","undertype":"folkeskole","navnestatus":"officielt","kommuner":["Vordingborg"]}},{"type":"Feature","geometry":{"type":"Point","coordinates":[12.36456334,55.67541349]},"properties":{"id":"19e4392f-c538-5d41-e053-d380220a2006","navn":"Hersted\u00F8ster Skole","hovedtype":"Bygning","undertype":"folkeskole","navnestatus":"officielt","kommuner":["Albertslund"]}},{"type":"Feature","geometry":{"type":"Point","coordinates":[12.34177716,55.65957114]},"properties":{"id":"19e4392f-c539-5d41-e053-d380220a2006","navn":"Herstedlund Skole","hovedtype":"Bygning","undertype":"folkeskole","navnestatus":"officielt","kommuner":["Albertslund"]}},{"type":"Feature","geometry":{"type":"Point","coordinates":[12.38508756,55.8667219]},"properties":{"id":"19e4392f-c53e-5d41-e053-d380220a2006","navn":"Blovstr\u00F8d Skole","hovedtype":"Bygning","undertype":"folkeskole","navnestatus":"officielt","kommuner":["Aller\u00F8d"]}},{"type":"Feature","geometry":{"type":"Point","coordinates":[12.33792446,55.86439363]},"properties":{"id":"19e4392f-c53f-5d41-e053-d380220a2006","navn":"Kratbjergskolen - Afdeling Engholm","hovedtype":"Bygning","undertype":"folkeskole","navnestatus":"officielt","kommuner":["Aller\u00F8d"]}},{"type":"Feature","geometry":{"type":"Point","coordinates":[12.34456211,55.87217355]},"properties":{"id":"19e4392f-c541-5d41-e053-d380220a2006","navn":"Lillevang Skole - Afdeling Liller\u00F8d","hovedtype":"Bygning","undertype":"folkeskole","navnestatus":"officielt","kommuner":["Aller\u00F8d"]}},{"type":"Feature","geometry":{"type":"Point","coordinates":[12.28552575,55.84412465]},"properties":{"id":"19e4392f-c542-5d41-e053-d380220a2006","navn":"Lynge Skole","hovedtype":"Bygning","undertype":"folkeskole","navnestatus":"officielt","kommuner":["Aller\u00F8d"]}},{"type":"Feature","geometry":{"type":"Point","coordinates":[12.34388806,55.85529388]},"properties":{"id":"19e4392f-c543-5d41-e053-d380220a2006","navn":"Kratbjergskolen - Afdeling Ravnsholt","hovedtype":"Bygning","undertype":"folkeskole","navnestatus":"officielt","kommuner":["Aller\u00F8d"]}},{"type":"Feature","geometry":{"type":"Point","coordinates":[12.35350752,55.87942092]},"properties":{"id":"19e4392f-c544-5d41-e053-d380220a2006","navn":"Lillevang Skole - Afdeling Skovvang","hovedtype":"Bygning","undertype":"folkeskole","navnestatus":"officielt","kommuner":["Aller\u00F8d"]}},{"type":"Feature","geometry":{"type":"Point","coordinates":[14.79244463,55.28363313]},"properties":{"id":"19e4392f-c550-5d41-e053-d380220a2006","navn":"Kongesk\u00E6rskolen","hovedtype":"Bygning","undertype":"folkeskole","navnestatus":"officielt","kommuner":["Bornholm"]}},{"type":"Feature","geometry":{"type":"Point","coordinates":[9.84377237,56.67197286]},"properties":{"id":"19e4392f-c558-5d41-e053-d380220a2006","navn":"Valsg\u00E5rd Skole","hovedtype":"Bygning","undertype":"folkeskole","navnestatus":"officielt","kommuner":["Mariagerfjord"]}},{"type":"Feature","geometry":{"type":"Point","coordinates":[9.97474295,55.241646]},"properties":{"id":"19e4392f-c560-5d41-e053-d380220a2006","navn":"Ebberup skole","hovedtype":"Bygning","undertype":"folkeskole","navnestatus":"officielt","kommuner":["Assens"]}},{"type":"Feature","geometry":{"type":"Point","coordinates":[9.90383724,55.27390109]},"properties":{"id":"19e4392f-c561-5d41-e053-d380220a2006","navn":"Peter Willemoesskolen","hovedtype":"Bygning","undertype":"folkeskole","navnestatus":"officielt","kommuner":["Assens"]}},{"type":"Feature","geometry":{"type":"Point","coordinates":[8.99708751,56.38895911]},"properties":{"id":"19e4392f-c569-5d41-e053-d380220a2006","navn":"Haderup Skole","hovedtype":"Bygning","undertype":"folkeskole","navnestatus":"officielt","kommuner":["Herning"]}},{"type":"Feature","geometry":{"type":"Point","coordinates":[8.85640111,56.31579035]},"properties":{"id":"19e4392f-c56a-5d41-e053-d380220a2006","navn":"Hodsager Skole","hovedtype":"Bygning","undertype":"folkeskole","navnestatus":"uofficielt","kommuner":["Herning"]}},{"type":"Feature","geometry":{"type":"Point","coordinates":[12.37880947,55.74911157]},"properties":{"id":"19e4392f-c56f-5d41-e053-d380220a2006","navn":"Skovvejens Skole - Afdeling \u00D8st","hovedtype":"Bygning","undertype":"folkeskole","navnestatus":"officielt","kommuner":["Ballerup"]}},{"type":"Feature","geometry":{"type":"Point","coordinates":[12.34368421,55.7243753]},"properties":{"id":"19e4392f-c570-5d41-e053-d380220a2006","navn":"Baltorpskolen - Afdeling Grantoften","hovedtype":"Bygning","undertype":"folkeskole","navnestatus":"officielt","kommuner":["Ballerup"]}},{"type":"Feature","geometry":{"type":"Point","coordinates":[12.35760797,55.72015803]},"properties":{"id":"19e4392f-c571-5d41-e053-d380220a2006","navn":"Hedeg\u00E5rdsskolen","hovedtype":"Bygning","undertype":"folkeskole","navnestatus":"officielt","kommuner":["Ballerup"]}},{"type":"Feature","geometry":{"type":"Point","coordinates":[12.36517147,55.74246876]},"properties":{"id":"19e4392f-c572-5d41-e053-d380220a2006","navn":"Skovvejens Skole - Afdeling Vest","hovedtype":"Bygning","undertype":"folkeskole","navnestatus":"officielt","kommuner":["Ballerup"]}},{"type":"Feature","geometry":{"type":"Point","coordinates":[12.41442164,55.72173249]},"properties":{"id":"19e4392f-c573-5d41-e053-d380220a2006","navn":"Skovlunde Skole - Afdeling Lundebjerg","hovedtype":"Bygning","undertype":"folkeskole","navnestatus":"officielt","kommuner":["Ballerup"]}},{"type":"Feature","geometry":{"type":"Point","coordinates":[12.32143304,55.75097488]},"properties":{"id":"19e4392f-c574-5d41-e053-d380220a2006","navn":"M\u00E5l\u00F8vh\u00F8j Skole - Afdeling M\u00E5l\u00F8v","hovedtype":"Bygning","undertype":"folkeskole","navnestatus":"officielt","kommuner":["Ballerup"]}},{"type":"Feature","geometry":{"type":"Point","coordinates":[12.40206557,55.71542699]},"properties":{"id":"19e4392f-c575-5d41-e053-d380220a2006","navn":"Skovlunde Skole - Afdeling Rosenlund","hovedtype":"Bygning","undertype":"folkeskole","navnestatus":"officielt","kommuner":["Ballerup"]}},{"type":"Feature","geometry":{"type":"Point","coordinates":[12.36057931,55.7264269]},"properties":{"id":"19e4392f-c576-5d41-e053-d380220a2006","navn":"Baltorpskolen - Afdeling Rugv\u00E6nget","hovedtype":"Bygning","undertype":"folkeskole","navnestatus":"officielt","kommuner":["Ballerup"]}},{"type":"Feature","geometry":{"type":"Point","coordinates":[12.33427725,55.7498541]},"properties":{"id":"19e4392f-c577-5d41-e053-d380220a2006","navn":"M\u00E5l\u00F8vh\u00F8j Skole - Afdeling \u00D8sterh\u00F8j","hovedtype":"Bygning","undertype":"folkeskole","navnestatus":"officielt","kommuner":["Ballerup"]}},{"type":"Feature","geometry":{"type":"Point","coordinates":[9.10362243,55.72528359]},"properties":{"id":"19e4392f-c588-5d41-e053-d380220a2006","navn":"BillundSkolen","hovedtype":"Bygning","undertype":"folkeskole","navnestatus":"officielt","kommuner":["Billund"]}},{"type":"Feature","geometry":{"type":"Point","coordinates":[9.08390379,55.62872652]},"properties":{"id":"19e4392f-c589-5d41-e053-d380220a2006","navn":"Vorbasse Skole","hovedtype":"Bygning","undertype":"folkeskole","navnestatus":"officielt","kommuner":["Billund"]}},{"type":"Feature","geometry":{"type":"Point","coordinates":[12.42875763,55.82911314]},"properties":{"id":"19e4392f-c58e-5d41-e053-d380220a2006","navn":"S\u00F8holmskolen - Afdeling Bistrup","hovedtype":"Bygning","undertype":"folkeskole","navnestatus":"officielt","kommuner":["Rudersdal"]}},{"type":"Feature","geometry":{"type":"Point","coordinates":[12.4820067,55.85590787]},"properties":{"id":"19e4392f-c58f-5d41-e053-d380220a2006","navn":"Rude Skov Skole - Afdeling H\u00F8sterk\u00F8b","hovedtype":"Bygning","undertype":"folkeskole","navnestatus":"officielt","kommuner":["Rudersdal"]}},{"type":"Feature","geometry":{"type":"Point","coordinates":[12.41457634,55.84098886]},"properties":{"id":"19e4392f-c591-5d41-e053-d380220a2006","navn":"Birker\u00F8d Skole","hovedtype":"Bygning","undertype":"folkeskole","navnestatus":"officielt","kommuner":["Rudersdal"]}},{"type":"Feature","geometry":{"type":"Point","coordinates":[12.45131047,55.85187751]},"properties":{"id":"19e4392f-c592-5d41-e053-d380220a2006","navn":"Rude Skov Skole - Afdeling Sj\u00E6ls\u00F8","hovedtype":"Bygning","undertype":"folkeskole","navnestatus":"officielt","kommuner":["Rudersdal"]}},{"type":"Feature","geometry":{"type":"Point","coordinates":[12.43271893,55.84080429]},"properties":{"id":"19e4392f-c593-5d41-e053-d380220a2006","navn":"S\u00F8holmskolen - Afdeling Toftevang","hovedtype":"Bygning","undertype":"folkeskole","navnestatus":"officielt","kommuner":["Rudersdal"]}},{"type":"Feature","geometry":{"type":"Point","coordinates":[11.36825724,55.7218508]},"properties":{"id":"19e4392f-c59a-5d41-e053-d380220a2006","navn":"Firh\u00F8jskolen","hovedtype":"Bygning","undertype":"folkeskole","navnestatus":"officielt","kommuner":["Kalundborg"]}},{"type":"Feature","geometry":{"type":"Point","coordinates":[11.1386453,55.89100166]},"properties":{"id":"19e4392f-c59b-5d41-e053-d380220a2006","navn":"Sejer\u00F8 Skole","hovedtype":"Bygning","undertype":"folkeskole","navnestatus":"officielt","kommuner":["Kalundborg"]}},{"type":"Feature","geometry":{"type":"Point","coordinates":[11.28732874,55.65063134]},"properties":{"id":"19e4392f-c59c-5d41-e053-d380220a2006","navn":"Sveb\u00F8lle Skole","hovedtype":"Bygning","undertype":"folkeskole","navnestatus":"officielt","kommuner":["Kalundborg"]}},{"type":"Feature","geometry":{"type":"Point","coordinates":[9.5035245,56.35573801]},"properties":{"id":"19e4392f-c5a4-5d41-e053-d380220a2006","navn":"R\u00F8dk\u00E6rsbro Skole","hovedtype":"Bygning","undertype":"folkeskole","navnestatus":"officielt","kommuner":["Viborg"]}},{"type":"Feature","geometry":{"type":"Point","coordinates":[8.36925483,55.76277186]},"properties":{"id":"19e4392f-c5af-5d41-e053-d380220a2006","navn":"Bl\u00E5bjergskolen - Afdeling Bl\u00E5bjerg B\u00F8rneunivers","hovedtype":"Bygning","undertype":"folkeskole","navnestatus":"officielt","kommuner":["Varde"]}},{"type":"Feature","geometry":{"type":"Point","coordinates":[8.29536224,55.77758215]},"properties":{"id":"19e4392f-c5b0-5d41-e053-d380220a2006","navn":"Bl\u00E5bjergskolen - Afdeling Nr. Nebel","hovedtype":"Bygning","undertype":"folkeskole","navnestatus":"officielt","kommuner":["Varde"]}},{"type":"Feature","geometry":{"type":"Point","coordinates":[8.33903292,55.72441727]},"properties":{"id":"19e4392f-c5b1-5d41-e053-d380220a2006","navn":"Bl\u00E5bjergskolen - Afdeling Outrup","hovedtype":"Bygning","undertype":"folkeskole","navnestatus":"officielt","kommuner":["Varde"]}},{"type":"Feature","geometry":{"type":"Point","coordinates":[8.27288999,55.62962591]},"properties":{"id":"19e4392f-c5b5-5d41-e053-d380220a2006","navn":"Bl\u00E5vandshuk Skole","hovedtype":"Bygning","undertype":"folkeskole","navnestatus":"officielt","kommuner":["Varde"]}},{"type":"Feature","geometry":{"type":"Point","coordinates":[10.09575131,55.56580188]},"properties":{"id":"19e4392f-c5b8-5d41-e053-d380220a2006","navn":"Bogense Skole","hovedtype":"Bygning","undertype":"folkeskole","navnestatus":"officielt","kommuner":["Nordfyns"]}},{"type":"Feature","geometry":{"type":"Point","coordinates":[8.70305689,55.46874018]},"properties":{"id":"19e4392f-c5bb-5d41-e053-d380220a2006","navn":"Bakkevejens Skole","hovedtype":"Bygning","undertype":"folkeskole","navnestatus":"officielt","kommuner":["Esbjerg"]}},{"type":"Feature","geometry":{"type":"Point","coordinates":[8.65505181,55.43008088]},"properties":{"id":"19e4392f-c5bc-5d41-e053-d380220a2006","navn":"Darum Skole","hovedtype":"Bygning","undertype":"folkeskole","navnestatus":"officielt","kommuner":["Esbjerg"]}},{"type":"Feature","geometry":{"type":"Point","coordinates":[8.79591559,55.47299552]},"properties":{"id":"19e4392f-c5bd-5d41-e053-d380220a2006","navn":"G\u00F8rding Skole","hovedtype":"Bygning","undertype":"folkeskole","navnestatus":"officielt","kommuner":["Esbjerg"]}},{"type":"Feature","geometry":{"type":"Point","coordinates":[8.69594363,55.4728221]},"properties":{"id":"19e4392f-c5be-5d41-e053-d380220a2006","navn":"Nordre Skole Fortuna","hovedtype":"Bygning","undertype":"folkeskole","navnestatus":"officielt","kommuner":["Esbjerg"]}},{"type":"Feature","geometry":{"type":"Point","coordinates":[8.78328367,55.52349497]},"properties":{"id":"19e4392f-c5bf-5d41-e053-d380220a2006","navn":"Vejrup Skole","hovedtype":"Bygning","undertype":"folkeskole","navnestatus":"officielt","kommuner":["Esbjerg"]}},{"type":"Feature","geometry":{"type":"Point","coordinates":[11.89788765,55.70851045]},"properties":{"id":"19e4392f-c5c7-5d41-e053-d380220a2006","navn":"Kirke Hyllinge Skole","hovedtype":"Bygning","undertype":"folkeskole","navnestatus":"officielt","kommuner":["Lejre"]}},{"type":"Feature","geometry":{"type":"Point","coordinates":[9.13859425,55.94282668]},"properties":{"id":"19e4392f-c5cc-5d41-e053-d380220a2006","navn":"Dalgasskolen","hovedtype":"Bygning","undertype":"folkeskole","navnestatus":"officielt","kommuner":["Ikast-Brande"]}},{"type":"Feature","geometry":{"type":"Point","coordinates":[10.31911523,55.26711741]},"properties":{"id":"19e4392f-c5d1-5d41-e053-d380220a2006","navn":"Brobyskolerne - Afdeling Allested Vejle","hovedtype":"Bygning","undertype":"folkeskole","navnestatus":"officielt","kommuner":["Faaborg-Midtfyn"]}},{"type":"Feature","geometry":{"type":"Point","coordinates":[10.25204132,55.22973999]},"properties":{"id":"19e4392f-c5d2-5d41-e053-d380220a2006","navn":"Brobyskolerne - Afdeling Pontoppidan","hovedtype":"Bygning","undertype":"folkeskole","navnestatus":"officielt","kommuner":["Faaborg-Midtfyn"]}},{"type":"Feature","geometry":{"type":"Point","coordinates":[9.52823581,57.09610101]},"properties":{"id":"19e4392f-c5d6-5d41-e053-d380220a2006","navn":"Brovst Skole","hovedtype":"Bygning","undertype":"folkeskole","navnestatus":"officielt","kommuner":["Jammerbugt"]}},{"type":"Feature","geometry":{"type":"Point","coordinates":[9.48794072,57.08420848]},"properties":{"id":"19e4392f-c5d7-5d41-e053-d380220a2006","navn":"Skovsg\u00E5rd Tranum Skole","hovedtype":"Bygning","undertype":"folkeskole","navnestatus":"officielt","kommuner":["Jammerbugt"]}},{"type":"Feature","geometry":{"type":"Point","coordinates":[9.46377671,57.13389741]},"properties":{"id":"19e4392f-c5d8-5d41-e053-d380220a2006","navn":"Skovsg\u00E5rd Tranum Skole - Tranumafdelingen","hovedtype":"Bygning","undertype":"folkeskole","navnestatus":"officielt","kommuner":["Jammerbugt"]}},{"type":"Feature","geometry":{"type":"Point","coordinates":[9.60845875,55.97382726]},"properties":{"id":"19e4392f-c5dd-5d41-e053-d380220a2006","navn":"Br\u00E6dstrup Skole","hovedtype":"Bygning","undertype":"folkeskole","navnestatus":"officielt","kommuner":["Horsens"]}},{"type":"Feature","geometry":{"type":"Point","coordinates":[9.68685841,55.93236825]},"properties":{"id":"19e4392f-c5df-5d41-e053-d380220a2006","navn":"Nim Skole og B\u00F8rnehus","hovedtype":"Bygning","undertype":"folkeskole","navnestatus":"officielt","kommuner":["Horsens"]}},{"type":"Feature","geometry":{"type":"Point","coordinates":[9.73078132,56.02503308]},"properties":{"id":"19e4392f-c5e0-5d41-e053-d380220a2006","navn":"Voerladeg\u00E5rd Skole","hovedtype":"Bygning","undertype":"folkeskole","navnestatus":"officielt","kommuner":["Skanderborg"]}},{"type":"Feature","geometry":{"type":"Point","coordinates":[12.40124908,55.64958675]},"properties":{"id":"19e4392f-c5e5-5d41-e053-d380220a2006","navn":"Br\u00F8ndbyvester Skole - Afdeling Krogagervej","hovedtype":"Bygning","undertype":"folkeskole","navnestatus":"officielt","kommuner":["Br\u00F8ndby"]}},{"type":"Feature","geometry":{"type":"Point","coordinates":[12.44927606,55.66219405]},"properties":{"id":"19e4392f-c5e6-5d41-e053-d380220a2006","navn":"Br\u00F8ndby\u00F8ster Skole","hovedtype":"Bygning","undertype":"folkeskole","navnestatus":"officielt","kommuner":["Br\u00F8ndby"]}},{"type":"Feature","geometry":{"type":"Point","coordinates":[12.39955327,55.62683754]},"properties":{"id":"19e4392f-c5e9-5d41-e053-d380220a2006","navn":"Br\u00F8ndby Strand Skole - afdeling Dyringparken","hovedtype":"Bygning","undertype":"folkeskole","navnestatus":"officielt","kommuner":["Br\u00F8ndby"]}},{"type":"Feature","geometry":{"type":"Point","coordinates":[12.41361297,55.64546489]},"properties":{"id":"19e4392f-c5ea-5d41-e053-d380220a2006","navn":"Br\u00F8ndbyvester Skole - Afdeling Torneh\u00F8j","hovedtype":"Bygning","undertype":"folkeskole","navnestatus":"officielt","kommuner":["Br\u00F8ndby"]}},{"type":"Feature","geometry":{"type":"Point","coordinates":[9.94097783,57.28051726]},"properties":{"id":"19e4392f-c5f5-5d41-e053-d380220a2006","navn":"Hedeg\u00E5rdsskolen","hovedtype":"Bygning","undertype":"folkeskole","navnestatus":"officielt","kommuner":["Br\u00F8nderslev"]}},{"type":"Feature","geometry":{"type":"Point","coordinates":[9.95205814,57.26744477]},"properties":{"id":"19e4392f-c5f8-5d41-e053-d380220a2006","navn":"Skolegades Skole","hovedtype":"Bygning","undertype":"folkeskole","navnestatus":"officielt","kommuner":["Br\u00F8nderslev"]}},{"type":"Feature","geometry":{"type":"Point","coordinates":[9.94061141,57.26621035]},"properties":{"id":"19e4392f-c5fa-5d41-e053-d380220a2006","navn":"S\u00F8ndergades Skole","hovedtype":"Bygning","undertype":"folkeskole","navnestatus":"officielt","kommuner":["Br\u00F8nderslev"]}},{"type":"Feature","geometry":{"type":"Point","coordinates":[9.81396366,57.28804502]},"properties":{"id":"19e4392f-c5fb-5d41-e053-d380220a2006","navn":"Thise Skole","hovedtype":"Bygning","undertype":"folkeskole","navnestatus":"officielt","kommuner":["Br\u00F8nderslev"]}},{"type":"Feature","geometry":{"type":"Point","coordinates":[10.09460328,57.28218372]},"properties":{"id":"19e4392f-c5fc-5d41-e053-d380220a2006","navn":"Tofteg\u00E5rdsskolen","hovedtype":"Bygning","undertype":"folkeskole","navnestatus":"officielt","kommuner":["Br\u00F8nderslev"]}},{"type":"Feature","geometry":{"type":"Point","coordinates":[10.00512205,57.2476185]},"properties":{"id":"19e4392f-c5fd-5d41-e053-d380220a2006","navn":"\u00D8ster Br\u00F8nderslev Centralskole","hovedtype":"Bygning","undertype":"folkeskole","navnestatus":"officielt","kommuner":["Br\u00F8nderslev"]}},{"type":"Feature","geometry":{"type":"Point","coordinates":[9.01901276,55.48174304]},"properties":{"id":"19e4392f-c602-5d41-e053-d380220a2006","navn":"Br\u00F8rupskolen - Afdeling Skolegade","hovedtype":"Bygning","undertype":"folkeskole","navnestatus":"officielt","kommuner":["Vejen"]}},{"type":"Feature","geometry":{"type":"Point","coordinates":[9.01790466,55.56481846]},"properties":{"id":"19e4392f-c604-5d41-e053-d380220a2006","navn":"Holme\u00E5 B\u00F8rnecenter","hovedtype":"Bygning","undertype":"folkeskole","navnestatus":"officielt","kommuner":["Vejen"]}},{"type":"Feature","geometry":{"type":"Point","coordinates":[9.64337371,55.64144499]},"properties":{"id":"19e4392f-c60a-5d41-e053-d380220a2006","navn":"Englystskolen","hovedtype":"Bygning","undertype":"folkeskole","navnestatus":"officielt","kommuner":["Vejle"]}},{"type":"Feature","geometry":{"type":"Point","coordinates":[9.66374601,55.65271746]},"properties":{"id":"19e4392f-c60b-5d41-e053-d380220a2006","navn":"F\u00E6llesh\u00E5bsskolen","hovedtype":"Bygning","undertype":"folkeskole","navnestatus":"officielt","kommuner":["Vejle"]}},{"type":"Feature","geometry":{"type":"Point","coordinates":[9.70166922,55.63943556]},"properties":{"id":"19e4392f-c60c-5d41-e053-d380220a2006","navn":"G\u00E5rslev Skole","hovedtype":"Bygning","undertype":"folkeskole","navnestatus":"officielt","kommuner":["Vejle"]}},{"type":"Feature","geometry":{"type":"Point","coordinates":[9.56453228,55.6132162]},"properties":{"id":"19e4392f-c60d-5d41-e053-d380220a2006","navn":"Smidstrup-Sk\u00E6rup Skole","hovedtype":"Bygning","undertype":"folkeskole","navnestatus":"officielt","kommuner":["Vejle"]}},{"type":"Feature","geometry":{"type":"Point","coordinates":[11.49424623,55.5209717]},"properties":{"id":"19e4392f-c612-5d41-e053-d380220a2006","navn":"Holbergskolen","hovedtype":"Bygning","undertype":"folkeskole","navnestatus":"officielt","kommuner":["Sor\u00F8"]}},{"type":"Feature","geometry":{"type":"Point","coordinates":[11.37343064,55.5378615]},"properties":{"id":"19e4392f-c613-5d41-e053-d380220a2006","navn":"Ruds Vedby Skole","hovedtype":"Bygning","undertype":"folkeskole","navnestatus":"officielt","kommuner":["Sor\u00F8"]}},{"type":"Feature","geometry":{"type":"Point","coordinates":[11.5040336,55.8146995]},"properties":{"id":"19e4392f-c618-5d41-e053-d380220a2006","navn":"Asn\u00E6s Skole","hovedtype":"Bygning","undertype":"folkeskole","navnestatus":"officielt","kommuner":["Odsherred"]}},{"type":"Feature","geometry":{"type":"Point","coordinates":[11.47336076,55.78523062]},"properties":{"id":"19e4392f-c61a-5d41-e053-d380220a2006","navn":"F\u00E5revejle Skole","hovedtype":"Bygning","undertype":"folkeskole","navnestatus":"officielt","kommuner":["Odsherred"]}},{"type":"Feature","geometry":{"type":"Point","coordinates":[11.45185721,55.75370158]},"properties":{"id":"19e4392f-c61b-5d41-e053-d380220a2006","navn":"H\u00F8rve Skole","hovedtype":"Bygning","undertype":"folkeskole","navnestatus":"officielt","kommuner":["Odsherred"]}},{"type":"Feature","geometry":{"type":"Point","coordinates":[12.66956244,55.59364653]},"properties":{"id":"19e4392f-c627-5d41-e053-d380220a2006","navn":"Drag\u00F8r Skole","hovedtype":"Bygning","undertype":"folkeskole","navnestatus":"officielt","kommuner":["Drag\u00F8r"]}},{"type":"Feature","geometry":{"type":"Point","coordinates":[12.65937171,55.5990399]},"properties":{"id":"19e4392f-c628-5d41-e053-d380220a2006","navn":"Nordstrandskolen","hovedtype":"Bygning","undertype":"folkeskole","navnestatus":"officielt","kommuner":["Drag\u00F8r"]}},{"type":"Feature","geometry":{"type":"Point","coordinates":[12.63778756,55.59504138]},"properties":{"id":"19e4392f-c62a-5d41-e053-d380220a2006","navn":"Store Magleby Skole","hovedtype":"Bygning","undertype":"folkeskole","navnestatus":"officielt","kommuner":["Drag\u00F8r"]}},{"type":"Feature","geometry":{"type":"Point","coordinates":[10.40079008,57.14946008]},"properties":{"id":"19e4392f-c62e-5d41-e053-d380220a2006","navn":"Asaa Skole","hovedtype":"Bygning","undertype":"folkeskole","navnestatus":"officielt","kommuner":["Br\u00F8nderslev"]}},{"type":"Feature","geometry":{"type":"Point","coordinates":[10.28548151,57.15243421]},"properties":{"id":"19e4392f-c62f-5d41-e053-d380220a2006","navn":"Dronninglund Skole","hovedtype":"Bygning","undertype":"folkeskole","navnestatus":"officielt","kommuner":["Br\u00F8nderslev"]}},{"type":"Feature","geometry":{"type":"Point","coordinates":[10.29448343,57.24754088]},"properties":{"id":"19e4392f-c630-5d41-e053-d380220a2006","navn":"Flauenskjold Skole","hovedtype":"Bygning","undertype":"folkeskole","navnestatus":"officielt","kommuner":["Br\u00F8nderslev"]}},{"type":"Feature","geometry":{"type":"Point","coordinates":[10.15509975,57.16516195]},"properties":{"id":"19e4392f-c631-5d41-e053-d380220a2006","navn":"Hjallerup Skole","hovedtype":"Bygning","undertype":"folkeskole","navnestatus":"officielt","kommuner":["Br\u00F8nderslev"]}},{"type":"Feature","geometry":{"type":"Point","coordinates":[10.15645975,57.20829461]},"properties":{"id":"19e4392f-c632-5d41-e053-d380220a2006","navn":"Klokkerholm Skole","hovedtype":"Bygning","undertype":"folkeskole","navnestatus":"officielt","kommuner":["Br\u00F8nderslev"]}},{"type":"Feature","geometry":{"type":"Point","coordinates":[10.48726755,56.21134114]},"properties":{"id":"19e4392f-c63c-5d41-e053-d380220a2006","navn":"Molsskolen","hovedtype":"Bygning","undertype":"folkeskole","navnestatus":"officielt","kommuner":["Syddjurs"]}},{"type":"Feature","geometry":{"type":"Point","coordinates":[10.77297042,56.29862779]},"properties":{"id":"19e4392f-c63d-5d41-e053-d380220a2006","navn":"Rosmus Skole","hovedtype":"Bygning","undertype":"folkeskole","navnestatus":"officielt","kommuner":["Syddjurs"]}},{"type":"Feature","geometry":{"type":"Point","coordinates":[9.86967184,56.76444374]},"properties":{"id":"19e4392f-c643-5d41-e053-d380220a2006","navn":"Arden Skole","hovedtype":"Bygning","undertype":"folkeskole","navnestatus":"officielt","kommuner":["Mariagerfjord"]}},{"type":"Feature","geometry":{"type":"Point","coordinates":[10.68245284,56.19347324]},"properties":{"id":"19e4392f-c644-5d41-e053-d380220a2006","navn":"Ebeltoft Skole","hovedtype":"Bygning","undertype":"folkeskole","navnestatus":"officielt","kommuner":["Syddjurs"]}},{"type":"Feature","geometry":{"type":"Point","coordinates":[10.54028613,55.11459726]},"properties":{"id":"19e4392f-c647-5d41-e053-d380220a2006","navn":"Iss\u00F8-skolen - Afdeling Kirkeby","hovedtype":"Bygning","undertype":"folkeskole","navnestatus":"officielt","kommuner":["Svendborg"]}},{"type":"Feature","geometry":{"type":"Point","coordinates":[10.50113032,55.13224765]},"properties":{"id":"19e4392f-c648-5d41-e053-d380220a2006","navn":"Iss\u00F8-skolen - Afdeling Stenstrup","hovedtype":"Bygning","undertype":"folkeskole","navnestatus":"officielt","kommuner":["Svendborg"]}},{"type":"Feature","geometry":{"type":"Point","coordinates":[10.44960106,55.07457082]},"properties":{"id":"19e4392f-c649-5d41-e053-d380220a2006","navn":"Vestermarkskolen","hovedtype":"Bygning","undertype":"folkeskole","navnestatus":"officielt","kommuner":["Svendborg"]}},{"type":"Feature","geometry":{"type":"Point","coordinates":[9.37658016,55.70400103]},"properties":{"id":"19e4392f-c64f-5d41-e053-d380220a2006","navn":"Bredsten-Gadbjerg Skole - Bredsten Afd.","hovedtype":"Bygning","undertype":"folkeskole","navnestatus":"officielt","kommuner":["Vejle"]}},{"type":"Feature","geometry":{"type":"Point","coordinates":[9.31070695,55.70299519]},"properties":{"id":"19e4392f-c650-5d41-e053-d380220a2006","navn":"Fireh\u00F8jeskolen","hovedtype":"Bygning","undertype":"folkeskole","navnestatus":"officielt","kommuner":["Vejle"]}},{"type":"Feature","geometry":{"type":"Point","coordinates":[9.40062802,55.56795672]},"properties":{"id":"19e4392f-c652-5d41-e053-d380220a2006","navn":"Vester Nebel Skole","hovedtype":"Bygning","undertype":"folkeskole","navnestatus":"officielt","kommuner":["Kolding"]}},{"type":"Feature","geometry":{"type":"Point","coordinates":[9.4034499,55.65697926]},"properties":{"id":"19e4392f-c653-5d41-e053-d380220a2006","navn":"\u00D8dsted Skole","hovedtype":"Bygning","undertype":"folkeskole","navnestatus":"officielt","kommuner":["Vejle"]}},{"type":"Feature","geometry":{"type":"Point","coordinates":[9.44365214,55.59811455]},"properties":{"id":"19e4392f-c654-5d41-e053-d380220a2006","navn":"\u00D8ster Starup Skole","hovedtype":"Bygning","undertype":"folkeskole","navnestatus":"officielt","kommuner":["Vejle"]}},{"type":"Feature","geometry":{"type":"Point","coordinates":[8.31999439,55.83631724]},"properties":{"id":"19e4392f-c65e-5d41-e053-d380220a2006","navn":"Bork Skole","hovedtype":"Bygning","undertype":"folkeskole","navnestatus":"officielt","kommuner":["Ringk\u00F8bing-Skjern"]}},{"type":"Feature","geometry":{"type":"Point","coordinates":[8.50646021,55.90205154]},"properties":{"id":"19e4392f-c660-5d41-e053-d380220a2006","navn":"Tarm Skole Overbygningen","hovedtype":"Bygning","undertype":"folkeskole","navnestatus":"officielt","kommuner":["Ringk\u00F8bing-Skjern"]}},{"type":"Feature","geometry":{"type":"Point","coordinates":[8.5185972,55.9023975]},"properties":{"id":"19e4392f-c661-5d41-e053-d380220a2006","navn":"Tarm Skole Hovedskolen","hovedtype":"Bygning","undertype":"folkeskole","navnestatus":"officielt","kommuner":["Ringk\u00F8bing-Skjern"]}},{"type":"Feature","geometry":{"type":"Point","coordinates":[9.97838816,55.48105597]},"properties":{"id":"19e4392f-c66e-5d41-e053-d380220a2006","navn":"Anna Trolles Skole","hovedtype":"Bygning","undertype":"folkeskole","navnestatus":"officielt","kommuner":["Middelfart"]}},{"type":"Feature","geometry":{"type":"Point","coordinates":[9.93748339,55.4344621]},"properties":{"id":"19e4392f-c66f-5d41-e053-d380220a2006","navn":"Ejby Skole","hovedtype":"Bygning","undertype":"folkeskole","navnestatus":"officielt","kommuner":["Middelfart"]}},{"type":"Feature","geometry":{"type":"Point","coordinates":[10.03001496,55.45392932]},"properties":{"id":"19e4392f-c670-5d41-e053-d380220a2006","navn":"Fjelsted Harndrup B\u00F8rneunivers","hovedtype":"Bygning","undertype":"folkeskole","navnestatus":"officielt","kommuner":["Middelfart"]}},{"type":"Feature","geometry":{"type":"Point","coordinates":[9.9728061,55.40190936]},"properties":{"id":"19e4392f-c671-5d41-e053-d380220a2006","navn":"Gelsted Skole","hovedtype":"Bygning","undertype":"folkeskole","navnestatus":"officielt","kommuner":["Middelfart"]}},{"type":"Feature","geometry":{"type":"Point","coordinates":[8.48251416,55.48347378]},"properties":{"id":"19e4392f-c676-5d41-e053-d380220a2006","navn":"Bakkeskolen Cosmos","hovedtype":"Bygning","undertype":"folkeskole","navnestatus":"officielt","kommuner":["Esbjerg"]}},{"type":"Feature","geometry":{"type":"Point","coordinates":[8.4477723,55.51548527]},"properties":{"id":"19e4392f-c677-5d41-e053-d380220a2006","navn":"Studie 10","hovedtype":"Bygning","undertype":"folkeskole","navnestatus":"officielt","kommuner":["Esbjerg"]}},{"type":"Feature","geometry":{"type":"Point","coordinates":[8.45986742,55.47875537]},"properties":{"id":"19e4392f-c678-5d41-e053-d380220a2006","navn":"Boldesager Skole","hovedtype":"Bygning","undertype":"folkeskole","navnestatus":"officielt","kommuner":["Esbjerg"]}},{"type":"Feature","geometry":{"type":"Point","coordinates":[8.4615004,55.52836402]},"properties":{"id":"19e4392f-c67a-5d41-e053-d380220a2006","navn":"Bryndum Skole","hovedtype":"Bygning","undertype":"folkeskole","navnestatus":"officielt","kommuner":["Esbjerg"]}},{"type":"Feature","geometry":{"type":"Point","coordinates":[8.45073741,55.46794951]},"properties":{"id":"19e4392f-c67b-5d41-e053-d380220a2006","navn":"Danmarksgades Skole Urban","hovedtype":"Bygning","undertype":"folkeskole","navnestatus":"officielt","kommuner":["Esbjerg"]}},{"type":"Feature","geometry":{"type":"Point","coordinates":[8.42123715,55.49913234]},"properties":{"id":"19e4392f-c67c-5d41-e053-d380220a2006","navn":"Fourfeldtskolen","hovedtype":"Bygning","undertype":"folkeskole","navnestatus":"officielt","kommuner":["Esbjerg"]}},{"type":"Feature","geometry":{"type":"Point","coordinates":[8.49007608,55.49578672]},"properties":{"id":"19e4392f-c67e-5d41-e053-d380220a2006","navn":"Kvaglundskolen","hovedtype":"Bygning","undertype":"folkeskole","navnestatus":"officielt","kommuner":["Esbjerg"]}},{"type":"Feature","geometry":{"type":"Point","coordinates":[8.49057,55.4703262]},"properties":{"id":"19e4392f-c67f-5d41-e053-d380220a2006","navn":"Pr\u00E6steg\u00E5rdsskolen Urban","hovedtype":"Bygning","undertype":"folkeskole","navnestatus":"officielt","kommuner":["Esbjerg"]}},{"type":"Feature","geometry":{"type":"Point","coordinates":[8.46819003,55.46956129]},"properties":{"id":"19e4392f-c680-5d41-e053-d380220a2006","navn":"R\u00F8rkj\u00E6r Skole Urban","hovedtype":"Bygning","undertype":"folkeskole","navnestatus":"officielt","kommuner":["Esbjerg"]}},{"type":"Feature","geometry":{"type":"Point","coordinates":[8.53764856,55.50209243]},"properties":{"id":"19e4392f-c681-5d41-e053-d380220a2006","navn":"Skads Skole Signatur","hovedtype":"Bygning","undertype":"folkeskole","navnestatus":"officielt","kommuner":["Esbjerg"]}},{"type":"Feature","geometry":{"type":"Point","coordinates":[8.45017412,55.48283302]},"properties":{"id":"19e4392f-c682-5d41-e053-d380220a2006","navn":"Spangsbjergskolen Cosmos","hovedtype":"Bygning","undertype":"folkeskole","navnestatus":"officielt","kommuner":["Esbjerg"]}},{"type":"Feature","geometry":{"type":"Point","coordinates":[8.42098649,55.52176859]},"properties":{"id":"19e4392f-c683-5d41-e053-d380220a2006","navn":"S\u00F8nderrisskolen Aura","hovedtype":"Bygning","undertype":"folkeskole","navnestatus":"officielt","kommuner":["Esbjerg"]}},{"type":"Feature","geometry":{"type":"Point","coordinates":[8.58364279,55.46396624]},"properties":{"id":"19e4392f-c684-5d41-e053-d380220a2006","navn":"Tj\u00E6reborg Skole","hovedtype":"Bygning","undertype":"folkeskole","navnestatus":"officielt","kommuner":["Esbjerg"]}},{"type":"Feature","geometry":{"type":"Point","coordinates":[8.44000124,55.50719545]},"properties":{"id":"19e4392f-c685-5d41-e053-d380220a2006","navn":"Vitaskolen","hovedtype":"Bygning","undertype":"folkeskole","navnestatus":"officielt","kommuner":["Esbjerg"]}},{"type":"Feature","geometry":{"type":"Point","coordinates":[8.39916785,55.50887013]},"properties":{"id":"19e4392f-c686-5d41-e053-d380220a2006","navn":"\u00C5dalskolen","hovedtype":"Bygning","undertype":"folkeskole","navnestatus":"officielt","kommuner":["Esbjerg"]}},{"type":"Feature","geometry":{"type":"Point","coordinates":[12.16191372,55.22183736]},"properties":{"id":"19e4392f-c6a5-5d41-e053-d380220a2006","navn":"Hylleholt Skole","hovedtype":"Bygning","undertype":"folkeskole","navnestatus":"uofficielt","kommuner":["Faxe"]}},{"type":"Feature","geometry":{"type":"Point","coordinates":[12.19016721,55.30767965]},"properties":{"id":"19e4392f-c6a6-5d41-e053-d380220a2006","navn":"Karise Skole","hovedtype":"Bygning","undertype":"folkeskole","navnestatus":"uofficielt","kommuner":["Faxe"]}},{"type":"Feature","geometry":{"type":"Point","coordinates":[12.1237593,55.25019312]},"properties":{"id":"19e4392f-c6a7-5d41-e053-d380220a2006","navn":"Rolloskolen","hovedtype":"Bygning","undertype":"folkeskole","navnestatus":"uofficielt","kommuner":["Faxe"]}},{"type":"Feature","geometry":{"type":"Point","coordinates":[8.3940125,55.44591526]},"properties":{"id":"19e4392f-c6ae-5d41-e053-d380220a2006","navn":"Fan\u00F8 Skole","hovedtype":"Bygning","undertype":"folkeskole","navnestatus":"officielt","kommuner":["Fan\u00F8"]}},{"type":"Feature","geometry":{"type":"Point","coordinates":[9.33635178,56.77113631]},"properties":{"id":"19e4392f-c6b2-5d41-e053-d380220a2006","navn":"Fars\u00F8 Skole","hovedtype":"Bygning","undertype":"folkeskole","navnestatus":"officielt","kommuner":["Vesthimmerlands"]}},{"type":"Feature","geometry":{"type":"Point","coordinates":[9.3595656,56.83806028]},"properties":{"id":"19e4392f-c6b5-5d41-e053-d380220a2006","navn":"Vester Hornum Skole","hovedtype":"Bygning","undertype":"folkeskole","navnestatus":"officielt","kommuner":["Vesthimmerlands"]}},{"type":"Feature","geometry":{"type":"Point","coordinates":[12.35750623,55.81281521]},"properties":{"id":"19e4392f-c6bc-5d41-e053-d380220a2006","navn":"Solvangskolen","hovedtype":"Bygning","undertype":"folkeskole","navnestatus":"officielt","kommuner":["Fures\u00F8"]}},{"type":"Feature","geometry":{"type":"Point","coordinates":[12.39611336,55.81591007]},"properties":{"id":"19e4392f-c6bd-5d41-e053-d380220a2006","navn":"Stavnsholtskolen","hovedtype":"Bygning","undertype":"folkeskole","navnestatus":"officielt","kommuner":["Fures\u00F8"]}},{"type":"Feature","geometry":{"type":"Point","coordinates":[12.38947908,55.82278733]},"properties":{"id":"19e4392f-c6be-5d41-e053-d380220a2006","navn":"Lyngholmskolen","hovedtype":"Bygning","undertype":"folkeskole","navnestatus":"officielt","kommuner":["Fures\u00F8"]}},{"type":"Feature","geometry":{"type":"Point","coordinates":[9.17414615,56.44388897]},"properties":{"id":"19e4392f-c6c5-5d41-e053-d380220a2006","navn":"M\u00F8nsted Skole","hovedtype":"Bygning","undertype":"folkeskole","navnestatus":"officielt","kommuner":["Viborg"]}},{"type":"Feature","geometry":{"type":"Point","coordinates":[9.22742609,56.4747922]},"properties":{"id":"19e4392f-c6c6-5d41-e053-d380220a2006","navn":"Spark\u00E6r Skole","hovedtype":"Bygning","undertype":"folkeskole","navnestatus":"officielt","kommuner":["Viborg"]}},{"type":"Feature","geometry":{"type":"Point","coordinates":[9.14736053,56.48444622]},"properties":{"id":"19e4392f-c6c7-5d41-e053-d380220a2006","navn":"Stoholm Skole","hovedtype":"Bygning","undertype":"folkeskole","navnestatus":"officielt","kommuner":["Viborg"]}},{"type":"Feature","geometry":{"type":"Point","coordinates":[9.26348482,57.09030032]},"properties":{"id":"19e4392f-c6cb-5d41-e053-d380220a2006","navn":"Fjerritslev Skole","hovedtype":"Bygning","undertype":"folkeskole","navnestatus":"officielt","kommuner":["Jammerbugt"]}},{"type":"Feature","geometry":{"type":"Point","coordinates":[9.16456427,57.09698476]},"properties":{"id":"19e4392f-c6cc-5d41-e053-d380220a2006","navn":"Thorup-Klim Skole","hovedtype":"Bygning","undertype":"folkeskole","navnestatus":"officielt","kommuner":["Jammerbugt"]}},{"type":"Feature","geometry":{"type":"Point","coordinates":[9.3680528,57.04970545]},"properties":{"id":"19e4392f-c6cd-5d41-e053-d380220a2006","navn":"Trekronerskolen","hovedtype":"Bygning","undertype":"folkeskole","navnestatus":"officielt","kommuner":["Jammerbugt"]}},{"type":"Feature","geometry":{"type":"Point","coordinates":[11.97566067,55.17921175]},"properties":{"id":"19e4392f-c6d3-5d41-e053-d380220a2006","navn":"Flads\u00E5skolen - Afdeling Korskilde","hovedtype":"Bygning","undertype":"folkeskole","navnestatus":"officielt","kommuner":["N\u00E6stved"]}},{"type":"Feature","geometry":{"type":"Point","coordinates":[11.86787793,55.17845263]},"properties":{"id":"19e4392f-c6d4-5d41-e053-d380220a2006","navn":"Flads\u00E5skolen - Afdeling Mogenstrup","hovedtype":"Bygning","undertype":"folkeskole","navnestatus":"officielt","kommuner":["N\u00E6stved"]}},{"type":"Feature","geometry":{"type":"Point","coordinates":[12.51994233,55.95860082]},"properties":{"id":"19e4392f-c6d8-5d41-e053-d380220a2006","navn":"Humleb\u00E6k Skole","hovedtype":"Bygning","undertype":"folkeskole","navnestatus":"officielt","kommuner":["Fredensborg"]}},{"type":"Feature","geometry":{"type":"Point","coordinates":[12.40638937,55.98551497]},"properties":{"id":"19e4392f-c6d9-5d41-e053-d380220a2006","navn":"Endrupskolen","hovedtype":"Bygning","undertype":"folkeskole","navnestatus":"officielt","kommuner":["Fredensborg"]}},{"type":"Feature","geometry":{"type":"Point","coordinates":[12.41912143,55.96480351]},"properties":{"id":"19e4392f-c6da-5d41-e053-d380220a2006","navn":"Fredensborg Skole Vilhelmsro","hovedtype":"Bygning","undertype":"folkeskole","navnestatus":"officielt","kommuner":["Fredensborg"]}},{"type":"Feature","geometry":{"type":"Point","coordinates":[12.53192319,55.9563641]},"properties":{"id":"19e4392f-c6db-5d41-e053-d380220a2006","navn":"Humleb\u00E6k Skole","hovedtype":"Bygning","undertype":"folkeskole","navnestatus":"officielt","kommuner":["Fredensborg"]}},{"type":"Feature","geometry":{"type":"Point","coordinates":[12.50545012,55.96225875]},"properties":{"id":"19e4392f-c6dc-5d41-e053-d380220a2006","navn":"Langebjergskolen","hovedtype":"Bygning","undertype":"folkeskole","navnestatus":"officielt","kommuner":["Fredensborg"]}},{"type":"Feature","geometry":{"type":"Point","coordinates":[11.13392024,54.83323383]},"properties":{"id":"19e4392f-c6e1-5d41-e053-d380220a2006","navn":"Byskolen Nakskov","hovedtype":"Bygning","undertype":"folkeskole","navnestatus":"officielt","kommuner":["Lolland"]}},{"type":"Feature","geometry":{"type":"Point","coordinates":[11.15480461,54.83768914]},"properties":{"id":"19e4392f-c6e3-5d41-e053-d380220a2006","navn":"Stormarkskolen","hovedtype":"Bygning","undertype":"folkeskole","navnestatus":"officielt","kommuner":["Lolland"]}},{"type":"Feature","geometry":{"type":"Point","coordinates":[15.12261117,55.06784398]},"properties":{"id":"19e4392f-c6e9-5d41-e053-d380220a2006","navn":"Paradisbakkeskolen","hovedtype":"Bygning","undertype":"folkeskole","navnestatus":"officielt","kommuner":["Bornholm"]}},{"type":"Feature","geometry":{"type":"Point","coordinates":[9.60757498,56.94427163]},"properties":{"id":"19e4392f-c6ed-5d41-e053-d380220a2006","navn":"Bislev Skole","hovedtype":"Bygning","undertype":"folkeskole","navnestatus":"officielt","kommuner":["Aalborg"]}},{"type":"Feature","geometry":{"type":"Point","coordinates":[9.45901066,56.98359191]},"properties":{"id":"19e4392f-c6ee-5d41-e053-d380220a2006","navn":"Farstrup Skole","hovedtype":"Bygning","undertype":"folkeskole","navnestatus":"officielt","kommuner":["Aalborg"]}},{"type":"Feature","geometry":{"type":"Point","coordinates":[9.64251862,56.97970093]},"properties":{"id":"19e4392f-c6ef-5d41-e053-d380220a2006","navn":"Nibe Skole","hovedtype":"Bygning","undertype":"folkeskole","navnestatus":"officielt","kommuner":["Aalborg"]}},{"type":"Feature","geometry":{"type":"Point","coordinates":[9.55977597,56.97579949]},"properties":{"id":"19e4392f-c6f0-5d41-e053-d380220a2006","navn":"Sebber Skole","hovedtype":"Bygning","undertype":"folkeskole","navnestatus":"officielt","kommuner":["Aalborg"]}},{"type":"Feature","geometry":{"type":"Point","coordinates":[10.72786034,55.36286909]},"properties":{"id":"19e4392f-c6f7-5d41-e053-d380220a2006","navn":"Vibeskolen - Afdeling Aunslev","hovedtype":"Bygning","undertype":"folkeskole","navnestatus":"officielt","kommuner":["Nyborg"]}},{"type":"Feature","geometry":{"type":"Point","coordinates":[10.79796524,55.31394777]},"properties":{"id":"19e4392f-c6f8-5d41-e053-d380220a2006","navn":"Birkhovedskolen","hovedtype":"Bygning","undertype":"folkeskole","navnestatus":"officielt","kommuner":["Nyborg"]}},{"type":"Feature","geometry":{"type":"Point","coordinates":[10.78018558,55.32161904]},"properties":{"id":"19e4392f-c6f9-5d41-e053-d380220a2006","navn":"Danehofskolen - afdeling Nyborg","hovedtype":"Bygning","undertype":"folkeskole","navnestatus":"officielt","kommuner":["Nyborg"]}},{"type":"Feature","geometry":{"type":"Point","coordinates":[10.73216431,55.300177]},"properties":{"id":"19e4392f-c6fa-5d41-e053-d380220a2006","navn":"Danehofskolen - Afdeling Vindinge","hovedtype":"Bygning","undertype":"folkeskole","navnestatus":"officielt","kommuner":["Nyborg"]}},{"type":"Feature","geometry":{"type":"Point","coordinates":[11.89474843,54.75318195]},"properties":{"id":"19e4392f-c707-5d41-e053-d380220a2006","navn":"\u00D8sterbroskolen","hovedtype":"Bygning","undertype":"folkeskole","navnestatus":"officielt","kommuner":["Guldborgsund"]}},{"type":"Feature","geometry":{"type":"Point","coordinates":[11.84582136,54.76185265]},"properties":{"id":"19e4392f-c709-5d41-e053-d380220a2006","navn":"SUNDskolen","hovedtype":"Bygning","undertype":"folkeskole","navnestatus":"officielt","kommuner":["Guldborgsund"]}},{"type":"Feature","geometry":{"type":"Point","coordinates":[11.6611445,55.92508174]},"properties":{"id":"19e4392f-c715-5d41-e053-d380220a2006","navn":"Nyk\u00F8bing Skole","hovedtype":"Bygning","undertype":"folkeskole","navnestatus":"officielt","kommuner":["Odsherred"]}},{"type":"Feature","geometry":{"type":"Point","coordinates":[11.74074299,54.66082634]},"properties":{"id":"19e4392f-c71b-5d41-e053-d380220a2006","navn":"Nysted Skole","hovedtype":"Bygning","undertype":"folkeskole","navnestatus":"officielt","kommuner":["Guldborgsund"]}},{"type":"Feature","geometry":{"type":"Point","coordinates":[11.59712107,55.25815277]},"properties":{"id":"19e4392f-c720-5d41-e053-d380220a2006","navn":"Vesterlandsskolen - Afdeling Hyllinge","hovedtype":"Bygning","undertype":"folkeskole","navnestatus":"officielt","kommuner":["N\u00E6stved"]}},{"type":"Feature","geometry":{"type":"Point","coordinates":[11.77348361,55.24252591]},"properties":{"id":"19e4392f-c721-5d41-e053-d380220a2006","navn":"Elleb\u00E6kskolen - Afdeling Kalbyris","hovedtype":"Bygning","undertype":"folkeskole","navnestatus":"officielt","kommuner":["N\u00E6stved"]}},{"type":"Feature","geometry":{"type":"Point","coordinates":[11.64713182,55.19252307]},"properties":{"id":"19e4392f-c722-5d41-e053-d380220a2006","navn":"Lille N\u00E6stved Skole - Afdeling Karreb\u00E6k","hovedtype":"Bygning","undertype":"folkeskole","navnestatus":"officielt","kommuner":["N\u00E6stved"]}},{"type":"Feature","geometry":{"type":"Point","coordinates":[11.78036751,55.23243642]},"properties":{"id":"19e4392f-c723-5d41-e053-d380220a2006","navn":"Elleb\u00E6kskolen - Afdeling Kildemark","hovedtype":"Bygning","undertype":"folkeskole","navnestatus":"officielt","kommuner":["N\u00E6stved"]}},{"type":"Feature","geometry":{"type":"Point","coordinates":[11.74912392,55.2335011]},"properties":{"id":"19e4392f-c724-5d41-e053-d380220a2006","navn":"Lille N\u00E6stved Skole - Afdeling Herlufsholmvej","hovedtype":"Bygning","undertype":"folkeskole","navnestatus":"officielt","kommuner":["N\u00E6stved"]}},{"type":"Feature","geometry":{"type":"Point","coordinates":[11.76419752,55.21866244]},"properties":{"id":"19e4392f-c725-5d41-e053-d380220a2006","navn":"Kobberbakkeskolen - Afdeling Sj\u00F8lund","hovedtype":"Bygning","undertype":"folkeskole","navnestatus":"officielt","kommuner":["N\u00E6stved"]}},{"type":"Feature","geometry":{"type":"Point","coordinates":[11.76875933,55.2097535]},"properties":{"id":"19e4392f-c726-5d41-e053-d380220a2006","navn":"Kobberbakkeskolen - Afdeling Sydby","hovedtype":"Bygning","undertype":"folkeskole","navnestatus":"officielt","kommuner":["N\u00E6stved"]}},{"type":"Feature","geometry":{"type":"Point","coordinates":[11.79949607,55.20651648]},"properties":{"id":"19e4392f-c727-5d41-e053-d380220a2006","navn":"Kobberbakkeskolen - Afdeling R\u00F8nneb\u00E6k","hovedtype":"Bygning","undertype":"folkeskole","navnestatus":"officielt","kommuner":["N\u00E6stved"]}},{"type":"Feature","geometry":{"type":"Point","coordinates":[11.74995081,55.21266815]},"properties":{"id":"19e4392f-c728-5d41-e053-d380220a2006","navn":"Kobberbakkeskolen - Afdeling Sct. J\u00F8rgen","hovedtype":"Bygning","undertype":"folkeskole","navnestatus":"officielt","kommuner":["N\u00E6stved"]}},{"type":"Feature","geometry":{"type":"Point","coordinates":[9.67950371,56.79046385]},"properties":{"id":"19e4392f-c733-5d41-e053-d380220a2006","navn":"Haverslev Skole","hovedtype":"Bygning","undertype":"folkeskole","navnestatus":"officielt","kommuner":["Rebild"]}},{"type":"Feature","geometry":{"type":"Point","coordinates":[9.64094317,56.70299446]},"properties":{"id":"19e4392f-c735-5d41-e053-d380220a2006","navn":"Sortebakkeskolen","hovedtype":"Bygning","undertype":"folkeskole","navnestatus":"officielt","kommuner":["Rebild"]}},{"type":"Feature","geometry":{"type":"Point","coordinates":[10.18752719,56.58158332]},"properties":{"id":"19e4392f-c73c-5d41-e053-d380220a2006","navn":"Gr\u00F8nh\u00F8jskolen","hovedtype":"Bygning","undertype":"folkeskole","navnestatus":"officielt","kommuner":["Randers"]}},{"type":"Feature","geometry":{"type":"Point","coordinates":[10.13410027,56.49896909]},"properties":{"id":"19e4392f-c73d-5d41-e053-d380220a2006","navn":"Korsh\u00F8jskolen","hovedtype":"Bygning","undertype":"folkeskole","navnestatus":"officielt","kommuner":["Randers"]}},{"type":"Feature","geometry":{"type":"Point","coordinates":[11.87099897,54.85723612]},"properties":{"id":"19e4392f-c743-5d41-e053-d380220a2006","navn":"Eskilstrup Skole","hovedtype":"Bygning","undertype":"folkeskole","navnestatus":"officielt","kommuner":["Guldborgsund"]}},{"type":"Feature","geometry":{"type":"Point","coordinates":[11.88163814,54.89524144]},"properties":{"id":"19e4392f-c744-5d41-e053-d380220a2006","navn":"N\u00F8rre Alslev Skole","hovedtype":"Bygning","undertype":"folkeskole","navnestatus":"officielt","kommuner":["Guldborgsund"]}},{"type":"Feature","geometry":{"type":"Point","coordinates":[11.83750667,54.92914292]},"properties":{"id":"19e4392f-c745-5d41-e053-d380220a2006","navn":"N\u00F8rre Vedby Skole og B\u00F8rnehus","hovedtype":"Bygning","undertype":"folkeskole","navnestatus":"officielt","kommuner":["Guldborgsund"]}},{"type":"Feature","geometry":{"type":"Point","coordinates":[10.71536941,56.47863473]},"properties":{"id":"19e4392f-c74b-5d41-e053-d380220a2006","navn":"Glesborg Skole","hovedtype":"Bygning","undertype":"folkeskole","navnestatus":"officielt","kommuner":["Norddjurs"]}},{"type":"Feature","geometry":{"type":"Point","coordinates":[9.90738283,55.48869961]},"properties":{"id":"19e4392f-c751-5d41-e053-d380220a2006","navn":"B\u00E5ring Skole","hovedtype":"Bygning","undertype":"folkeskole","navnestatus":"officielt","kommuner":["Middelfart"]}},{"type":"Feature","geometry":{"type":"Point","coordinates":[9.87082014,55.45267685]},"properties":{"id":"19e4392f-c752-5d41-e053-d380220a2006","navn":"N\u00F8rre Aaby Skole","hovedtype":"Bygning","undertype":"folkeskole","navnestatus":"officielt","kommuner":["Middelfart"]}},{"type":"Feature","geometry":{"type":"Point","coordinates":[9.28457608,55.9847283]},"properties":{"id":"19e4392f-c759-5d41-e053-d380220a2006","navn":"Ejstrupholm Skole","hovedtype":"Bygning","undertype":"folkeskole","navnestatus":"officielt","kommuner":["Ikast-Brande"]}},{"type":"Feature","geometry":{"type":"Point","coordinates":[9.39459117,55.96243534]},"properties":{"id":"19e4392f-c75c-5d41-e053-d380220a2006","navn":"N\u00F8rre Snede Skole","hovedtype":"Bygning","undertype":"folkeskole","navnestatus":"officielt","kommuner":["Ikast-Brande"]}},{"type":"Feature","geometry":{"type":"Point","coordinates":[10.16885922,55.89101709]},"properties":{"id":"19e4392f-c766-5d41-e053-d380220a2006","navn":"Gylling Skole og B\u00F8rnehus","hovedtype":"Bygning","undertype":"folkeskole","navnestatus":"officielt","kommuner":["Odder"]}},{"type":"Feature","geometry":{"type":"Point","coordinates":[10.24922315,55.91603267]},"properties":{"id":"19e4392f-c767-5d41-e053-d380220a2006","navn":"Hou Skole og B\u00F8rnehus","hovedtype":"Bygning","undertype":"folkeskole","navnestatus":"officielt","kommuner":["Odder"]}},{"type":"Feature","geometry":{"type":"Point","coordinates":[10.05243701,55.91456554]},"properties":{"id":"19e4392f-c768-5d41-e053-d380220a2006","navn":"Hundslund Skole og B\u00F8rnehus","hovedtype":"Bygning","undertype":"folkeskole","navnestatus":"officielt","kommuner":["Odder"]}},{"type":"Feature","geometry":{"type":"Point","coordinates":[10.16299347,55.97816378]},"properties":{"id":"19e4392f-c769-5d41-e053-d380220a2006","navn":"Parkvejens Skole","hovedtype":"Bygning","undertype":"folkeskole","navnestatus":"officielt","kommuner":["Odder"]}},{"type":"Feature","geometry":{"type":"Point","coordinates":[10.23209974,55.98654969]},"properties":{"id":"19e4392f-c76b-5d41-e053-d380220a2006","navn":"Saksild Skole og B\u00F8rnehus","hovedtype":"Bygning","undertype":"folkeskole","navnestatus":"officielt","kommuner":["Odder"]}},{"type":"Feature","geometry":{"type":"Point","coordinates":[10.44599762,55.94907571]},"properties":{"id":"19e4392f-c76c-5d41-e053-d380220a2006","navn":"Tun\u00F8 Skole","hovedtype":"Bygning","undertype":"folkeskole","navnestatus":"officielt","kommuner":["Odder"]}},{"type":"Feature","geometry":{"type":"Point","coordinates":[10.43072927,55.40968979]},"properties":{"id":"19e4392f-c77d-5d41-e053-d380220a2006","navn":"Odinskolen","hovedtype":"Bygning","undertype":"folkeskole","navnestatus":"officielt","kommuner":["Odense"]}},{"type":"Feature","geometry":{"type":"Point","coordinates":[10.48285836,55.43020714]},"properties":{"id":"19e4392f-c77e-5d41-e053-d380220a2006","navn":"Agedrup Skole","hovedtype":"Bygning","undertype":"folkeskole","navnestatus":"officielt","kommuner":["Odense"]}},{"type":"Feature","geometry":{"type":"Point","coordinates":[10.37969813,55.35818218]},"properties":{"id":"19e4392f-c780-5d41-e053-d380220a2006","navn":"Dalumskolen","hovedtype":"Bygning","undertype":"folkeskole","navnestatus":"officielt","kommuner":["Odense"]}},{"type":"Feature","geometry":{"type":"Point","coordinates":[10.40094834,55.36086493]},"properties":{"id":"19e4392f-c782-5d41-e053-d380220a2006","navn":"Hjalleseskolen","hovedtype":"Bygning","undertype":"folkeskole","navnestatus":"officielt","kommuner":["Odense"]}},{"type":"Feature","geometry":{"type":"Point","coordinates":[10.44960223,55.36531681]},"properties":{"id":"19e4392f-c783-5d41-e053-d380220a2006","navn":"Holluf Pile Skole","hovedtype":"Bygning","undertype":"folkeskole","navnestatus":"officielt","kommuner":["Odense"]}},{"type":"Feature","geometry":{"type":"Point","coordinates":[10.37232785,55.38685618]},"properties":{"id":"19e4392f-c784-5d41-e053-d380220a2006","navn":"Hunderupskolen","hovedtype":"Bygning","undertype":"folkeskole","navnestatus":"officielt","kommuner":["Odense"]}},{"type":"Feature","geometry":{"type":"Point","coordinates":[10.44140984,55.33270688]},"properties":{"id":"19e4392f-c785-5d41-e053-d380220a2006","navn":"H\u00F8jby Skole","hovedtype":"Bygning","undertype":"folkeskole","navnestatus":"officielt","kommuner":["Odense"]}},{"type":"Feature","geometry":{"type":"Point","coordinates":[10.26460856,55.42026544]},"properties":{"id":"19e4392f-c786-5d41-e053-d380220a2006","navn":"Korup Skole","hovedtype":"Bygning","undertype":"folkeskole","navnestatus":"officielt","kommuner":["Odense"]}},{"type":"Feature","geometry":{"type":"Point","coordinates":[10.41725131,55.3865734]},"properties":{"id":"19e4392f-c787-5d41-e053-d380220a2006","navn":"Ejerslykkeskolen","hovedtype":"Bygning","undertype":"folkeskole","navnestatus":"officielt","kommuner":["Odense"]}},{"type":"Feature","geometry":{"type":"Point","coordinates":[10.37461883,55.45543805]},"properties":{"id":"19e4392f-c788-5d41-e053-d380220a2006","navn":"Lumby Skole","hovedtype":"Bygning","undertype":"folkeskole","navnestatus":"officielt","kommuner":["Odense"]}},{"type":"Feature","geometry":{"type":"Point","coordinates":[10.3983793,55.38585238]},"properties":{"id":"19e4392f-c789-5d41-e053-d380220a2006","navn":"Munkebjergskolen","hovedtype":"Bygning","undertype":"folkeskole","navnestatus":"officielt","kommuner":["Odense"]}},{"type":"Feature","geometry":{"type":"Point","coordinates":[10.35735293,55.41765477]},"properties":{"id":"19e4392f-c78a-5d41-e053-d380220a2006","navn":"N\u00E6sby Skole","hovedtype":"Bygning","undertype":"folkeskole","navnestatus":"officielt","kommuner":["Odense"]}},{"type":"Feature","geometry":{"type":"Point","coordinates":[10.3404703,55.39179149]},"properties":{"id":"19e4392f-c78b-5d41-e053-d380220a2006","navn":"Provsteg\u00E5rdskolen","hovedtype":"Bygning","undertype":"folkeskole","navnestatus":"officielt","kommuner":["Odense"]}},{"type":"Feature","geometry":{"type":"Point","coordinates":[10.31479269,55.40860909]},"properties":{"id":"19e4392f-c78c-5d41-e053-d380220a2006","navn":"Paarup Skole","hovedtype":"Bygning","undertype":"folkeskole","navnestatus":"officielt","kommuner":["Odense"]}},{"type":"Feature","geometry":{"type":"Point","coordinates":[10.2935993,55.34319274]},"properties":{"id":"19e4392f-c78d-5d41-e053-d380220a2006","navn":"Rasmus Rask-Skolen","hovedtype":"Bygning","undertype":"folkeskole","navnestatus":"officielt","kommuner":["Odense"]}},{"type":"Feature","geometry":{"type":"Point","coordinates":[10.33670518,55.35210597]},"properties":{"id":"19e4392f-c78e-5d41-e053-d380220a2006","navn":"H\u00F8jmeskolen","hovedtype":"Bygning","undertype":"folkeskole","navnestatus":"officielt","kommuner":["Odense"]}},{"type":"Feature","geometry":{"type":"Point","coordinates":[10.41317565,55.40812069]},"properties":{"id":"19e4392f-c78f-5d41-e053-d380220a2006","navn":"Risingskolen","hovedtype":"Bygning","undertype":"folkeskole","navnestatus":"officielt","kommuner":["Odense"]}},{"type":"Feature","geometry":{"type":"Point","coordinates":[10.42466889,55.37922223]},"properties":{"id":"19e4392f-c790-5d41-e053-d380220a2006","navn":"Roseng\u00E5rdskolen","hovedtype":"Bygning","undertype":"folkeskole","navnestatus":"officielt","kommuner":["Odense"]}},{"type":"Feature","geometry":{"type":"Point","coordinates":[10.34657952,55.36973349]},"properties":{"id":"19e4392f-c791-5d41-e053-d380220a2006","navn":"Sanderumskolen","hovedtype":"Bygning","undertype":"folkeskole","navnestatus":"officielt","kommuner":["Odense"]}},{"type":"Feature","geometry":{"type":"Point","coordinates":[10.39612034,55.41467753]},"properties":{"id":"19e4392f-c792-5d41-e053-d380220a2006","navn":"Sct. Hans Skole","hovedtype":"Bygning","undertype":"folkeskole","navnestatus":"officielt","kommuner":["Odense"]}},{"type":"Feature","geometry":{"type":"Point","coordinates":[10.44530345,55.42766342]},"properties":{"id":"19e4392f-c794-5d41-e053-d380220a2006","navn":"Seden Skole","hovedtype":"Bygning","undertype":"folkeskole","navnestatus":"officielt","kommuner":["Odense"]}},{"type":"Feature","geometry":{"type":"Point","coordinates":[10.30316564,55.44406951]},"properties":{"id":"19e4392f-c795-5d41-e053-d380220a2006","navn":"Spurvelundskolen","hovedtype":"Bygning","undertype":"folkeskole","navnestatus":"officielt","kommuner":["Odense"]}},{"type":"Feature","geometry":{"type":"Point","coordinates":[10.406272,55.43737483]},"properties":{"id":"19e4392f-c796-5d41-e053-d380220a2006","navn":"Stige Skole","hovedtype":"Bygning","undertype":"folkeskole","navnestatus":"officielt","kommuner":["Odense"]}},{"type":"Feature","geometry":{"type":"Point","coordinates":[10.37958218,55.43206271]},"properties":{"id":"19e4392f-c797-5d41-e053-d380220a2006","navn":"S\u00F8husskolen","hovedtype":"Bygning","undertype":"folkeskole","navnestatus":"officielt","kommuner":["Odense"]}},{"type":"Feature","geometry":{"type":"Point","coordinates":[10.35031383,55.40942338]},"properties":{"id":"19e4392f-c798-5d41-e053-d380220a2006","navn":"Tarup Skole","hovedtype":"Bygning","undertype":"folkeskole","navnestatus":"officielt","kommuner":["Odense"]}},{"type":"Feature","geometry":{"type":"Point","coordinates":[10.50220986,55.34046276]},"properties":{"id":"19e4392f-c799-5d41-e053-d380220a2006","navn":"Tingk\u00E6rskolen - Afdeling Birkum","hovedtype":"Bygning","undertype":"folkeskole","navnestatus":"officielt","kommuner":["Odense"]}},{"type":"Feature","geometry":{"type":"Point","coordinates":[10.36482916,55.36853604]},"properties":{"id":"19e4392f-c79a-5d41-e053-d380220a2006","navn":"Tingl\u00F8kkeskolen","hovedtype":"Bygning","undertype":"folkeskole","navnestatus":"officielt","kommuner":["Odense"]}},{"type":"Feature","geometry":{"type":"Point","coordinates":[10.25485289,55.39557746]},"properties":{"id":"19e4392f-c79b-5d41-e053-d380220a2006","navn":"Ubberud Skole","hovedtype":"Bygning","undertype":"folkeskole","navnestatus":"officielt","kommuner":["Odense"]}},{"type":"Feature","geometry":{"type":"Point","coordinates":[10.37349841,55.39337981]},"properties":{"id":"19e4392f-c79c-5d41-e053-d380220a2006","navn":"Vestre Skole","hovedtype":"Bygning","undertype":"folkeskole","navnestatus":"officielt","kommuner":["Odense"]}},{"type":"Feature","geometry":{"type":"Point","coordinates":[10.3661613,55.40100343]},"properties":{"id":"19e4392f-c79d-5d41-e053-d380220a2006","navn":"\u00C5l\u00F8kkeskolen","hovedtype":"Bygning","undertype":"folkeskole","navnestatus":"officielt","kommuner":["Odense"]}},{"type":"Feature","geometry":{"type":"Point","coordinates":[10.36731369,55.57452822]},"properties":{"id":"19e4392f-c7c6-5d41-e053-d380220a2006","navn":"Sletten Skole - Afdeling Krogsb\u00F8lle","hovedtype":"Bygning","undertype":"folkeskole","navnestatus":"officielt","kommuner":["Nordfyns"]}},{"type":"Feature","geometry":{"type":"Point","coordinates":[10.38981368,55.51977246]},"properties":{"id":"19e4392f-c7c8-5d41-e053-d380220a2006","navn":"Sletten Skole - Afdeling Nordvest","hovedtype":"Bygning","undertype":"folkeskole","navnestatus":"officielt","kommuner":["Nordfyns"]}},{"type":"Feature","geometry":{"type":"Point","coordinates":[10.39469475,55.5110145]},"properties":{"id":"19e4392f-c7c9-5d41-e053-d380220a2006","navn":"Sletten Skole - Afdeling Otterup","hovedtype":"Bygning","undertype":"folkeskole","navnestatus":"officielt","kommuner":["Nordfyns"]}},{"type":"Feature","geometry":{"type":"Point","coordinates":[10.43156395,55.49740262]},"properties":{"id":"19e4392f-c7ca-5d41-e053-d380220a2006","navn":"Sletten Skole - Afdeling Skovl\u00F8kken","hovedtype":"Bygning","undertype":"folkeskole","navnestatus":"officielt","kommuner":["Nordfyns"]}},{"type":"Feature","geometry":{"type":"Point","coordinates":[9.69742959,57.27566971]},"properties":{"id":"19e4392f-c7d6-5d41-e053-d380220a2006","navn":"Saltum Skole","hovedtype":"Bygning","undertype":"folkeskole","navnestatus":"officielt","kommuner":["Jammerbugt"]}},{"type":"Feature","geometry":{"type":"Point","coordinates":[12.04973314,55.11688265]},"properties":{"id":"19e4392f-c7dd-5d41-e053-d380220a2006","navn":"Pr\u00E6st\u00F8 Skole","hovedtype":"Bygning","undertype":"folkeskole","navnestatus":"officielt","kommuner":["Vordingborg"]}},{"type":"Feature","geometry":{"type":"Point","coordinates":[9.93524126,56.545956]},"properties":{"id":"19e4392f-c7e2-5d41-e053-d380220a2006","navn":"Asferg Skole","hovedtype":"Bygning","undertype":"folkeskole","navnestatus":"officielt","kommuner":["Randers"]}},{"type":"Feature","geometry":{"type":"Point","coordinates":[9.90429167,56.48384776]},"properties":{"id":"19e4392f-c7e3-5d41-e053-d380220a2006","navn":"Bjerregrav Skole","hovedtype":"Bygning","undertype":"folkeskole","navnestatus":"officielt","kommuner":["Randers"]}},{"type":"Feature","geometry":{"type":"Point","coordinates":[10.0372797,56.54126505]},"properties":{"id":"19e4392f-c7e4-5d41-e053-d380220a2006","navn":"Blicherskolen","hovedtype":"Bygning","undertype":"folkeskole","navnestatus":"officielt","kommuner":["Randers"]}},{"type":"Feature","geometry":{"type":"Point","coordinates":[9.85633037,56.54226673]},"properties":{"id":"19e4392f-c7e5-5d41-e053-d380220a2006","navn":"F\u00E5rup Skole og B\u00F8rneby","hovedtype":"Bygning","undertype":"folkeskole","navnestatus":"officielt","kommuner":["Randers"]}},{"type":"Feature","geometry":{"type":"Point","coordinates":[12.08666277,55.56800736]},"properties":{"id":"19e4392f-c7ea-5d41-e053-d380220a2006","navn":"Gadstrup Skole","hovedtype":"Bygning","undertype":"folkeskole","navnestatus":"officielt","kommuner":["Roskilde"]}},{"type":"Feature","geometry":{"type":"Point","coordinates":[12.0305197,55.54744311]},"properties":{"id":"19e4392f-c7eb-5d41-e053-d380220a2006","navn":"Viby Skole, Afdeling \u00D8rstedvej","hovedtype":"Bygning","undertype":"folkeskole","navnestatus":"officielt","kommuner":["Roskilde"]}},{"type":"Feature","geometry":{"type":"Point","coordinates":[10.02328956,56.46692442]},"properties":{"id":"19e4392f-c7f1-5d41-e053-d380220a2006","navn":"Hobrovejens Skole","hovedtype":"Bygning","undertype":"folkeskole","navnestatus":"officielt","kommuner":["Randers"]}},{"type":"Feature","geometry":{"type":"Point","coordinates":[9.97198834,56.46162664]},"properties":{"id":"19e4392f-c7f2-5d41-e053-d380220a2006","navn":"Hornb\u00E6k Skole","hovedtype":"Bygning","undertype":"folkeskole","navnestatus":"officielt","kommuner":["Randers"]}},{"type":"Feature","geometry":{"type":"Point","coordinates":[10.05668412,56.44573956]},"properties":{"id":"19e4392f-c7f3-5d41-e053-d380220a2006","navn":"Kristrup Skole","hovedtype":"Bygning","undertype":"folkeskole","navnestatus":"officielt","kommuner":["Randers"]}},{"type":"Feature","geometry":{"type":"Point","coordinates":[10.03755937,56.47711949]},"properties":{"id":"19e4392f-c7f5-5d41-e053-d380220a2006","navn":"N\u00F8rrevangsskolen","hovedtype":"Bygning","undertype":"folkeskole","navnestatus":"officielt","kommuner":["Randers"]}},{"type":"Feature","geometry":{"type":"Point","coordinates":[10.06567456,56.47554939]},"properties":{"id":"19e4392f-c7f7-5d41-e053-d380220a2006","navn":"Rism\u00F8lleskolen","hovedtype":"Bygning","undertype":"folkeskole","navnestatus":"officielt","kommuner":["Randers"]}},{"type":"Feature","geometry":{"type":"Point","coordinates":[10.04304433,56.43761083]},"properties":{"id":"19e4392f-c7f9-5d41-e053-d380220a2006","navn":"S\u00F8ndermarkskolen","hovedtype":"Bygning","undertype":"folkeskole","navnestatus":"officielt","kommuner":["Randers"]}},{"type":"Feature","geometry":{"type":"Point","coordinates":[10.06269898,56.43831369]},"properties":{"id":"19e4392f-c7fa-5d41-e053-d380220a2006","navn":"Tirsdalens Skole","hovedtype":"Bygning","undertype":"folkeskole","navnestatus":"officielt","kommuner":["Randers"]}},{"type":"Feature","geometry":{"type":"Point","coordinates":[10.00799532,56.47311081]},"properties":{"id":"19e4392f-c7fb-5d41-e053-d380220a2006","navn":"Vestervangsskolen","hovedtype":"Bygning","undertype":"folkeskole","navnestatus":"officielt","kommuner":["Randers"]}},{"type":"Feature","geometry":{"type":"Point","coordinates":[10.05024843,56.47369478]},"properties":{"id":"19e4392f-c7fc-5d41-e053-d380220a2006","navn":"\u00D8stervangsskolen","hovedtype":"Bygning","undertype":"folkeskole","navnestatus":"officielt","kommuner":["Randers"]}},{"type":"Feature","geometry":{"type":"Point","coordinates":[12.5959167,55.66181412]},"properties":{"id":"19e4392f-c806-5d41-e053-d380220a2006","navn":"Amager F\u00E6lled Skole","hovedtype":"Bygning","undertype":"folkeskole","navnestatus":"officielt","kommuner":["K\u00F8benhavn"]}},{"type":"Feature","geometry":{"type":"Point","coordinates":[12.53622308,55.65740418]},"properties":{"id":"19e4392f-c807-5d41-e053-d380220a2006","navn":"Bavneh\u00F8j Skole","hovedtype":"Bygning","undertype":"folkeskole","navnestatus":"officielt","kommuner":["K\u00F8benhavn"]}},{"type":"Feature","geometry":{"type":"Point","coordinates":[12.50940293,55.70439401]},"properties":{"id":"19e4392f-c808-5d41-e053-d380220a2006","navn":"Bellah\u00F8j Skole","hovedtype":"Bygning","undertype":"folkeskole","navnestatus":"officielt","kommuner":["K\u00F8benhavn"]}},{"type":"Feature","geometry":{"type":"Point","coordinates":[12.54996471,55.68753645]},"properties":{"id":"19e4392f-c809-5d41-e053-d380220a2006","navn":"Bl\u00E5g\u00E5rd Skole","hovedtype":"Bygning","undertype":"folkeskole","navnestatus":"officielt","kommuner":["K\u00F8benhavn"]}},{"type":"Feature","geometry":{"type":"Point","coordinates":[12.49494339,55.7041704]},"properties":{"id":"19e4392f-c80a-5d41-e053-d380220a2006","navn":"Br\u00F8nsh\u00F8j Skole","hovedtype":"Bygning","undertype":"folkeskole","navnestatus":"officielt","kommuner":["K\u00F8benhavn"]}},{"type":"Feature","geometry":{"type":"Point","coordinates":[12.59679831,55.67416026]},"properties":{"id":"19e4392f-c80c-5d41-e053-d380220a2006","navn":"Christianshavns Skole","hovedtype":"Bygning","undertype":"folkeskole","navnestatus":"officielt","kommuner":["K\u00F8benhavn"]}},{"type":"Feature","geometry":{"type":"Point","coordinates":[12.57558441,55.67294782]},"properties":{"id":"19e4392f-c80d-5d41-e053-d380220a2006","navn":"Den Classenske Legatskole","hovedtype":"Bygning","undertype":"folkeskole","navnestatus":"officielt","kommuner":["K\u00F8benhavn"]}},{"type":"Feature","geometry":{"type":"Point","coordinates":[12.59721464,55.64757497]},"properties":{"id":"19e4392f-c80e-5d41-e053-d380220a2006","navn":"Dyvekeskolen","hovedtype":"Bygning","undertype":"folkeskole","navnestatus":"officielt","kommuner":["K\u00F8benhavn"]}},{"type":"Feature","geometry":{"type":"Point","coordinates":[12.53174123,55.65095141]},"properties":{"id":"19e4392f-c80f-5d41-e053-d380220a2006","navn":"Ellebjerg Skole","hovedtype":"Bygning","undertype":"folkeskole","navnestatus":"officielt","kommuner":["K\u00F8benhavn"]}},{"type":"Feature","geometry":{"type":"Point","coordinates":[12.5464193,55.66934691]},"properties":{"id":"19e4392f-c810-5d41-e053-d380220a2006","navn":"Tove Ditlevsens Skole","hovedtype":"Bygning","undertype":"folkeskole","navnestatus":"officielt","kommuner":["K\u00F8benhavn"]}},{"type":"Feature","geometry":{"type":"Point","coordinates":[12.61693446,55.64746639]},"properties":{"id":"19e4392f-c813-5d41-e053-d380220a2006","navn":"Gerbrandskolen","hovedtype":"Bygning","undertype":"folkeskole","navnestatus":"officielt","kommuner":["K\u00F8benhavn"]}},{"type":"Feature","geometry":{"type":"Point","coordinates":[12.53427191,55.70934465]},"properties":{"id":"19e4392f-c814-5d41-e053-d380220a2006","navn":"Tagensbo Skole","hovedtype":"Bygning","undertype":"folkeskole","navnestatus":"officielt","kommuner":["K\u00F8benhavn"]}},{"type":"Feature","geometry":{"type":"Point","coordinates":[12.52765109,55.6984221]},"properties":{"id":"19e4392f-c815-5d41-e053-d380220a2006","navn":"Gr\u00F8ndalsv\u00E6ngets Skole","hovedtype":"Bygning","undertype":"folkeskole","navnestatus":"officielt","kommuner":["K\u00F8benhavn"]}},{"type":"Feature","geometry":{"type":"Point","coordinates":[12.48644795,55.66567393]},"properties":{"id":"19e4392f-c816-5d41-e053-d380220a2006","navn":"Hanssted Skole","hovedtype":"Bygning","undertype":"folkeskole","navnestatus":"officielt","kommuner":["K\u00F8benhavn"]}},{"type":"Feature","geometry":{"type":"Point","coordinates":[12.53002119,55.72430781]},"properties":{"id":"19e4392f-c817-5d41-e053-d380220a2006","navn":"Holbergskolen","hovedtype":"Bygning","undertype":"folkeskole","navnestatus":"officielt","kommuner":["K\u00F8benhavn"]}},{"type":"Feature","geometry":{"type":"Point","coordinates":[12.47371168,55.7059503]},"properties":{"id":"19e4392f-c818-5d41-e053-d380220a2006","navn":"Husum Skole","hovedtype":"Bygning","undertype":"folkeskole","navnestatus":"officielt","kommuner":["K\u00F8benhavn"]}},{"type":"Feature","geometry":{"type":"Point","coordinates":[12.48158658,55.68551032]},"properties":{"id":"19e4392f-c819-5d41-e053-d380220a2006","navn":"Damhusengens Skole","hovedtype":"Bygning","undertype":"folkeskole","navnestatus":"officielt","kommuner":["K\u00F8benhavn"]}},{"type":"Feature","geometry":{"type":"Point","coordinates":[12.60444783,55.64665814]},"properties":{"id":"19e4392f-c81a-5d41-e053-d380220a2006","navn":"H\u00F8jdevangens Skole","hovedtype":"Bygning","undertype":"folkeskole","navnestatus":"officielt","kommuner":["K\u00F8benhavn"]}},{"type":"Feature","geometry":{"type":"Point","coordinates":[12.54484126,55.68990616]},"properties":{"id":"19e4392f-c81b-5d41-e053-d380220a2006","navn":"N\u00F8rrebro Park Skole","hovedtype":"Bygning","undertype":"folkeskole","navnestatus":"officielt","kommuner":["K\u00F8benhavn"]}},{"type":"Feature","geometry":{"type":"Point","coordinates":[12.49788178,55.69052957]},"properties":{"id":"19e4392f-c81c-5d41-e053-d380220a2006","navn":"Katrinedals Skole","hovedtype":"Bygning","undertype":"folkeskole","navnestatus":"officielt","kommuner":["K\u00F8benhavn"]}},{"type":"Feature","geometry":{"type":"Point","coordinates":[12.56855187,55.71570987]},"properties":{"id":"19e4392f-c81d-5d41-e053-d380220a2006","navn":"Kildev\u00E6ldsskolen","hovedtype":"Bygning","undertype":"folkeskole","navnestatus":"officielt","kommuner":["K\u00F8benhavn"]}},{"type":"Feature","geometry":{"type":"Point","coordinates":[12.48339669,55.69609661]},"properties":{"id":"19e4392f-c81e-5d41-e053-d380220a2006","navn":"Kirkebjerg Skole","hovedtype":"Bygning","undertype":"folkeskole","navnestatus":"officielt","kommuner":["K\u00F8benhavn"]}},{"type":"Feature","geometry":{"type":"Point","coordinates":[12.50205977,55.64851421]},"properties":{"id":"19e4392f-c81f-5d41-e053-d380220a2006","navn":"Kirseb\u00E6rhavens Skole og Fritid","hovedtype":"Bygning","undertype":"folkeskole","navnestatus":"officielt","kommuner":["K\u00F8benhavn"]}},{"type":"Feature","geometry":{"type":"Point","coordinates":[12.55806868,55.70505967]},"properties":{"id":"19e4392f-c820-5d41-e053-d380220a2006","navn":"N\u00F8rre F\u00E6lled Skole","hovedtype":"Bygning","undertype":"folkeskole","navnestatus":"officielt","kommuner":["K\u00F8benhavn"]}},{"type":"Feature","geometry":{"type":"Point","coordinates":[12.46968423,55.70899015]},"properties":{"id":"19e4392f-c821-5d41-e053-d380220a2006","navn":"Korsager Skole","hovedtype":"Bygning","undertype":"folkeskole","navnestatus":"officielt","kommuner":["K\u00F8benhavn"]}},{"type":"Feature","geometry":{"type":"Point","coordinates":[12.586245,55.69955417]},"properties":{"id":"19e4392f-c822-5d41-e053-d380220a2006","navn":"Langelinieskolen","hovedtype":"Bygning","undertype":"folkeskole","navnestatus":"officielt","kommuner":["K\u00F8benhavn"]}},{"type":"Feature","geometry":{"type":"Point","coordinates":[12.5452596,55.71869701]},"properties":{"id":"19e4392f-c823-5d41-e053-d380220a2006","navn":"Lundehusskolen","hovedtype":"Bygning","undertype":"folkeskole","navnestatus":"officielt","kommuner":["K\u00F8benhavn"]}},{"type":"Feature","geometry":{"type":"Point","coordinates":[12.48477736,55.66044456]},"properties":{"id":"19e4392f-c824-5d41-e053-d380220a2006","navn":"Lykkebo Skole og Fritid","hovedtype":"Bygning","undertype":"folkeskole","navnestatus":"officielt","kommuner":["K\u00F8benhavn"]}},{"type":"Feature","geometry":{"type":"Point","coordinates":[12.54081947,55.66590937]},"properties":{"id":"19e4392f-c826-5d41-e053-d380220a2006","navn":"Vesterbro Ny Skole","hovedtype":"Bygning","undertype":"folkeskole","navnestatus":"officielt","kommuner":["K\u00F8benhavn"]}},{"type":"Feature","geometry":{"type":"Point","coordinates":[12.58626566,55.69098548]},"properties":{"id":"19e4392f-c827-5d41-e053-d380220a2006","navn":"Nyboder Skole","hovedtype":"Bygning","undertype":"folkeskole","navnestatus":"officielt","kommuner":["K\u00F8benhavn"]}},{"type":"Feature","geometry":{"type":"Point","coordinates":[12.55041805,55.66765954]},"properties":{"id":"19e4392f-c828-5d41-e053-d380220a2006","navn":"Oehlenschl\u00E6gersgades Skole","hovedtype":"Bygning","undertype":"folkeskole","navnestatus":"officielt","kommuner":["K\u00F8benhavn"]}},{"type":"Feature","geometry":{"type":"Point","coordinates":[12.59702476,55.65582955]},"properties":{"id":"19e4392f-c829-5d41-e053-d380220a2006","navn":"Peder Lykke Skolen","hovedtype":"Bygning","undertype":"folkeskole","navnestatus":"officielt","kommuner":["K\u00F8benhavn"]}},{"type":"Feature","geometry":{"type":"Point","coordinates":[12.58087158,55.70583451]},"properties":{"id":"19e4392f-c82a-5d41-e053-d380220a2006","navn":"Randersgades Skole","hovedtype":"Bygning","undertype":"folkeskole","navnestatus":"officielt","kommuner":["K\u00F8benhavn"]}},{"type":"Feature","geometry":{"type":"Point","coordinates":[12.50751554,55.69741927]},"properties":{"id":"19e4392f-c82b-5d41-e053-d380220a2006","navn":"R\u00F8dkilde Skole","hovedtype":"Bygning","undertype":"folkeskole","navnestatus":"officielt","kommuner":["K\u00F8benhavn"]}},{"type":"Feature","geometry":{"type":"Point","coordinates":[12.55044604,55.69909302]},"properties":{"id":"19e4392f-c82c-5d41-e053-d380220a2006","navn":"R\u00E5dmandsgades Skole","hovedtype":"Bygning","undertype":"folkeskole","navnestatus":"officielt","kommuner":["K\u00F8benhavn"]}},{"type":"Feature","geometry":{"type":"Point","coordinates":[12.55290074,55.69633931]},"properties":{"id":"19e4392f-c82d-5d41-e053-d380220a2006","navn":"Guldberg Skole","hovedtype":"Bygning","undertype":"folkeskole","navnestatus":"officielt","kommuner":["K\u00F8benhavn"]}},{"type":"Feature","geometry":{"type":"Point","coordinates":[12.58347038,55.66205742]},"properties":{"id":"19e4392f-c82e-5d41-e053-d380220a2006","navn":"Skolen p\u00E5 Islands Brygge, Basisskolen","hovedtype":"Bygning","undertype":"folkeskole","navnestatus":"officielt","kommuner":["K\u00F8benhavn"]}},{"type":"Feature","geometry":{"type":"Point","coordinates":[12.62768933,55.65288623]},"properties":{"id":"19e4392f-c830-5d41-e053-d380220a2006","navn":"Skolen ved Sundet","hovedtype":"Bygning","undertype":"folkeskole","navnestatus":"officielt","kommuner":["K\u00F8benhavn"]}},{"type":"Feature","geometry":{"type":"Point","coordinates":[12.57415021,55.69681918]},"properties":{"id":"19e4392f-c831-5d41-e053-d380220a2006","navn":"Sortedamskolen","hovedtype":"Bygning","undertype":"folkeskole","navnestatus":"officielt","kommuner":["K\u00F8benhavn"]}},{"type":"Feature","geometry":{"type":"Point","coordinates":[12.57928247,55.7117945]},"properties":{"id":"19e4392f-c833-5d41-e053-d380220a2006","navn":"Strandvejsskolen","hovedtype":"Bygning","undertype":"folkeskole","navnestatus":"officielt","kommuner":["K\u00F8benhavn"]}},{"type":"Feature","geometry":{"type":"Point","coordinates":[12.61447388,55.65184966]},"properties":{"id":"19e4392f-c834-5d41-e053-d380220a2006","navn":"Sundby\u00F8ster Skole","hovedtype":"Bygning","undertype":"folkeskole","navnestatus":"officielt","kommuner":["K\u00F8benhavn"]}},{"type":"Feature","geometry":{"type":"Point","coordinates":[12.58327238,55.68653643]},"properties":{"id":"19e4392f-c835-5d41-e053-d380220a2006","navn":"S\u00F8lvgades Skole","hovedtype":"Bygning","undertype":"folkeskole","navnestatus":"officielt","kommuner":["K\u00F8benhavn"]}},{"type":"Feature","geometry":{"type":"Point","coordinates":[12.6086699,55.66308485]},"properties":{"id":"19e4392f-c836-5d41-e053-d380220a2006","navn":"Skolen p\u00E5 Amagerbro","hovedtype":"Bygning","undertype":"folkeskole","navnestatus":"officielt","kommuner":["K\u00F8benhavn"]}},{"type":"Feature","geometry":{"type":"Point","coordinates":[12.48639485,55.71905253]},"properties":{"id":"19e4392f-c837-5d41-e053-d380220a2006","navn":"Tingbjerg Skole","hovedtype":"Bygning","undertype":"folkeskole","navnestatus":"officielt","kommuner":["K\u00F8benhavn"]}},{"type":"Feature","geometry":{"type":"Point","coordinates":[12.57936249,55.7086815]},"properties":{"id":"19e4392f-c83a-5d41-e053-d380220a2006","navn":"Vibenshus Skole","hovedtype":"Bygning","undertype":"folkeskole","navnestatus":"officielt","kommuner":["K\u00F8benhavn"]}},{"type":"Feature","geometry":{"type":"Point","coordinates":[12.50808453,55.66179454]},"properties":{"id":"19e4392f-c83b-5d41-e053-d380220a2006","navn":"Vigerslev All\u00E9s Skole","hovedtype":"Bygning","undertype":"folkeskole","navnestatus":"officielt","kommuner":["K\u00F8benhavn"]}},{"type":"Feature","geometry":{"type":"Point","coordinates":[12.57808453,55.69302462]},"properties":{"id":"19e4392f-c83c-5d41-e053-d380220a2006","navn":"\u00D8ster Farimagsgades Skole","hovedtype":"Bygning","undertype":"folkeskole","navnestatus":"officielt","kommuner":["K\u00F8benhavn"]}},{"type":"Feature","geometry":{"type":"Point","coordinates":[12.61555069,55.66192325]},