{"type":"FeatureCollection","features":[{"type":"Feature","geometry":{"type":"Point","coordinates":[10.19221852,56.21777327]},"properties":{"id":"12337669-a087-6b98-e053-d480220a5a3f","navn":"Lisbjerg-Terp","hovedtype":"Bebyggelse","undertype":"by","navnestatus":"suAutoriseret","kommuner":["Aarhus"]}},{"type":"Feature","geometry":{"type":"Point","coordinates":[8.73900929,55.39781984]},"properties":{"id":"12337669-a097-6b98-e053-d480220a5a3f","navn":"Gredstedbro","hovedtype":"Bebyggelse","undertype":"by","navnestatus":"suAutoriseret","kommuner":["Esbjerg"]}},{"type":"Feature","geometry":{"type":"Point","coordinates":[8.75055041,55.39457432]},"properties":{"id":"12337669-a098-6b98-e053-d480220a5a3f","navn":"Brok\u00E6r","hovedtype":"Bebyggelse","undertype":"by","navnestatus":"suAutoriseret","kommuner":["Esbjerg"]}},{"type":"Feature","geometry":{"type":"Point","coordinates":[8.35984865,55.79556009]},"properties":{"id":"12337669-a09f-6b98-e053-d480220a5a3f","navn":"Lydum","hovedtype":"Bebyggelse","undertype":"by","navnestatus":"suAutoriseret","kommuner":["Varde"]}},{"type":"Feature","geometry":{"type":"Point","coordinates":[8.61830363,55.80694322]},"properties":{"id":"12337669-a0a7-6b98-e053-d480220a5a3f","navn":"\u00D8lgod","hovedtype":"Bebyggelse","undertype":"by","navnestatus":"suAutoriseret","kommuner":["Varde"]}},{"type":"Feature","geometry":{"type":"Point","coordinates":[8.21484372,56.19914126]},"properties":{"id":"12337669-a0ac-6b98-e053-d480220a5a3f","navn":"Stadil","hovedtype":"Bebyggelse","undertype":"by","navnestatus":"suAutoriseret","kommuner":["Ringk\u00F8bing-Skjern"]}},{"type":"Feature","geometry":{"type":"Point","coordinates":[8.77175256,57.01954997]},"properties":{"id":"12337669-a0b4-6b98-e053-d480220a5a3f","navn":"Korteg\u00E5rde","hovedtype":"Bebyggelse","undertype":"by","navnestatus":"officielt","kommuner":["Thisted"]}},{"type":"Feature","geometry":{"type":"Point","coordinates":[8.94724257,57.01792783]},"properties":{"id":"12337669-a0b9-6b98-e053-d480220a5a3f","navn":"Gammel Vesl\u00F8s","hovedtype":"Bebyggelse","undertype":"by","navnestatus":"suAutoriseret","kommuner":["Thisted"]}},{"type":"Feature","geometry":{"type":"Point","coordinates":[8.67886491,57.01986148]},"properties":{"id":"12337669-a0bc-6b98-e053-d480220a5a3f","navn":"Nors","hovedtype":"Bebyggelse","undertype":"by","navnestatus":"suAutoriseret","kommuner":["Thisted"]}},{"type":"Feature","geometry":{"type":"Point","coordinates":[8.73045906,57.01198019]},"properties":{"id":"12337669-a0bd-6b98-e053-d480220a5a3f","navn":"Hillerslev","hovedtype":"Bebyggelse","undertype":"by","navnestatus":"suAutoriseret","kommuner":["Thisted"]}},{"type":"Feature","geometry":{"type":"Point","coordinates":[8.9911481,56.77021883]},"properties":{"id":"12337669-a0be-6b98-e053-d480220a5a3f","navn":"\u00C5sted","hovedtype":"Bebyggelse","undertype":"by","navnestatus":"suAutoriseret","kommuner":["Skive"]}},{"type":"Feature","geometry":{"type":"Point","coordinates":[8.99260872,56.77729081]},"properties":{"id":"12337669-a0bf-6b98-e053-d480220a5a3f","navn":"Gammel \u00C5sted","hovedtype":"Bebyggelse","undertype":"by","navnestatus":"suAutoriseret","kommuner":["Skive"]}},{"type":"Feature","geometry":{"type":"Point","coordinates":[8.9847932,56.70348513]},"properties":{"id":"12337669-a0c1-6b98-e053-d480220a5a3f","navn":"Roslev","hovedtype":"Bebyggelse","undertype":"by","navnestatus":"suAutoriseret","kommuner":["Skive"]}},{"type":"Feature","geometry":{"type":"Point","coordinates":[8.97793765,56.74023251]},"properties":{"id":"12337669-a0c2-6b98-e053-d480220a5a3f","navn":"T\u00F8ndering","hovedtype":"Bebyggelse","undertype":"by","navnestatus":"suAutoriseret","kommuner":["Skive"]}},{"type":"Feature","geometry":{"type":"Point","coordinates":[8.54490532,56.61065413]},"properties":{"id":"12337669-a0c4-6b98-e053-d480220a5a3f","navn":"Uglev","hovedtype":"Bebyggelse","undertype":"by","navnestatus":"suAutoriseret","kommuner":["Struer"]}},{"type":"Feature","geometry":{"type":"Point","coordinates":[8.73464773,56.61247404]},"properties":{"id":"12337669-a0c7-6b98-e053-d480220a5a3f","navn":"\u00C5lb\u00E6k","hovedtype":"Bebyggelse","undertype":"by","navnestatus":"suAutoriseret","kommuner":["Skive"]}},{"type":"Feature","geometry":{"type":"Point","coordinates":[9.00932564,56.65418239]},"properties":{"id":"12337669-a0c8-6b98-e053-d480220a5a3f","navn":"Bostrup","hovedtype":"Bebyggelse","undertype":"by","navnestatus":"suAutoriseret","kommuner":["Skive"]}},{"type":"Feature","geometry":{"type":"Point","coordinates":[9.2764811,54.99156017]},"properties":{"id":"12337669-a0cd-6b98-e053-d480220a5a3f","navn":"Bolderslev","hovedtype":"Bebyggelse","undertype":"by","navnestatus":"suAutoriseret","kommuner":["Aabenraa"]}},{"type":"Feature","geometry":{"type":"Point","coordinates":[9.58299959,54.99704939]},"properties":{"id":"12337669-a0ce-6b98-e053-d480220a5a3f","navn":"Bovrup","hovedtype":"Bebyggelse","undertype":"by","navnestatus":"suAutoriseret","kommuner":["Aabenraa"]}},{"type":"Feature","geometry":{"type":"Point","coordinates":[9.89285484,54.99604286]},"properties":{"id":"12337669-a0d0-6b98-e053-d480220a5a3f","navn":"Elstrup","hovedtype":"Bebyggelse","undertype":"by","navnestatus":"suAutoriseret","kommuner":["S\u00F8nderborg"]}},{"type":"Feature","geometry":{"type":"Point","coordinates":[9.93708454,54.9076089]},"properties":{"id":"12337669-a0d4-6b98-e053-d480220a5a3f","navn":"Mintebjerg","hovedtype":"Bebyggelse","undertype":"by","navnestatus":"suAutoriseret","kommuner":["S\u00F8nderborg"]}},{"type":"Feature","geometry":{"type":"Point","coordinates":[9.43027262,54.99774563]},"properties":{"id":"12337669-a0d7-6b98-e053-d480220a5a3f","navn":"Stubb\u00E6k","hovedtype":"Bebyggelse","undertype":"by","navnestatus":"suAutoriseret","kommuner":["Aabenraa"]}},{"type":"Feature","geometry":{"type":"Point","coordinates":[9.15354707,54.99435651]},"properties":{"id":"12337669-a0d9-6b98-e053-d480220a5a3f","navn":"H\u00F8gsholt","hovedtype":"Bebyggelse","undertype":"by","navnestatus":"suAutoriseret","kommuner":["Aabenraa"]}},{"type":"Feature","geometry":{"type":"Point","coordinates":[9.37624383,55.40200101]},"properties":{"id":"12337669-a0dc-6b98-e053-d480220a5a3f","navn":"Anholt","hovedtype":"Bebyggelse","undertype":"by","navnestatus":"suAutoriseret","kommuner":["Kolding"]}},{"type":"Feature","geometry":{"type":"Point","coordinates":[9.05083724,55.28861484]},"properties":{"id":"12337669-a0dd-6b98-e053-d480220a5a3f","navn":"Gram","hovedtype":"Bebyggelse","undertype":"by","navnestatus":"suAutoriseret","kommuner":["Haderslev"]}},{"type":"Feature","geometry":{"type":"Point","coordinates":[9.52874866,55.40320935]},"properties":{"id":"12337669-a0df-6b98-e053-d480220a5a3f","navn":"Sj\u00F8lund","hovedtype":"Bebyggelse","undertype":"by","navnestatus":"suAutoriseret","kommuner":["Kolding"]}},{"type":"Feature","geometry":{"type":"Point","coordinates":[9.02635947,55.81291528]},"properties":{"id":"12337669-a0e0-6b98-e053-d480220a5a3f","navn":"Filskov","hovedtype":"Bebyggelse","undertype":"by","navnestatus":"suAutoriseret","kommuner":["Billund"]}},{"type":"Feature","geometry":{"type":"Point","coordinates":[9.00583711,56.20800071]},"properties":{"id":"12337669-a0e1-6b98-e053-d480220a5a3f","navn":"Sunds","hovedtype":"Bebyggelse","undertype":"by","navnestatus":"suAutoriseret","kommuner":["Herning"]}},{"type":"Feature","geometry":{"type":"Point","coordinates":[9.03929055,56.20920895]},"properties":{"id":"12337669-a0e2-6b98-e053-d480220a5a3f","navn":"Gammel Sunds","hovedtype":"Bebyggelse","undertype":"by","navnestatus":"officielt","kommuner":["Herning"]}},{"type":"Feature","geometry":{"type":"Point","coordinates":[9.68753052,56.62131429]},"properties":{"id":"12337669-a0e4-6b98-e053-d480220a5a3f","navn":"Hornsmark","hovedtype":"Bebyggelse","undertype":"by","navnestatus":"suAutoriseret","kommuner":["Mariagerfjord"]}},{"type":"Feature","geometry":{"type":"Point","coordinates":[8.99872051,56.55312241]},"properties":{"id":"12337669-a0e6-6b98-e053-d480220a5a3f","navn":"Hesselbjerg","hovedtype":"Bebyggelse","undertype":"by","navnestatus":"suAutoriseret","kommuner":["Skive"]}},{"type":"Feature","geometry":{"type":"Point","coordinates":[9.70030839,57.02740221]},"properties":{"id":"12337669-a0ea-6b98-e053-d480220a5a3f","navn":"Porsheden","hovedtype":"Bebyggelse","undertype":"by","navnestatus":"suAutoriseret","kommuner":["Aalborg"]}},{"type":"Feature","geometry":{"type":"Point","coordinates":[9.46701759,56.62098285]},"properties":{"id":"12337669-a0ec-6b98-e053-d480220a5a3f","navn":"Vester Tostrup","hovedtype":"Bebyggelse","undertype":"by","navnestatus":"suAutoriseret","kommuner":["Viborg"]}},{"type":"Feature","geometry":{"type":"Point","coordinates":[9.6993735,56.6231267]},"properties":{"id":"12337669-a0ed-6b98-e053-d480220a5a3f","navn":"Br\u00F8ndum","hovedtype":"Bebyggelse","undertype":"by","navnestatus":"suAutoriseret","kommuner":["Mariagerfjord"]}},{"type":"Feature","geometry":{"type":"Point","coordinates":[9.00993361,56.61620522]},"properties":{"id":"12337669-a0f1-6b98-e053-d480220a5a3f","navn":"\u00D8ksenvad","hovedtype":"Bebyggelse","undertype":"by","navnestatus":"suAutoriseret","kommuner":["Skive"]}},{"type":"Feature","geometry":{"type":"Point","coordinates":[9.93005485,55.42708627]},"properties":{"id":"12337669-a0f2-6b98-e053-d480220a5a3f","navn":"Ejby","hovedtype":"Bebyggelse","undertype":"by","navnestatus":"suAutoriseret","kommuner":["Middelfart"]}},{"type":"Feature","geometry":{"type":"Point","coordinates":[9.9038896,57.43281627]},"properties":{"id":"12337669-a0f4-6b98-e053-d480220a5a3f","navn":"S\u00F8nder Harritslev","hovedtype":"Bebyggelse","undertype":"by","navnestatus":"suAutoriseret","kommuner":["Hj\u00F8rring"]}},{"type":"Feature","geometry":{"type":"Point","coordinates":[10.48460011,56.21308589]},"properties":{"id":"12337669-a0f7-6b98-e053-d480220a5a3f","navn":"Knebel","hovedtype":"Bebyggelse","undertype":"by","navnestatus":"suAutoriseret","kommuner":["Syddjurs"]}},{"type":"Feature","geometry":{"type":"Point","coordinates":[9.90710233,57.30369033]},"properties":{"id":"12337669-a0f8-6b98-e053-d480220a5a3f","navn":"Tolstrup","hovedtype":"Bebyggelse","undertype":"by","navnestatus":"suAutoriseret","kommuner":["Br\u00F8nderslev"]}},{"type":"Feature","geometry":{"type":"Point","coordinates":[9.9001098,57.17914599]},"properties":{"id":"12337669-a0fa-6b98-e053-d480220a5a3f","navn":"Milbakken","hovedtype":"Bebyggelse","undertype":"by","navnestatus":"suAutoriseret","kommuner":["Aalborg"]}},{"type":"Feature","geometry":{"type":"Point","coordinates":[9.67575944,57.0263989]},"properties":{"id":"12337669-a0fd-6b98-e053-d480220a5a3f","navn":"Klitg\u00E5rds Fiskerleje","hovedtype":"Bebyggelse","undertype":"by","navnestatus":"suAutoriseret","kommuner":["Aalborg"]}},{"type":"Feature","geometry":{"type":"Point","coordinates":[9.01151166,57.02714306]},"properties":{"id":"12337669-a0ff-6b98-e053-d480220a5a3f","navn":"\u00D8sl\u00F8s","hovedtype":"Bebyggelse","undertype":"by","navnestatus":"suAutoriseret","kommuner":["Thisted"]}},{"type":"Feature","geometry":{"type":"Point","coordinates":[10.20136899,56.61778432]},"properties":{"id":"12337669-a101-6b98-e053-d480220a5a3f","navn":"Dalbyover","hovedtype":"Bebyggelse","undertype":"by","navnestatus":"suAutoriseret","kommuner":["Randers"]}},{"type":"Feature","geometry":{"type":"Point","coordinates":[9.91761888,56.50440316]},"properties":{"id":"12337669-a102-6b98-e053-d480220a5a3f","navn":"Bjerregrav","hovedtype":"Bebyggelse","undertype":"by","navnestatus":"suAutoriseret","kommuner":["Randers"]}},{"type":"Feature","geometry":{"type":"Point","coordinates":[9.92463785,56.46104045]},"properties":{"id":"12337669-a103-6b98-e053-d480220a5a3f","navn":"T\u00E5num","hovedtype":"Bebyggelse","undertype":"by","navnestatus":"suAutoriseret","kommuner":["Randers"]}},{"type":"Feature","geometry":{"type":"Point","coordinates":[9.92174215,56.72030349]},"properties":{"id":"12337669-a104-6b98-e053-d480220a5a3f","navn":"Grenen","hovedtype":"Bebyggelse","undertype":"by","navnestatus":"officielt","kommuner":["Mariagerfjord"]}},{"type":"Feature","geometry":{"type":"Point","coordinates":[10.05790589,56.62429491]},"properties":{"id":"12337669-a106-6b98-e053-d480220a5a3f","navn":"Skr\u00F8dstrup","hovedtype":"Bebyggelse","undertype":"by","navnestatus":"suAutoriseret","kommuner":["Mariagerfjord"]}},{"type":"Feature","geometry":{"type":"Point","coordinates":[10.51694522,57.44340551]},"properties":{"id":"12337669-a10b-6b98-e053-d480220a5a3f","navn":"Frederikshavn","hovedtype":"Bebyggelse","undertype":"by","navnestatus":"suAutoriseret","kommuner":["Frederikshavn"]}},{"type":"Feature","geometry":{"type":"Point","coordinates":[10.43659186,57.43487798]},"properties":{"id":"12337669-a10f-6b98-e053-d480220a5a3f","navn":"Favrholt","hovedtype":"Bebyggelse","undertype":"by","navnestatus":"suAutoriseret","kommuner":["Frederikshavn"]}},{"type":"Feature","geometry":{"type":"Point","coordinates":[9.9974944,57.45469745]},"properties":{"id":"12337669-a110-6b98-e053-d480220a5a3f","navn":"Hj\u00F8rring","hovedtype":"Bebyggelse","undertype":"by","navnestatus":"suAutoriseret","kommuner":["Hj\u00F8rring"]}},{"type":"Feature","geometry":{"type":"Point","coordinates":[9.94065151,55.32129281]},"properties":{"id":"12337669-a114-6b98-e053-d480220a5a3f","navn":"Sandager","hovedtype":"Bebyggelse","undertype":"by","navnestatus":"suAutoriseret","kommuner":["Assens"]}},{"type":"Feature","geometry":{"type":"Point","coordinates":[10.81725519,56.50617362]},"properties":{"id":"12337669-a117-6b98-e053-d480220a5a3f","navn":"Gjerrild","hovedtype":"Bebyggelse","undertype":"by","navnestatus":"suAutoriseret","kommuner":["Norddjurs"]}},{"type":"Feature","geometry":{"type":"Point","coordinates":[10.83677141,56.47467671]},"properties":{"id":"12337669-a118-6b98-e053-d480220a5a3f","navn":"Veggerslev","hovedtype":"Bebyggelse","undertype":"by","navnestatus":"suAutoriseret","kommuner":["Norddjurs"]}},{"type":"Feature","geometry":{"type":"Point","coordinates":[9.92571459,55.29428798]},"properties":{"id":"12337669-a119-6b98-e053-d480220a5a3f","navn":"Aborg","hovedtype":"Bebyggelse","undertype":"by","navnestatus":"suAutoriseret","kommuner":["Assens"]}},{"type":"Feature","geometry":{"type":"Point","coordinates":[9.93249263,55.28367022]},"properties":{"id":"12337669-a11a-6b98-e053-d480220a5a3f","navn":"Lundager","hovedtype":"Bebyggelse","undertype":"by","navnestatus":"suAutoriseret","kommuner":["Assens"]}},{"type":"Feature","geometry":{"type":"Point","coordinates":[10.59659572,54.99907461]},"properties":{"id":"12337669-a11c-6b98-e053-d480220a5a3f","navn":"Landet","hovedtype":"Bebyggelse","undertype":"by","navnestatus":"suAutoriseret","kommuner":["Svendborg"]}},{"type":"Feature","geometry":{"type":"Point","coordinates":[10.81855978,55.00005333]},"properties":{"id":"12337669-a11d-6b98-e053-d480220a5a3f","navn":"Strandby","hovedtype":"Bebyggelse","undertype":"by","navnestatus":"suAutoriseret","kommuner":["Langeland"]}},{"type":"Feature","geometry":{"type":"Point","coordinates":[9.9168232,56.35719476]},"properties":{"id":"12337669-a11f-6b98-e053-d480220a5a3f","navn":"Laurbjerg","hovedtype":"Bebyggelse","undertype":"by","navnestatus":"suAutoriseret","kommuner":["Favrskov"]}},{"type":"Feature","geometry":{"type":"Point","coordinates":[9.75123033,56.21432235]},"properties":{"id":"12337669-a122-6b98-e053-d480220a5a3f","navn":"Holmstol","hovedtype":"Bebyggelse","undertype":"by","navnestatus":"suAutoriseret","kommuner":["Silkeborg"]}},{"type":"Feature","geometry":{"type":"Point","coordinates":[10.81577458,54.97822774]},"properties":{"id":"12337669-a123-6b98-e053-d480220a5a3f","navn":"Frellesvig","hovedtype":"Bebyggelse","undertype":"by","navnestatus":"suAutoriseret","kommuner":["Langeland"]}},{"type":"Feature","geometry":{"type":"Point","coordinates":[9.50153965,56.210077]},"properties":{"id":"12337669-a125-6b98-e053-d480220a5a3f","navn":"Sk\u00E6gk\u00E6r","hovedtype":"Bebyggelse","undertype":"by","navnestatus":"suAutoriseret","kommuner":["Silkeborg"]}},{"type":"Feature","geometry":{"type":"Point","coordinates":[8.99732609,56.56199086]},"properties":{"id":"12337669-a12a-6b98-e053-d480220a5a3f","navn":"Lundbro","hovedtype":"Bebyggelse","undertype":"by","navnestatus":"suAutoriseret","kommuner":["Skive"]}},{"type":"Feature","geometry":{"type":"Point","coordinates":[8.56614607,56.60765196]},"properties":{"id":"12337669-a12b-6b98-e053-d480220a5a3f","navn":"Serup","hovedtype":"Bebyggelse","undertype":"by","navnestatus":"suAutoriseret","kommuner":["Struer"]}},{"type":"Feature","geometry":{"type":"Point","coordinates":[9.95201897,56.04470597]},"properties":{"id":"12337669-a12f-6b98-e053-d480220a5a3f","navn":"Skanderborg","hovedtype":"Bebyggelse","undertype":"by","navnestatus":"suAutoriseret","kommuner":["Skanderborg"]}},{"type":"Feature","geometry":{"type":"Point","coordinates":[8.87972222,56.61289759]},"properties":{"id":"12337669-a13f-6b98-e053-d480220a5a3f","navn":"Balling","hovedtype":"Bebyggelse","undertype":"by","navnestatus":"suAutoriseret","kommuner":["Skive"]}},{"type":"Feature","geometry":{"type":"Point","coordinates":[9.90549995,57.03189109]},"properties":{"id":"12337669-a143-6b98-e053-d480220a5a3f","navn":"Aalborg","hovedtype":"Bebyggelse","undertype":"by","navnestatus":"suAutoriseret","kommuner":["Aalborg"]}},{"type":"Feature","geometry":{"type":"Point","coordinates":[9.90014799,57.39510342]},"properties":{"id":"12337669-a144-6b98-e053-d480220a5a3f","navn":"Smidstrup","hovedtype":"Bebyggelse","undertype":"by","navnestatus":"suAutoriseret","kommuner":["Hj\u00F8rring"]}},{"type":"Feature","geometry":{"type":"Point","coordinates":[9.91359709,57.34320956]},"properties":{"id":"12337669-a148-6b98-e053-d480220a5a3f","navn":"Em","hovedtype":"Bebyggelse","undertype":"by","navnestatus":"suAutoriseret","kommuner":["Hj\u00F8rring"]}},{"type":"Feature","geometry":{"type":"Point","coordinates":[9.93353309,57.0653238]},"properties":{"id":"12337669-a14c-6b98-e053-d480220a5a3f","navn":"N\u00F8rresundby","hovedtype":"Bebyggelse","undertype":"by","navnestatus":"suAutoriseret","kommuner":["Aalborg"]}},{"type":"Feature","geometry":{"type":"Point","coordinates":[9.90381024,57.31417759]},"properties":{"id":"12337669-a150-6b98-e053-d480220a5a3f","navn":"Vester Linderup","hovedtype":"Bebyggelse","undertype":"by","navnestatus":"suAutoriseret","kommuner":["Br\u00F8nderslev"]}},{"type":"Feature","geometry":{"type":"Point","coordinates":[9.92351011,55.91341278]},"properties":{"id":"12337669-a153-6b98-e053-d480220a5a3f","navn":"Tvingstrup","hovedtype":"Bebyggelse","undertype":"by","navnestatus":"suAutoriseret","kommuner":["Horsens"]}},{"type":"Feature","geometry":{"type":"Point","coordinates":[9.01271665,56.15960506]},"properties":{"id":"12337669-a15a-6b98-e053-d480220a5a3f","navn":"Lund Huse","hovedtype":"Bebyggelse","undertype":"by","navnestatus":"suAutoriseret","kommuner":["Herning"]}},{"type":"Feature","geometry":{"type":"Point","coordinates":[9.84596119,56.21530968]},"properties":{"id":"12337669-a16c-6b98-e053-d480220a5a3f","navn":"Farre","hovedtype":"Bebyggelse","undertype":"by","navnestatus":"suAutoriseret","kommuner":["Favrskov"]}},{"type":"Feature","geometry":{"type":"Point","coordinates":[9.51833311,56.21710082]},"properties":{"id":"12337669-a16f-6b98-e053-d480220a5a3f","navn":"Sejling","hovedtype":"Bebyggelse","undertype":"by","navnestatus":"suAutoriseret","kommuner":["Silkeborg"]}},{"type":"Feature","geometry":{"type":"Point","coordinates":[10.08193639,56.21631154]},"properties":{"id":"12337669-a175-6b98-e053-d480220a5a3f","navn":"Kvottrup","hovedtype":"Bebyggelse","undertype":"by","navnestatus":"suAutoriseret","kommuner":["Aarhus"]}},{"type":"Feature","geometry":{"type":"Point","coordinates":[10.60207421,55.81383189]},"properties":{"id":"12337669-a176-6b98-e053-d480220a5a3f","navn":"Brundby","hovedtype":"Bebyggelse","undertype":"by","navnestatus":"suAutoriseret","kommuner":["Sams\u00F8"]}},{"type":"Feature","geometry":{"type":"Point","coordinates":[10.55726955,55.81128507]},"properties":{"id":"12337669-a177-6b98-e053-d480220a5a3f","navn":"H\u00E5rdmark","hovedtype":"Bebyggelse","undertype":"by","navnestatus":"suAutoriseret","kommuner":["Sams\u00F8"]}},{"type":"Feature","geometry":{"type":"Point","coordinates":[9.76133604,55.80904933]},"properties":{"id":"12337669-a179-6b98-e053-d480220a5a3f","navn":"\u00D8lsted","hovedtype":"Bebyggelse","undertype":"by","navnestatus":"suAutoriseret","kommuner":["Hedensted"]}},{"type":"Feature","geometry":{"type":"Point","coordinates":[9.92517915,55.81728858]},"properties":{"id":"12337669-a17a-6b98-e053-d480220a5a3f","navn":"Sejet","hovedtype":"Bebyggelse","undertype":"by","navnestatus":"suAutoriseret","kommuner":["Horsens"]}},{"type":"Feature","geometry":{"type":"Point","coordinates":[9.95912738,55.81266512]},"properties":{"id":"12337669-a17f-6b98-e053-d480220a5a3f","navn":"Brund","hovedtype":"Bebyggelse","undertype":"by","navnestatus":"suAutoriseret","kommuner":["Hedensted"]}},{"type":"Feature","geometry":{"type":"Point","coordinates":[9.98028076,55.81167178]},"properties":{"id":"12337669-a180-6b98-e053-d480220a5a3f","navn":"Over Glud","hovedtype":"Bebyggelse","undertype":"by","navnestatus":"suAutoriseret","kommuner":["Hedensted"]}},{"type":"Feature","geometry":{"type":"Point","coordinates":[9.45955144,55.80337918]},"properties":{"id":"12337669-a186-6b98-e053-d480220a5a3f","navn":"Sandvad","hovedtype":"Bebyggelse","undertype":"by","navnestatus":"suAutoriseret","kommuner":["Vejle"]}},{"type":"Feature","geometry":{"type":"Point","coordinates":[9.25590488,55.80576356]},"properties":{"id":"12337669-a187-6b98-e053-d480220a5a3f","navn":"Farre","hovedtype":"Bebyggelse","undertype":"by","navnestatus":"suAutoriseret","kommuner":["Vejle"]}},{"type":"Feature","geometry":{"type":"Point","coordinates":[10.17319421,56.15701325]},"properties":{"id":"12337669-a188-6b98-e053-d480220a5a3f","navn":"Aarhus","hovedtype":"Bebyggelse","undertype":"by","navnestatus":"suAutoriseret","kommuner":["Aarhus"]}},{"type":"Feature","geometry":{"type":"Point","coordinates":[11.71417018,55.5453259]},"properties":{"id":"12337669-a189-6b98-e053-d480220a5a3f","navn":"Store Merl\u00F8se","hovedtype":"Bebyggelse","undertype":"by","navnestatus":"suAutoriseret","kommuner":["Holb\u00E6k"]}},{"type":"Feature","geometry":{"type":"Point","coordinates":[12.22304071,55.79827892]},"properties":{"id":"12337669-a197-6b98-e053-d480220a5a3f","navn":"Slagslunde","hovedtype":"Bebyggelse","undertype":"by","navnestatus":"suAutoriseret","kommuner":["Egedal"]}},{"type":"Feature","geometry":{"type":"Point","coordinates":[11.70914586,55.43744623]},"properties":{"id":"12337669-a199-6b98-e053-d480220a5a3f","navn":"Sigersted Huse","hovedtype":"Bebyggelse","undertype":"by","navnestatus":"suAutoriseret","kommuner":["Ringsted","Sor\u00F8"]}},{"type":"Feature","geometry":{"type":"Point","coordinates":[11.69621048,55.39896693]},"properties":{"id":"12337669-a19a-6b98-e053-d480220a5a3f","navn":"Gr\u00F8nlandsg\u00E5rde","hovedtype":"Bebyggelse","undertype":"by","navnestatus":"suAutoriseret","kommuner":["N\u00E6stved"]}},{"type":"Feature","geometry":{"type":"Point","coordinates":[12.3720318,55.78441936]},"properties":{"id":"12337669-a19b-6b98-e053-d480220a5a3f","navn":"V\u00E6rl\u00F8se","hovedtype":"Bebyggelse","undertype":"by","navnestatus":"suAutoriseret","kommuner":["Fures\u00F8"]}},{"type":"Feature","geometry":{"type":"Point","coordinates":[14.71092137,55.10100872]},"properties":{"id":"12337669-a19c-6b98-e053-d480220a5a3f","navn":"R\u00F8nne","hovedtype":"Bebyggelse","undertype":"by","navnestatus":"suAutoriseret","kommuner":["Bornholm"]}},{"type":"Feature","geometry":{"type":"Point","coordinates":[9.10701001,55.8046131]},"properties":{"id":"12337669-a19e-6b98-e053-d480220a5a3f","navn":"Langelund","hovedtype":"Bebyggelse","undertype":"by","navnestatus":"officielt","kommuner":["Vejle"]}},{"type":"Feature","geometry":{"type":"Point","coordinates":[9.43095439,55.81265388]},"properties":{"id":"12337669-a19f-6b98-e053-d480220a5a3f","navn":"Hvejsel","hovedtype":"Bebyggelse","undertype":"by","navnestatus":"suAutoriseret","kommuner":["Vejle"]}},{"type":"Feature","geometry":{"type":"Point","coordinates":[9.37989831,55.40960876]},"properties":{"id":"12337669-a1a1-6b98-e053-d480220a5a3f","navn":"\u00D8dis","hovedtype":"Bebyggelse","undertype":"by","navnestatus":"suAutoriseret","kommuner":["Kolding"]}},{"type":"Feature","geometry":{"type":"Point","coordinates":[9.93105161,55.76776472]},"properties":{"id":"12337669-a1a4-6b98-e053-d480220a5a3f","navn":"R\u00E5rup","hovedtype":"Bebyggelse","undertype":"by","navnestatus":"suAutoriseret","kommuner":["Hedensted"]}},{"type":"Feature","geometry":{"type":"Point","coordinates":[11.56778662,55.40015831]},"properties":{"id":"12337669-a1a8-6b98-e053-d480220a5a3f","navn":"Lynge","hovedtype":"Bebyggelse","undertype":"by","navnestatus":"suAutoriseret","kommuner":["Sor\u00F8"]}},{"type":"Feature","geometry":{"type":"Point","coordinates":[11.31184218,55.40274275]},"properties":{"id":"12337669-a1a9-6b98-e053-d480220a5a3f","navn":"Hyllerup","hovedtype":"Bebyggelse","undertype":"by","navnestatus":"suAutoriseret","kommuner":["Slagelse"]}},{"type":"Feature","geometry":{"type":"Point","coordinates":[9.91105203,55.4060804]},"properties":{"id":"12337669-a1aa-6b98-e053-d480220a5a3f","navn":"\u00D8rslev","hovedtype":"Bebyggelse","undertype":"by","navnestatus":"suAutoriseret","kommuner":["Middelfart"]}},{"type":"Feature","geometry":{"type":"Point","coordinates":[12.59347729,55.78725611]},"properties":{"id":"12337669-a1ae-6b98-e053-d480220a5a3f","navn":"Taarb\u00E6k","hovedtype":"Bebyggelse","undertype":"by","navnestatus":"suAutoriseret","kommuner":["Lyngby-Taarb\u00E6k"]}},{"type":"Feature","geometry":{"type":"Point","coordinates":[9.54832276,55.40618636]},"properties":{"id":"12337669-a1b0-6b98-e053-d480220a5a3f","navn":"Gr\u00F8nninghoved","hovedtype":"Bebyggelse","undertype":"by","navnestatus":"suAutoriseret","kommuner":["Kolding"]}},{"type":"Feature","geometry":{"type":"Point","coordinates":[11.71901867,55.50308274]},"properties":{"id":"12337669-a1b1-6b98-e053-d480220a5a3f","navn":"Allindemagle","hovedtype":"Bebyggelse","undertype":"by","navnestatus":"suAutoriseret","kommuner":["Ringsted"]}},{"type":"Feature","geometry":{"type":"Point","coordinates":[11.71990187,55.52423248]},"properties":{"id":"12337669-a1b2-6b98-e053-d480220a5a3f","navn":"Ordrup","hovedtype":"Bebyggelse","undertype":"by","navnestatus":"suAutoriseret","kommuner":["Holb\u00E6k"]}},{"type":"Feature","geometry":{"type":"Point","coordinates":[9.038945,55.391536]},"properties":{"id":"12337669-a1bd-6b98-e053-d480220a5a3f","navn":"Hjerting","hovedtype":"Bebyggelse","undertype":"by","navnestatus":"suAutoriseret","kommuner":["Vejen"]}},{"type":"Feature","geometry":{"type":"Point","coordinates":[9.13386721,54.99389138]},"properties":{"id":"12337669-a1c0-6b98-e053-d480220a5a3f","navn":"Bavneh\u00F8j","hovedtype":"Bebyggelse","undertype":"by","navnestatus":"officielt","kommuner":["Aabenraa"]}},{"type":"Feature","geometry":{"type":"Point","coordinates":[9.19853131,54.99563893]},"properties":{"id":"12337669-a1c1-6b98-e053-d480220a5a3f","navn":"Vollerup","hovedtype":"Bebyggelse","undertype":"by","navnestatus":"suAutoriseret","kommuner":["Aabenraa"]}},{"type":"Feature","geometry":{"type":"Point","coordinates":[9.25397035,54.99522168]},"properties":{"id":"12337669-a1c3-6b98-e053-d480220a5a3f","navn":"Bjolderup","hovedtype":"Bebyggelse","undertype":"by","navnestatus":"suAutoriseret","kommuner":["Aabenraa"]}},{"type":"Feature","geometry":{"type":"Point","coordinates":[9.93748438,55.00372171]},"properties":{"id":"12337669-a1c6-6b98-e053-d480220a5a3f","navn":"\u00D8sterholm","hovedtype":"Bebyggelse","undertype":"by","navnestatus":"suAutoriseret","kommuner":["S\u00F8nderborg"]}},{"type":"Feature","geometry":{"type":"Point","coordinates":[8.9505477,54.99293895]},"properties":{"id":"12337669-a1ca-6b98-e053-d480220a5a3f","navn":"Travsted Mark","hovedtype":"Bebyggelse","undertype":"by","navnestatus":"officielt","kommuner":["T\u00F8nder"]}},{"type":"Feature","geometry":{"type":"Point","coordinates":[8.75732784,54.99096478]},"properties":{"id":"12337669-a1cc-6b98-e053-d480220a5a3f","navn":"G\u00E6rup","hovedtype":"Bebyggelse","undertype":"by","navnestatus":"suAutoriseret","kommuner":["T\u00F8nder"]}},{"type":"Feature","geometry":{"type":"Point","coordinates":[8.66386137,54.9869518]},"properties":{"id":"12337669-a1cd-6b98-e053-d480220a5a3f","navn":"Emmerlev","hovedtype":"Bebyggelse","undertype":"by","navnestatus":"suAutoriseret","kommuner":["T\u00F8nder"]}},{"type":"Feature","geometry":{"type":"Point","coordinates":[8.9970768,54.99399511]},"properties":{"id":"12337669-a1cf-6b98-e053-d480220a5a3f","navn":"Lundsg\u00E5rde","hovedtype":"Bebyggelse","undertype":"by","navnestatus":"suAutoriseret","kommuner":["T\u00F8nder"]}},{"type":"Feature","geometry":{"type":"Point","coordinates":[9.05015188,54.95739583]},"properties":{"id":"12337669-a1d4-6b98-e053-d480220a5a3f","navn":"Lund","hovedtype":"Bebyggelse","undertype":"by","navnestatus":"suAutoriseret","kommuner":["Aabenraa"]}},{"type":"Feature","geometry":{"type":"Point","coordinates":[9.95598865,55.00031824]},"properties":{"id":"12337669-a1d6-6b98-e053-d480220a5a3f","navn":"Helved","hovedtype":"Bebyggelse","undertype":"by","navnestatus":"suAutoriseret","kommuner":["S\u00F8nderborg"]}},{"type":"Feature","geometry":{"type":"Point","coordinates":[9.92466151,55.88386765]},"properties":{"id":"12337669-a1d7-6b98-e053-d480220a5a3f","navn":"Meldrup","hovedtype":"Bebyggelse","undertype":"by","navnestatus":"suAutoriseret","kommuner":["Horsens"]}},{"type":"Feature","geometry":{"type":"Point","coordinates":[12.53778811,55.79137952]},"properties":{"id":"12337669-a1d8-6b98-e053-d480220a5a3f","navn":"Hjortek\u00E6r","hovedtype":"Bebyggelse","undertype":"by","navnestatus":"suAutoriseret","kommuner":["Lyngby-Taarb\u00E6k"]}},{"type":"Feature","geometry":{"type":"Point","coordinates":[12.52094745,55.79301492]},"properties":{"id":"12337669-a1d9-6b98-e053-d480220a5a3f","navn":"Lundtofte","hovedtype":"Bebyggelse","undertype":"by","navnestatus":"suAutoriseret","kommuner":["Lyngby-Taarb\u00E6k","Rudersdal"]}},{"type":"Feature","geometry":{"type":"Point","coordinates":[12.50591582,55.79451874]},"properties":{"id":"12337669-a1da-6b98-e053-d480220a5a3f","navn":"Brede","hovedtype":"Bebyggelse","undertype":"by","navnestatus":"suAutoriseret","kommuner":["Lyngby-Taarb\u00E6k","Rudersdal"]}},{"type":"Feature","geometry":{"type":"Point","coordinates":[12.46427951,55.79436987]},"properties":{"id":"12337669-a1db-6b98-e053-d480220a5a3f","navn":"Virum","hovedtype":"Bebyggelse","undertype":"by","navnestatus":"suAutoriseret","kommuner":["Lyngby-Taarb\u00E6k","Rudersdal"]}},{"type":"Feature","geometry":{"type":"Point","coordinates":[12.11779972,55.79987334]},"properties":{"id":"12337669-a1dc-6b98-e053-d480220a5a3f","navn":"Store R\u00F8rb\u00E6k","hovedtype":"Bebyggelse","undertype":"by","navnestatus":"suAutoriseret","kommuner":["Frederikssund"]}},{"type":"Feature","geometry":{"type":"Point","coordinates":[11.72872983,55.92346711]},"properties":{"id":"12337669-a1e0-6b98-e053-d480220a5a3f","navn":"Nakke","hovedtype":"Bebyggelse","undertype":"by","navnestatus":"suAutoriseret","kommuner":["Odsherred"]}},{"type":"Feature","geometry":{"type":"Point","coordinates":[12.17290748,55.77510472]},"properties":{"id":"12337669-a1e3-6b98-e053-d480220a5a3f","navn":"\u00D8lstykke","hovedtype":"Bebyggelse","undertype":"by","navnestatus":"suAutoriseret","kommuner":["Egedal"]}},{"type":"Feature","geometry":{"type":"Point","coordinates":[11.34980713,55.40454619]},"properties":{"id":"12337669-a1e4-6b98-e053-d480220a5a3f","navn":"Slagelse","hovedtype":"Bebyggelse","undertype":"by","navnestatus":"suAutoriseret","kommuner":["Slagelse"]}},{"type":"Feature","geometry":{"type":"Point","coordinates":[11.71354949,55.49564163]},"properties":{"id":"12337669-a1e6-6b98-e053-d480220a5a3f","navn":"Allindemagle \u00D8","hovedtype":"Bebyggelse","undertype":"by","navnestatus":"suAutoriseret","kommuner":["Ringsted"]}},{"type":"Feature","geometry":{"type":"Point","coordinates":[11.50161983,55.81537226]},"properties":{"id":"12337669-a1e7-6b98-e053-d480220a5a3f","navn":"Asn\u00E6s","hovedtype":"Bebyggelse","undertype":"by","navnestatus":"suAutoriseret","kommuner":["Odsherred"]}},{"type":"Feature","geometry":{"type":"Point","coordinates":[9.00072302,56.26856296]},"properties":{"id":"12337669-a1eb-6b98-e053-d480220a5a3f","navn":"Simmelk\u00E6r","hovedtype":"Bebyggelse","undertype":"by","navnestatus":"suAutoriseret","kommuner":["Herning"]}},{"type":"Feature","geometry":{"type":"Point","coordinates":[10.3321384,57.43464217]},"properties":{"id":"12337669-a1ec-6b98-e053-d480220a5a3f","navn":"Sk\u00E6rum","hovedtype":"Bebyggelse","undertype":"by","navnestatus":"suAutoriseret","kommuner":["Frederikshavn"]}},{"type":"Feature","geometry":{"type":"Point","coordinates":[8.10371536,56.07534929]},"properties":{"id":"12337669-a1f2-6b98-e053-d480220a5a3f","navn":"Stormodden","hovedtype":"Bebyggelse","undertype":"by","navnestatus":"officielt","kommuner":["Ringk\u00F8bing-Skjern"]}},{"type":"Feature","geometry":{"type":"Point","coordinates":[8.82808695,54.98048553]},"properties":{"id":"12337669-a1f3-6b98-e053-d480220a5a3f","navn":"S\u00F8nder Okholm","hovedtype":"Bebyggelse","undertype":"by","navnestatus":"officielt","kommuner":["T\u00F8nder"]}},{"type":"Feature","geometry":{"type":"Point","coordinates":[8.86209765,54.9795751]},"properties":{"id":"12337669-a1f4-6b98-e053-d480220a5a3f","navn":"Abild","hovedtype":"Bebyggelse","undertype":"by","navnestatus":"suAutoriseret","kommuner":["T\u00F8nder"]}},{"type":"Feature","geometry":{"type":"Point","coordinates":[8.84467257,54.92473785]},"properties":{"id":"12337669-a1f5-6b98-e053-d480220a5a3f","navn":"Dyrhus","hovedtype":"Bebyggelse","undertype":"by","navnestatus":"suAutoriseret","kommuner":["T\u00F8nder"]}},{"type":"Feature","geometry":{"type":"Point","coordinates":[8.90162647,54.95863059]},"properties":{"id":"12337669-a1f6-6b98-e053-d480220a5a3f","navn":"Lille Emmerske","hovedtype":"Bebyggelse","undertype":"by","navnestatus":"suAutoriseret","kommuner":["T\u00F8nder"]}},{"type":"Feature","geometry":{"type":"Point","coordinates":[8.89171092,54.96352114]},"properties":{"id":"12337669-a1f7-6b98-e053-d480220a5a3f","navn":"Hedehuse","hovedtype":"Bebyggelse","undertype":"by","navnestatus":"suAutoriseret","kommuner":["T\u00F8nder"]}},{"type":"Feature","geometry":{"type":"Point","coordinates":[8.90280458,54.94765069]},"properties":{"id":"12337669-a1f8-6b98-e053-d480220a5a3f","navn":"Korntved","hovedtype":"Bebyggelse","undertype":"by","navnestatus":"suAutoriseret","kommuner":["T\u00F8nder"]}},{"type":"Feature","geometry":{"type":"Point","coordinates":[8.90343994,54.95529775]},"properties":{"id":"12337669-a1f9-6b98-e053-d480220a5a3f","navn":"Toft","hovedtype":"Bebyggelse","undertype":"by","navnestatus":"suAutoriseret","kommuner":["T\u00F8nder"]}},{"type":"Feature","geometry":{"type":"Point","coordinates":[8.85982712,54.93823464]},"properties":{"id":"12337669-a1fb-6b98-e053-d480220a5a3f","navn":"T\u00F8nder","hovedtype":"Bebyggelse","undertype":"by","navnestatus":"suAutoriseret","kommuner":["T\u00F8nder"]}},{"type":"Feature","geometry":{"type":"Point","coordinates":[9.00845252,54.98158277]},"properties":{"id":"12337669-a1fe-6b98-e053-d480220a5a3f","navn":"B\u00F8gvad","hovedtype":"Bebyggelse","undertype":"by","navnestatus":"suAutoriseret","kommuner":["T\u00F8nder"]}},{"type":"Feature","geometry":{"type":"Point","coordinates":[8.92678214,54.96209527]},"properties":{"id":"12337669-a200-6b98-e053-d480220a5a3f","navn":"Store Emmerske","hovedtype":"Bebyggelse","undertype":"by","navnestatus":"suAutoriseret","kommuner":["T\u00F8nder"]}},{"type":"Feature","geometry":{"type":"Point","coordinates":[8.96206014,54.97897378]},"properties":{"id":"12337669-a202-6b98-e053-d480220a5a3f","navn":"Fredensborg","hovedtype":"Bebyggelse","undertype":"by","navnestatus":"officielt","kommuner":["T\u00F8nder"]}},{"type":"Feature","geometry":{"type":"Point","coordinates":[8.96526734,54.94773798]},"properties":{"id":"12337669-a203-6b98-e053-d480220a5a3f","navn":"Hostrup","hovedtype":"Bebyggelse","undertype":"by","navnestatus":"suAutoriseret","kommuner":["T\u00F8nder"]}},{"type":"Feature","geometry":{"type":"Point","coordinates":[8.96454301,54.93955026]},"properties":{"id":"12337669-a204-6b98-e053-d480220a5a3f","navn":"Jejsing","hovedtype":"Bebyggelse","undertype":"by","navnestatus":"suAutoriseret","kommuner":["T\u00F8nder"]}},{"type":"Feature","geometry":{"type":"Point","coordinates":[9.0261133,54.9233126]},"properties":{"id":"12337669-a207-6b98-e053-d480220a5a3f","navn":"Nolde Mark","hovedtype":"Bebyggelse","undertype":"by","navnestatus":"suAutoriseret","kommuner":["Aabenraa"]}},{"type":"Feature","geometry":{"type":"Point","coordinates":[8.92092066,54.93400479]},"properties":{"id":"12337669-a208-6b98-e053-d480220a5a3f","navn":"R\u00F8rk\u00E6r","hovedtype":"Bebyggelse","undertype":"by","navnestatus":"suAutoriseret","kommuner":["T\u00F8nder"]}},{"type":"Feature","geometry":{"type":"Point","coordinates":[8.9199205,54.9410732]},"properties":{"id":"12337669-a209-6b98-e053-d480220a5a3f","navn":"R\u00F8rk\u00E6r Mark","hovedtype":"Bebyggelse","undertype":"by","navnestatus":"officielt","kommuner":["T\u00F8nder"]}},{"type":"Feature","geometry":{"type":"Point","coordinates":[9.007141,54.96100222]},"properties":{"id":"12337669-a20a-6b98-e053-d480220a5a3f","navn":"Solderup","hovedtype":"Bebyggelse","undertype":"by","navnestatus":"suAutoriseret","kommuner":["T\u00F8nder"]}},{"type":"Feature","geometry":{"type":"Point","coordinates":[9.03666247,54.97659961]},"properties":{"id":"12337669-a20d-6b98-e053-d480220a5a3f","navn":"S\u00F8vang","hovedtype":"Bebyggelse","undertype":"by","navnestatus":"suAutoriseret","kommuner":["T\u00F8nder"]}},{"type":"Feature","geometry":{"type":"Point","coordinates":[8.98987736,54.96202169]},"properties":{"id":"12337669-a210-6b98-e053-d480220a5a3f","navn":"Trespring","hovedtype":"Bebyggelse","undertype":"by","navnestatus":"suAutoriseret","kommuner":["T\u00F8nder"]}},{"type":"Feature","geometry":{"type":"Point","coordinates":[8.90804616,54.97931914]},"properties":{"id":"12337669-a213-6b98-e053-d480220a5a3f","navn":"Vennemose","hovedtype":"Bebyggelse","undertype":"by","navnestatus":"suAutoriseret","kommuner":["T\u00F8nder"]}},{"type":"Feature","geometry":{"type":"Point","coordinates":[8.90649019,54.91451975]},"properties":{"id":"12337669-a215-6b98-e053-d480220a5a3f","navn":"S\u00E6d","hovedtype":"Bebyggelse","undertype":"by","navnestatus":"suAutoriseret","kommuner":["T\u00F8nder"]}},{"type":"Feature","geometry":{"type":"Point","coordinates":[8.85684495,54.91258827]},"properties":{"id":"12337669-a217-6b98-e053-d480220a5a3f","navn":"Ubjerg","hovedtype":"Bebyggelse","undertype":"by","navnestatus":"suAutoriseret","kommuner":["T\u00F8nder"]}},{"type":"Feature","geometry":{"type":"Point","coordinates":[9.0059736,54.90313322]},"properties":{"id":"12337669-a219-6b98-e053-d480220a5a3f","navn":"Lydersholm","hovedtype":"Bebyggelse","undertype":"by","navnestatus":"suAutoriseret","kommuner":["T\u00F8nder"]}},{"type":"Feature","geometry":{"type":"Point","coordinates":[9.04018647,54.92065572]},"properties":{"id":"12337669-a21a-6b98-e053-d480220a5a3f","navn":"Nolde","hovedtype":"Bebyggelse","undertype":"by","navnestatus":"suAutoriseret","kommuner":["Aabenraa"]}},{"type":"Feature","geometry":{"type":"Point","coordinates":[8.84003822,54.9106883]},"properties":{"id":"12337669-a21c-6b98-e053-d480220a5a3f","navn":"Ny M\u00F8llehus","hovedtype":"Bebyggelse","undertype":"by","navnestatus":"suAutoriseret","kommuner":["T\u00F8nder"]}},{"type":"Feature","geometry":{"type":"Point","coordinates":[8.90947817,54.90494121]},"properties":{"id":"12337669-a21d-6b98-e053-d480220a5a3f","navn":"S\u00E6d Gr\u00E6nse","hovedtype":"Bebyggelse","undertype":"by","navnestatus":"suAutoriseret","kommuner":["T\u00F8nder"]}},{"type":"Feature","geometry":{"type":"Point","coordinates":[8.85684598,54.97827323]},"properties":{"id":"12337669-a21e-6b98-e053-d480220a5a3f","navn":"Vestermark","hovedtype":"Bebyggelse","undertype":"by","navnestatus":"suAutoriseret","kommuner":["T\u00F8nder"]}},{"type":"Feature","geometry":{"type":"Point","coordinates":[8.73779787,54.91875122]},"properties":{"id":"12337669-a21f-6b98-e053-d480220a5a3f","navn":"Poppenb\u00F8l","hovedtype":"Bebyggelse","undertype":"by","navnestatus":"suAutoriseret","kommuner":["T\u00F8nder"]}},{"type":"Feature","geometry":{"type":"Point","coordinates":[8.7276677,54.94363458]},"properties":{"id":"12337669-a220-6b98-e053-d480220a5a3f","navn":"S\u00F8g\u00E5rd","hovedtype":"Bebyggelse","undertype":"by","navnestatus":"suAutoriseret","kommuner":["T\u00F8nder"]}},{"type":"Feature","geometry":{"type":"Point","coordinates":[8.74285256,54.97457213]},"properties":{"id":"12337669-a222-6b98-e053-d480220a5a3f","navn":"Daler","hovedtype":"Bebyggelse","undertype":"by","navnestatus":"suAutoriseret","kommuner":["T\u00F8nder"]}},{"type":"Feature","geometry":{"type":"Point","coordinates":[8.70528521,54.97268269]},"properties":{"id":"12337669-a223-6b98-e053-d480220a5a3f","navn":"Frifelt","hovedtype":"Bebyggelse","undertype":"by","navnestatus":"suAutoriseret","kommuner":["T\u00F8nder"]}},{"type":"Feature","geometry":{"type":"Point","coordinates":[8.78574979,54.9229157]},"properties":{"id":"12337669-a224-6b98-e053-d480220a5a3f","navn":"S\u00F8dam","hovedtype":"Bebyggelse","undertype":"by","navnestatus":"suAutoriseret","kommuner":["T\u00F8nder"]}},{"type":"Feature","geometry":{"type":"Point","coordinates":[8.69145586,54.96709576]},"properties":{"id":"12337669-a225-6b98-e053-d480220a5a3f","navn":"H\u00F8jer","hovedtype":"Bebyggelse","undertype":"by","navnestatus":"suAutoriseret","kommuner":["T\u00F8nder"]}},{"type":"Feature","geometry":{"type":"Point","coordinates":[8.72987425,54.96309973]},"properties":{"id":"12337669-a228-6b98-e053-d480220a5a3f","navn":"Snur-om","hovedtype":"Bebyggelse","undertype":"by","navnestatus":"suAutoriseret","kommuner":["T\u00F8nder"]}},{"type":"Feature","geometry":{"type":"Point","coordinates":[8.77861351,54.94700225]},"properties":{"id":"12337669-a22a-6b98-e053-d480220a5a3f","navn":"B\u00F8nderby","hovedtype":"Bebyggelse","undertype":"by","navnestatus":"suAutoriseret","kommuner":["T\u00F8nder"]}},{"type":"Feature","geometry":{"type":"Point","coordinates":[8.81342973,54.957923]},"properties":{"id":"12337669-a22b-6b98-e053-d480220a5a3f","navn":"Gallehus","hovedtype":"Bebyggelse","undertype":"by","navnestatus":"suAutoriseret","kommuner":["T\u00F8nder"]}},{"type":"Feature","geometry":{"type":"Point","coordinates":[8.76066209,54.9475336]},"properties":{"id":"12337669-a22c-6b98-e053-d480220a5a3f","navn":"Kannikhus","hovedtype":"Bebyggelse","undertype":"by","navnestatus":"suAutoriseret","kommuner":["T\u00F8nder"]}},{"type":"Feature","geometry":{"type":"Point","coordinates":[8.79939218,54.9455406]},"properties":{"id":"12337669-a22d-6b98-e053-d480220a5a3f","navn":"M\u00F8gelt\u00F8nder","hovedtype":"Bebyggelse","undertype":"by","navnestatus":"suAutoriseret","kommuner":["T\u00F8nder"]}},{"type":"Feature","geometry":{"type":"Point","coordinates":[8.79233364,54.95122614]},"properties":{"id":"12337669-a22e-6b98-e053-d480220a5a3f","navn":"N\u00F8rtoft","hovedtype":"Bebyggelse","undertype":"by","navnestatus":"suAutoriseret","kommuner":["T\u00F8nder"]}},{"type":"Feature","geometry":{"type":"Point","coordinates":[8.78517454,54.9490256]},"properties":{"id":"12337669-a22f-6b98-e053-d480220a5a3f","navn":"Stokkebro","hovedtype":"Bebyggelse","undertype":"by","navnestatus":"suAutoriseret","kommuner":["T\u00F8nder"]}},{"type":"Feature","geometry":{"type":"Point","coordinates":[8.80022215,54.95644256]},"properties":{"id":"12337669-a231-6b98-e053-d480220a5a3f","navn":"Toghale","hovedtype":"Bebyggelse","undertype":"by","navnestatus":"suAutoriseret","kommuner":["T\u00F8nder"]}},{"type":"Feature","geometry":{"type":"Point","coordinates":[8.76991942,54.97115192]},"properties":{"id":"12337669-a233-6b98-e053-d480220a5a3f","navn":"\u00D8sterby","hovedtype":"Bebyggelse","undertype":"by","navnestatus":"suAutoriseret","kommuner":["T\u00F8nder"]}},{"type":"Feature","geometry":{"type":"Point","coordinates":[8.70945914,54.92019565]},"properties":{"id":"12337669-a235-6b98-e053-d480220a5a3f","navn":"N\u00F8rrem\u00F8lle","hovedtype":"Bebyggelse","undertype":"by","navnestatus":"suAutoriseret","kommuner":["T\u00F8nder"]}},{"type":"Feature","geometry":{"type":"Point","coordinates":[8.75148842,54.90023239]},"properties":{"id":"12337669-a237-6b98-e053-d480220a5a3f","navn":"Rudb\u00F8l","hovedtype":"Bebyggelse","undertype":"by","navnestatus":"suAutoriseret","kommuner":["T\u00F8nder"]}},{"type":"Feature","geometry":{"type":"Point","coordinates":[8.8227141,54.91002638]},"properties":{"id":"12337669-a238-6b98-e053-d480220a5a3f","navn":"Grippenfelt","hovedtype":"Bebyggelse","undertype":"by","navnestatus":"suAutoriseret","kommuner":["T\u00F8nder"]}},{"type":"Feature","geometry":{"type":"Point","coordinates":[8.76982122,54.89845183]},"properties":{"id":"12337669-a239-6b98-e053-d480220a5a3f","navn":"Lyst","hovedtype":"Bebyggelse","undertype":"by","navnestatus":"suAutoriseret","kommuner":["T\u00F8nder"]}},{"type":"Feature","geometry":{"type":"Point","coordinates":[8.7564039,54.95165417]},"properties":{"id":"12337669-a23c-6b98-e053-d480220a5a3f","navn":"Brink","hovedtype":"Bebyggelse","undertype":"by","navnestatus":"officielt","kommuner":["T\u00F8nder"]}},{"type":"Feature","geometry":{"type":"Point","coordinates":[8.79764571,54.93022767]},"properties":{"id":"12337669-a23d-6b98-e053-d480220a5a3f","navn":"Kogen","hovedtype":"Bebyggelse","undertype":"by","navnestatus":"officielt","kommuner":["T\u00F8nder"]}},{"type":"Feature","geometry":{"type":"Point","coordinates":[8.83221921,54.90788458]},"properties":{"id":"12337669-a23e-6b98-e053-d480220a5a3f","navn":"M\u00F8llehus","hovedtype":"Bebyggelse","undertype":"by","navnestatus":"suAutoriseret","kommuner":["T\u00F8nder"]}},{"type":"Feature","geometry":{"type":"Point","coordinates":[8.74791621,54.97878147]},"properties":{"id":"12337669-a243-6b98-e053-d480220a5a3f","navn":"Skov","hovedtype":"Bebyggelse","undertype":"by","navnestatus":"suAutoriseret","kommuner":["T\u00F8nder"]}},{"type":"Feature","geometry":{"type":"Point","coordinates":[8.96816297,55.19620146]},"properties":{"id":"12337669-a245-6b98-e053-d480220a5a3f","navn":"Lindet","hovedtype":"Bebyggelse","undertype":"by","navnestatus":"suAutoriseret","kommuner":["Haderslev","T\u00F8nder"]}},{"type":"Feature","geometry":{"type":"Point","coordinates":[8.73552949,55.19453499]},"properties":{"id":"12337669-a246-6b98-e053-d480220a5a3f","navn":"Br\u00F8ns","hovedtype":"Bebyggelse","undertype":"by","navnestatus":"suAutoriseret","kommuner":["T\u00F8nder"]}},{"type":"Feature","geometry":{"type":"Point","coordinates":[8.82477215,55.25118741]},"properties":{"id":"12337669-a247-6b98-e053-d480220a5a3f","navn":"Roager","hovedtype":"Bebyggelse","undertype":"by","navnestatus":"suAutoriseret","kommuner":["Esbjerg"]}},{"type":"Feature","geometry":{"type":"Point","coordinates":[8.8211062,55.29216142]},"properties":{"id":"12337669-a249-6b98-e053-d480220a5a3f","navn":"H\u00F8mvejle","hovedtype":"Bebyggelse","undertype":"by","navnestatus":"suAutoriseret","kommuner":["Esbjerg"]}},{"type":"Feature","geometry":{"type":"Point","coordinates":[8.9292275,55.29640894]},"properties":{"id":"12337669-a24a-6b98-e053-d480220a5a3f","navn":"Gelsbro","hovedtype":"Bebyggelse","undertype":"by","navnestatus":"suAutoriseret","kommuner":["Haderslev","Esbjerg"]}},{"type":"Feature","geometry":{"type":"Point","coordinates":[8.68044124,55.29014872]},"properties":{"id":"12337669-a251-6b98-e053-d480220a5a3f","navn":"Vester Vedsted","hovedtype":"Bebyggelse","undertype":"by","navnestatus":"suAutoriseret","kommuner":["Esbjerg"]}},{"type":"Feature","geometry":{"type":"Point","coordinates":[8.87286345,55.37030142]},"properties":{"id":"12337669-a257-6b98-e053-d480220a5a3f","navn":"Kalvslund","hovedtype":"Bebyggelse","undertype":"by","navnestatus":"suAutoriseret","kommuner":["Esbjerg"]}},{"type":"Feature","geometry":{"type":"Point","coordinates":[8.87644891,55.33131541]},"properties":{"id":"12337669-a259-6b98-e053-d480220a5a3f","navn":"Obbek\u00E6r","hovedtype":"Bebyggelse","undertype":"by","navnestatus":"suAutoriseret","kommuner":["Esbjerg"]}},{"type":"Feature","geometry":{"type":"Point","coordinates":[9.01172853,55.36268606]},"properties":{"id":"12337669-a25c-6b98-e053-d480220a5a3f","navn":"Br\u00F8strup","hovedtype":"Bebyggelse","undertype":"by","navnestatus":"suAutoriseret","kommuner":["Vejen"]}},{"type":"Feature","geometry":{"type":"Point","coordinates":[8.92771012,55.34836247]},"properties":{"id":"12337669-a25f-6b98-e053-d480220a5a3f","navn":"F\u00E6sted Toft","hovedtype":"Bebyggelse","undertype":"by","navnestatus":"suAutoriseret","kommuner":["Vejen"]}},{"type":"Feature","geometry":{"type":"Point","coordinates":[8.9363681,55.33025183]},"properties":{"id":"12337669-a261-6b98-e053-d480220a5a3f","navn":"Harreby","hovedtype":"Bebyggelse","undertype":"by","navnestatus":"suAutoriseret","kommuner":["Vejen"]}},{"type":"Feature","geometry":{"type":"Point","coordinates":[8.98414249,55.35303195]},"properties":{"id":"12337669-a264-6b98-e053-d480220a5a3f","navn":"S\u00F8nder Hygum","hovedtype":"Bebyggelse","undertype":"by","navnestatus":"suAutoriseret","kommuner":["Vejen"]}},{"type":"Feature","geometry":{"type":"Point","coordinates":[8.98023688,55.38577743]},"properties":{"id":"12337669-a26e-6b98-e053-d480220a5a3f","navn":"Tornum","hovedtype":"Bebyggelse","undertype":"by","navnestatus":"suAutoriseret","kommuner":["Vejen"]}},{"type":"Feature","geometry":{"type":"Point","coordinates":[8.85652051,55.31545988]},"properties":{"id":"12337669-a270-6b98-e053-d480220a5a3f","navn":"Varming","hovedtype":"Bebyggelse","undertype":"by","navnestatus":"suAutoriseret","kommuner":["Esbjerg"]}},{"type":"Feature","geometry":{"type":"Point","coordinates":[8.98137034,55.31616832]},"properties":{"id":"12337669-a272-6b98-e053-d480220a5a3f","navn":"Fole","hovedtype":"Bebyggelse","undertype":"by","navnestatus":"suAutoriseret","kommuner":["Haderslev"]}},{"type":"Feature","geometry":{"type":"Point","coordinates":[8.97911492,55.31244567]},"properties":{"id":"12337669-a274-6b98-e053-d480220a5a3f","navn":"Mellerup","hovedtype":"Bebyggelse","undertype":"by","navnestatus":"suAutoriseret","kommuner":["Haderslev"]}},{"type":"Feature","geometry":{"type":"Point","coordinates":[8.96399592,55.30383228]},"properties":{"id":"12337669-a276-6b98-e053-d480220a5a3f","navn":"Vester Nyb\u00F8l","hovedtype":"Bebyggelse","undertype":"by","navnestatus":"suAutoriseret","kommuner":["Haderslev"]}},{"type":"Feature","geometry":{"type":"Point","coordinates":[8.84669799,55.30890317]},"properties":{"id":"12337669-a279-6b98-e053-d480220a5a3f","navn":"Skalleb\u00E6k","hovedtype":"Bebyggelse","undertype":"by","navnestatus":"suAutoriseret","kommuner":["Esbjerg"]}},{"type":"Feature","geometry":{"type":"Point","coordinates":[8.8335895,55.29977149]},"properties":{"id":"12337669-a27f-6b98-e053-d480220a5a3f","navn":"Seem Mejeriby","hovedtype":"Bebyggelse","undertype":"by","navnestatus":"officielt","kommuner":["Esbjerg"]}},{"type":"Feature","geometry":{"type":"Point","coordinates":[8.83046977,55.28018844]},"properties":{"id":"12337669-a280-6b98-e053-d480220a5a3f","navn":"H\u00F8m","hovedtype":"Bebyggelse","undertype":"by","navnestatus":"suAutoriseret","kommuner":["Esbjerg"]}},{"type":"Feature","geometry":{"type":"Point","coordinates":[8.9484383,55.28428455]},"properties":{"id":"12337669-a284-6b98-e053-d480220a5a3f","navn":"Enderupskov","hovedtype":"Bebyggelse","undertype":"by","navnestatus":"suAutoriseret","kommuner":["Haderslev"]}},{"type":"Feature","geometry":{"type":"Point","coordinates":[9.00678363,55.27456359]},"properties":{"id":"12337669-a289-6b98-e053-d480220a5a3f","navn":"Tiset","hovedtype":"Bebyggelse","undertype":"by","navnestatus":"suAutoriseret","kommuner":["Haderslev"]}},{"type":"Feature","geometry":{"type":"Point","coordinates":[8.84606954,55.2388024]},"properties":{"id":"12337669-a28c-6b98-e053-d480220a5a3f","navn":"\u00D8ster \u00C5b\u00F8lling","hovedtype":"Bebyggelse","undertype":"by","navnestatus":"suAutoriseret","kommuner":["Esbjerg"]}},{"type":"Feature","geometry":{"type":"Point","coordinates":[8.8294095,55.21466163]},"properties":{"id":"12337669-a28d-6b98-e053-d480220a5a3f","navn":"Frifelt","hovedtype":"Bebyggelse","undertype":"by","navnestatus":"suAutoriseret","kommuner":["T\u00F8nder"]}},{"type":"Feature","geometry":{"type":"Point","coordinates":[8.88467387,55.21145316]},"properties":{"id":"12337669-a28e-6b98-e053-d480220a5a3f","navn":"G\u00E5nsager","hovedtype":"Bebyggelse","undertype":"by","navnestatus":"suAutoriseret","kommuner":["T\u00F8nder"]}},{"type":"Feature","geometry":{"type":"Point","coordinates":[8.84456963,55.22024406]},"properties":{"id":"12337669-a295-6b98-e053-d480220a5a3f","navn":"Vodder","hovedtype":"Bebyggelse","undertype":"by","navnestatus":"suAutoriseret","kommuner":["T\u00F8nder"]}},{"type":"Feature","geometry":{"type":"Point","coordinates":[8.96674512,55.24811671]},"properties":{"id":"12337669-a297-6b98-e053-d480220a5a3f","navn":"Arnum","hovedtype":"Bebyggelse","undertype":"by","navnestatus":"suAutoriseret","kommuner":["Haderslev"]}},{"type":"Feature","geometry":{"type":"Point","coordinates":[8.9912066,55.22877352]},"properties":{"id":"12337669-a29b-6b98-e053-d480220a5a3f","navn":"H\u00F8jrup","hovedtype":"Bebyggelse","undertype":"by","navnestatus":"suAutoriseret","kommuner":["Haderslev"]}},{"type":"Feature","geometry":{"type":"Point","coordinates":[9.01176503,55.21180394]},"properties":{"id":"12337669-a29d-6b98-e053-d480220a5a3f","navn":"Lindholm","hovedtype":"Bebyggelse","undertype":"by","navnestatus":"suAutoriseret","kommuner":["T\u00F8nder"]}},{"type":"Feature","geometry":{"type":"Point","coordinates":[8.90458172,55.25837578]},"properties":{"id":"12337669-a2a0-6b98-e053-d480220a5a3f","navn":"Spandet","hovedtype":"Bebyggelse","undertype":"by","navnestatus":"suAutoriseret","kommuner":["Esbjerg"]}},{"type":"Feature","geometry":{"type":"Point","coordinates":[8.9597294,55.23223711]},"properties":{"id":"12337669-a2a8-6b98-e053-d480220a5a3f","navn":"Arnum Nykro","hovedtype":"Bebyggelse","undertype":"by","navnestatus":"suAutoriseret","kommuner":["Haderslev"]}},{"type":"Feature","geometry":{"type":"Point","coordinates":[8.72750297,55.27571301]},"properties":{"id":"12337669-a2b3-6b98-e053-d480220a5a3f","navn":"Egeb\u00E6k","hovedtype":"Bebyggelse","undertype":"by","navnestatus":"suAutoriseret","kommuner":["Esbjerg"]}},{"type":"Feature","geometry":{"type":"Point","coordinates":[8.71207863,55.28679134]},"properties":{"id":"12337669-a2b7-6b98-e053-d480220a5a3f","navn":"Pjaltenborg","hovedtype":"Bebyggelse","undertype":"by","navnestatus":"officielt","kommuner":["Esbjerg"]}},{"type":"Feature","geometry":{"type":"Point","coordinates":[8.69494429,55.26661522]},"properties":{"id":"12337669-a2b8-6b98-e053-d480220a5a3f","navn":"R\u00E5hede","hovedtype":"Bebyggelse","undertype":"by","navnestatus":"suAutoriseret","kommuner":["Esbjerg"]}},{"type":"Feature","geometry":{"type":"Point","coordinates":[8.75504263,55.26428113]},"properties":{"id":"12337669-a2bc-6b98-e053-d480220a5a3f","navn":"Lundsmark","hovedtype":"Bebyggelse","undertype":"by","navnestatus":"suAutoriseret","kommuner":["Esbjerg"]}},{"type":"Feature","geometry":{"type":"Point","coordinates":[8.79479046,55.26334766]},"properties":{"id":"12337669-a2bd-6b98-e053-d480220a5a3f","navn":"Vesterb\u00E6k","hovedtype":"Bebyggelse","undertype":"by","navnestatus":"suAutoriseret","kommuner":["Esbjerg"]}},{"type":"Feature","geometry":{"type":"Point","coordinates":[8.69465999,55.20354217]},"properties":{"id":"12337669-a2c0-6b98-e053-d480220a5a3f","navn":"Havervad","hovedtype":"Bebyggelse","undertype":"by","navnestatus":"suAutoriseret","kommuner":["T\u00F8nder"]}},{"type":"Feature","geometry":{"type":"Point","coordinates":[8.70502432,55.25244347]},"properties":{"id":"12337669-a2c1-6b98-e053-d480220a5a3f","navn":"H\u00F8gsbro","hovedtype":"Bebyggelse","undertype":"by","navnestatus":"suAutoriseret","kommuner":["Esbjerg"]}},{"type":"Feature","geometry":{"type":"Point","coordinates":[8.7159714,55.22863424]},"properties":{"id":"12337669-a2c2-6b98-e053-d480220a5a3f","navn":"K\u00E6rb\u00F8lling","hovedtype":"Bebyggelse","undertype":"by","navnestatus":"suAutoriseret","kommuner":["T\u00F8nder"]}},{"type":"Feature","geometry":{"type":"Point","coordinates":[8.72700701,55.23235028]},"properties":{"id":"12337669-a2c3-6b98-e053-d480220a5a3f","navn":"Rejsby","hovedtype":"Bebyggelse","undertype":"by","navnestatus":"suAutoriseret","kommuner":["T\u00F8nder"]}},{"type":"Feature","geometry":{"type":"Point","coordinates":[8.80429593,55.21142251]},"properties":{"id":"12337669-a2c5-6b98-e053-d480220a5a3f","navn":"Birkelev","hovedtype":"Bebyggelse","undertype":"by","navnestatus":"suAutoriseret","kommuner":["T\u00F8nder"]}},{"type":"Feature","geometry":{"type":"Point","coordinates":[8.77095924,55.22913037]},"properties":{"id":"12337669-a2c7-6b98-e053-d480220a5a3f","navn":"Haved","hovedtype":"Bebyggelse","undertype":"by","navnestatus":"suAutoriseret","kommuner":["T\u00F8nder"]}},{"type":"Feature","geometry":{"type":"Point","coordinates":[8.68599397,55.25565086]},"properties":{"id":"12337669-a2cb-6b98-e053-d480220a5a3f","navn":"Gammel Hviding","hovedtype":"Bebyggelse","undertype":"by","navnestatus":"officielt","kommuner":["Esbjerg"]}},{"type":"Feature","geometry":{"type":"Point","coordinates":[8.67700865,55.34022659]},"properties":{"id":"12337669-a2cc-6b98-e053-d480220a5a3f","navn":"Kammerslusen","hovedtype":"Bebyggelse","undertype":"by","navnestatus":"suAutoriseret","kommuner":["Esbjerg"]}},{"type":"Feature","geometry":{"type":"Point","coordinates":[8.77038372,55.29986343]},"properties":{"id":"12337669-a2cd-6b98-e053-d480220a5a3f","navn":"Tradsborg","hovedtype":"Bebyggelse","undertype":"by","navnestatus":"suAutoriseret","kommuner":["Esbjerg"]}},{"type":"Feature","geometry":{"type":"Point","coordinates":[8.73148511,55.35412272]},"properties":{"id":"12337669-a2ce-6b98-e053-d480220a5a3f","navn":"N\u00F8rre Farup","hovedtype":"Bebyggelse","undertype":"by","navnestatus":"suAutoriseret","kommuner":["Esbjerg"]}},{"type":"Feature","geometry":{"type":"Point","coordinates":[8.70712829,55.37773915]},"properties":{"id":"12337669-a2cf-6b98-e053-d480220a5a3f","navn":"Hillerup","hovedtype":"Bebyggelse","undertype":"by","navnestatus":"suAutoriseret","kommuner":["Esbjerg"]}},{"type":"Feature","geometry":{"type":"Point","coordinates":[8.74078465,55.35912324]},"properties":{"id":"12337669-a2d2-6b98-e053-d480220a5a3f","navn":"K\u00E6rb\u00F8l","hovedtype":"Bebyggelse","undertype":"by","navnestatus":"suAutoriseret","kommuner":["Esbjerg"]}},{"type":"Feature","geometry":{"type":"Point","coordinates":[8.74201588,55.34518938]},"properties":{"id":"12337669-a2d3-6b98-e053-d480220a5a3f","navn":"Mejlby","hovedtype":"Bebyggelse","undertype":"by","navnestatus":"suAutoriseret","kommuner":["Esbjerg"]}},{"type":"Feature","geometry":{"type":"Point","coordinates":[8.70399697,55.39374726]},"properties":{"id":"12337669-a2d5-6b98-e053-d480220a5a3f","navn":"Vilslev Spang","hovedtype":"Bebyggelse","undertype":"by","navnestatus":"suAutoriseret","kommuner":["Esbjerg"]}},{"type":"Feature","geometry":{"type":"Point","coordinates":[8.78129543,55.34929374]},"properties":{"id":"12337669-a2dc-6b98-e053-d480220a5a3f","navn":"Ribe","hovedtype":"Bebyggelse","undertype":"by","navnestatus":"suAutoriseret","kommuner":["Esbjerg"]}},{"type":"Feature","geometry":{"type":"Point","coordinates":[8.74506495,55.35199752]},"properties":{"id":"12337669-a2df-6b98-e053-d480220a5a3f","navn":"Stormhusene","hovedtype":"Bebyggelse","undertype":"by","navnestatus":"suAutoriseret","kommuner":["Esbjerg"]}},{"type":"Feature","geometry":{"type":"Point","coordinates":[8.73968293,55.31413305]},"properties":{"id":"12337669-a2e3-6b98-e053-d480220a5a3f","navn":"\u00D8ster Vedsted","hovedtype":"Bebyggelse","undertype":"by","navnestatus":"suAutoriseret","kommuner":["Esbjerg"]}},{"type":"Feature","geometry":{"type":"Point","coordinates":[8.77208583,55.3189795]},"properties":{"id":"12337669-a2e4-6b98-e053-d480220a5a3f","navn":"Damhus","hovedtype":"Bebyggelse","undertype":"by","navnestatus":"suAutoriseret","kommuner":["Esbjerg"]}},{"type":"Feature","geometry":{"type":"Point","coordinates":[8.77638359,55.30887663]},"properties":{"id":"12337669-a2e5-6b98-e053-d480220a5a3f","navn":"Lustrup","hovedtype":"Bebyggelse","undertype":"by","navnestatus":"suAutoriseret","kommuner":["Esbjerg"]}},{"type":"Feature","geometry":{"type":"Point","coordinates":[8.69445651,55.30512429]},"properties":{"id":"12337669-a2e8-6b98-e053-d480220a5a3f","navn":"S\u00F8nder Farup","hovedtype":"Bebyggelse","undertype":"by","navnestatus":"suAutoriseret","kommuner":["Esbjerg"]}},{"type":"Feature","geometry":{"type":"Point","coordinates":[8.74160028,55.39129147]},"properties":{"id":"12337669-a2ea-6b98-e053-d480220a5a3f","navn":"Jedsted Bjerge","hovedtype":"Bebyggelse","undertype":"by","navnestatus":"suAutoriseret","kommuner":["Esbjerg"]}},{"type":"Feature","geometry":{"type":"Point","coordinates":[8.6982357,55.37438545]},"properties":{"id":"12337669-a2eb-6b98-e053-d480220a5a3f","navn":"Hillerup Enge","hovedtype":"Bebyggelse","undertype":"by","navnestatus":"officielt","kommuner":["Esbjerg"]}},{"type":"Feature","geometry":{"type":"Point","coordinates":[8.70318375,55.37173576]},"properties":{"id":"12337669-a2ec-6b98-e053-d480220a5a3f","navn":"Hilleruplund","hovedtype":"Bebyggelse","undertype":"by","navnestatus":"officielt","kommuner":["Esbjerg"]}},{"type":"Feature","geometry":{"type":"Point","coordinates":[8.75181581,55.31978477]},"properties":{"id":"12337669-a2ed-6b98-e053-d480220a5a3f","navn":"Ribe S\u00F8ndermark","hovedtype":"Bebyggelse","undertype":"by","navnestatus":"suAutoriseret","kommuner":["Esbjerg"]}},{"type":"Feature","geometry":{"type":"Point","coordinates":[8.70973725,55.38466952]},"properties":{"id":"12337669-a2f0-6b98-e053-d480220a5a3f","navn":"Jedsted Enge","hovedtype":"Bebyggelse","undertype":"by","navnestatus":"officielt","kommuner":["Esbjerg"]}},{"type":"Feature","geometry":{"type":"Point","coordinates":[8.73614187,55.32962348]},"properties":{"id":"12337669-a2f6-6b98-e053-d480220a5a3f","navn":"Klostermark","hovedtype":"Bebyggelse","undertype":"by","navnestatus":"suAutoriseret","kommuner":["Esbjerg"]}},{"type":"Feature","geometry":{"type":"Point","coordinates":[8.80728608,55.08828704]},"properties":{"id":"12337669-a2f9-6b98-e053-d480220a5a3f","navn":"N\u00F8rre Vollum","hovedtype":"Bebyggelse","undertype":"by","navnestatus":"suAutoriseret","kommuner":["T\u00F8nder"]}},{"type":"Feature","geometry":{"type":"Point","coordinates":[8.72375953,55.08455608]},"properties":{"id":"12337669-a2fa-6b98-e053-d480220a5a3f","navn":"Randerup","hovedtype":"Bebyggelse","undertype":"by","navnestatus":"suAutoriseret","kommuner":["T\u00F8nder"]}},{"type":"Feature","geometry":{"type":"Point","coordinates":[8.80806291,55.15612518]},"properties":{"id":"12337669-a2fd-6b98-e053-d480220a5a3f","navn":"\u00D8ster Gasse","hovedtype":"Bebyggelse","undertype":"by","navnestatus":"suAutoriseret","kommuner":["T\u00F8nder"]}},{"type":"Feature","geometry":{"type":"Point","coordinates":[8.65808107,55.09069261]},"properties":{"id":"12337669-a2fe-6b98-e053-d480220a5a3f","navn":"Vesterende Ballum","hovedtype":"Bebyggelse","undertype":"by","navnestatus":"suAutoriseret","kommuner":["T\u00F8nder"]}},{"type":"Feature","geometry":{"type":"Point","coordinates":[8.93950063,55.09477491]},"properties":{"id":"12337669-a301-6b98-e053-d480220a5a3f","navn":"Tornskov","hovedtype":"Bebyggelse","undertype":"by","navnestatus":"suAutoriseret","kommuner":["T\u00F8nder"]}},{"type":"Feature","geometry":{"type":"Point","coordinates":[8.90016652,55.09594547]},"properties":{"id":"12337669-a302-6b98-e053-d480220a5a3f","navn":"Vester Terp","hovedtype":"Bebyggelse","undertype":"by","navnestatus":"suAutoriseret","kommuner":["T\u00F8nder"]}},{"type":"Feature","geometry":{"type":"Point","coordinates":[8.83600434,55.09797795]},"properties":{"id":"12337669-a303-6b98-e053-d480220a5a3f","navn":"Drengsted","hovedtype":"Bebyggelse","undertype":"by","navnestatus":"suAutoriseret","kommuner":["T\u00F8nder"]}},{"type":"Feature","geometry":{"type":"Point","coordinates":[8.82463486,55.05357181]},"properties":{"id":"12337669-a304-6b98-e053-d480220a5a3f","navn":"Bredebro","hovedtype":"Bebyggelse","undertype":"by","navnestatus":"suAutoriseret","kommuner":["T\u00F8nder"]}},{"type":"Feature","geometry":{"type":"Point","coordinates":[8.83028135,55.18768313]},"properties":{"id":"12337669-a307-6b98-e053-d480220a5a3f","navn":"\u00C5ved","hovedtype":"Bebyggelse","undertype":"by","navnestatus":"suAutoriseret","kommuner":["T\u00F8nder"]}},{"type":"Feature","geometry":{"type":"Point","coordinates":[8.8282015,55.16151648]},"properties":{"id":"12337669-a309-6b98-e053-d480220a5a3f","navn":"Nyvang","hovedtype":"Bebyggelse","undertype":"by","navnestatus":"suAutoriseret","kommuner":["T\u00F8nder"]}},{"type":"Feature","geometry":{"type":"Point","coordinates":[8.87953085,55.18977056]},"properties":{"id":"12337669-a30a-6b98-e053-d480220a5a3f","navn":"Renb\u00E6kg\u00E5rd","hovedtype":"Bebyggelse","undertype":"by","navnestatus":"suAutoriseret","kommuner":["T\u00F8nder"]}},{"type":"Feature","geometry":{"type":"Point","coordinates":[8.86122492,55.13780596]},"properties":{"id":"12337669-a30b-6b98-e053-d480220a5a3f","navn":"Tevring","hovedtype":"Bebyggelse","undertype":"by","navnestatus":"suAutoriseret","kommuner":["T\u00F8nder"]}},{"type":"Feature","geometry":{"type":"Point","coordinates":[9.00916708,55.19035992]},"properties":{"id":"12337669-a30c-6b98-e053-d480220a5a3f","navn":"Allerup","hovedtype":"Bebyggelse","undertype":"by","navnestatus":"suAutoriseret","kommuner":["T\u00F8nder"]}},{"type":"Feature","geometry":{"type":"Point","coordinates":[8.95875089,55.15218947]},"properties":{"id":"12337669-a30e-6b98-e053-d480220a5a3f","navn":"Arrild","hovedtype":"Bebyggelse","undertype":"by","navnestatus":"suAutoriseret","kommuner":["T\u00F8nder"]}},{"type":"Feature","geometry":{"type":"Point","coordinates":[8.96528986,55.15823542]},"properties":{"id":"12337669-a311-6b98-e053-d480220a5a3f","navn":"H\u00F8jbjerg","hovedtype":"Bebyggelse","undertype":"by","navnestatus":"suAutoriseret","kommuner":["T\u00F8nder"]}},{"type":"Feature","geometry":{"type":"Point","coordinates":[8.96392323,55.16816719]},"properties":{"id":"12337669-a312-6b98-e053-d480220a5a3f","navn":"H\u00F8nning","hovedtype":"Bebyggelse","undertype":"by","navnestatus":"suAutoriseret","kommuner":["T\u00F8nder"]}},{"type":"Feature","geometry":{"type":"Point","coordinates":[8.91196761,55.12793201]},"properties":{"id":"12337669-a314-6b98-e053-d480220a5a3f","navn":"N\u00F8rrehede","hovedtype":"Bebyggelse","undertype":"by","navnestatus":"suAutoriseret","kommuner":["T\u00F8nder"]}},{"type":"Feature","geometry":{"type":"Point","coordinates":[9.00720396,55.13410196]},"properties":{"id":"12337669-a316-6b98-e053-d480220a5a3f","navn":"Roost","hovedtype":"Bebyggelse","undertype":"by","navnestatus":"suAutoriseret","kommuner":["T\u00F8nder"]}},{"type":"Feature","geometry":{"type":"Point","coordinates":[9.03945604,55.15383989]},"properties":{"id":"12337669-a319-6b98-e053-d480220a5a3f","navn":"Rurup","hovedtype":"Bebyggelse","undertype":"by","navnestatus":"suAutoriseret","kommuner":["T\u00F8nder"]}},{"type":"Feature","geometry":{"type":"Point","coordinates":[9.03622145,55.14192782]},"properties":{"id":"12337669-a31d-6b98-e053-d480220a5a3f","navn":"Skovlund","hovedtype":"Bebyggelse","undertype":"by","navnestatus":"suAutoriseret","kommuner":["T\u00F8nder"]}},{"type":"Feature","geometry":{"type":"Point","coordinates":[8.92513362,55.13891655]},"properties":{"id":"12337669-a320-6b98-e053-d480220a5a3f","navn":"\u00D8bjerg","hovedtype":"Bebyggelse","undertype":"by","navnestatus":"suAutoriseret","kommuner":["T\u00F8nder"]}},{"type":"Feature","geometry":{"type":"Point","coordinates":[8.87193647,55.10662722]},"properties":{"id":"12337669-a322-6b98-e053-d480220a5a3f","navn":"Lovrup","hovedtype":"Bebyggelse","undertype":"by","navnestatus":"suAutoriseret","kommuner":["T\u00F8nder"]}},{"type":"Feature","geometry":{"type":"Point","coordinates":[8.8894176,55.11055427]},"properties":{"id":"12337669-a323-6b98-e053-d480220a5a3f","navn":"M\u00E6rskhuse","hovedtype":"Bebyggelse","undertype":"by","navnestatus":"suAutoriseret","kommuner":["T\u00F8nder"]}},{"type":"Feature","geometry":{"type":"Point","coordinates":[8.83283218,55.12038809]},"properties":{"id":"12337669-a324-6b98-e053-d480220a5a3f","navn":"M\u00F8lledamshuse","hovedtype":"Bebyggelse","undertype":"by","navnestatus":"suAutoriseret","kommuner":["T\u00F8nder"]}},{"type":"Feature","geometry":{"type":"Point","coordinates":[8.8799292,55.11467658]},"properties":{"id":"12337669-a325-6b98-e053-d480220a5a3f","navn":"Overby","hovedtype":"Bebyggelse","undertype":"by","navnestatus":"suAutoriseret","kommuner":["T\u00F8nder"]}},{"type":"Feature","geometry":{"type":"Point","coordinates":[8.84185169,55.11953759]},"properties":{"id":"12337669-a326-6b98-e053-d480220a5a3f","navn":"Vestermark","hovedtype":"Bebyggelse","undertype":"by","navnestatus":"officielt","kommuner":["T\u00F8nder"]}},{"type":"Feature","geometry":{"type":"Point","coordinates":[8.93440101,55.11247891]},"properties":{"id":"12337669-a327-6b98-e053-d480220a5a3f","navn":"G\u00E5sblok","hovedtype":"Bebyggelse","undertype":"by","navnestatus":"suAutoriseret","kommuner":["T\u00F8nder"]}},{"type":"Feature","geometry":{"type":"Point","coordinates":[8.916928,55.11889147]},"properties":{"id":"12337669-a328-6b98-e053-d480220a5a3f","navn":"Kl\u00F8jing","hovedtype":"Bebyggelse","undertype":"by","navnestatus":"suAutoriseret","kommuner":["T\u00F8nder"]}},{"type":"Feature","geometry":{"type":"Point","coordinates":[8.95469197,55.11323761]},"properties":{"id":"12337669-a329-6b98-e053-d480220a5a3f","navn":"N\u00F8rre L\u00F8gum","hovedtype":"Bebyggelse","undertype":"by","navnestatus":"suAutoriseret","kommuner":["T\u00F8nder"]}},{"type":"Feature","geometry":{"type":"Point","coordinates":[8.98003015,55.09865966]},"properties":{"id":"12337669-a32b-6b98-e053-d480220a5a3f","navn":"L\u00F8jtved","hovedtype":"Bebyggelse","undertype":"by","navnestatus":"suAutoriseret","kommuner":["T\u00F8nder"]}},{"type":"Feature","geometry":{"type":"Point","coordinates":[9.03284646,55.11595211]},"properties":{"id":"12337669-a32c-6b98-e053-d480220a5a3f","navn":"Revslund","hovedtype":"Bebyggelse","undertype":"by","navnestatus":"suAutoriseret","kommuner":["T\u00F8nder"]}},{"type":"Feature","geometry":{"type":"Point","coordinates":[8.89181697,55.0594698]},"properties":{"id":"12337669-a334-6b98-e053-d480220a5a3f","navn":"Nybo","hovedtype":"Bebyggelse","undertype":"by","navnestatus":"suAutoriseret","kommuner":["T\u00F8nder"]}},{"type":"Feature","geometry":{"type":"Point","coordinates":[8.95667411,55.07195994]},"properties":{"id":"12337669-a336-6b98-e053-d480220a5a3f","navn":"Koldk\u00E5d","hovedtype":"Bebyggelse","undertype":"by","navnestatus":"suAutoriseret","kommuner":["T\u00F8nder"]}},{"type":"Feature","geometry":{"type":"Point","coordinates":[8.95613242,55.05806581]},"properties":{"id":"12337669-a33a-6b98-e053-d480220a5a3f","navn":"L\u00F8gumkloster","hovedtype":"Bebyggelse","undertype":"by","navnestatus":"suAutoriseret","kommuner":["T\u00F8nder"]}},{"type":"Feature","geometry":{"type":"Point","coordinates":[8.92157867,55.07742269]},"properties":{"id":"12337669-a33c-6b98-e053-d480220a5a3f","navn":"Teglg\u00E5rd","hovedtype":"Bebyggelse","undertype":"by","navnestatus":"suAutoriseret","kommuner":["T\u00F8nder"]}},{"type":"Feature","geometry":{"type":"Point","coordinates":[8.94404966,55.08723161]},"properties":{"id":"12337669-a33d-6b98-e053-d480220a5a3f","navn":"Ulstrup","hovedtype":"Bebyggelse","undertype":"by","navnestatus":"suAutoriseret","kommuner":["T\u00F8nder"]}},{"type":"Feature","geometry":{"type":"Point","coordinates":[8.8978878,55.04347676]},"properties":{"id":"12337669-a33f-6b98-e053-d480220a5a3f","navn":"Ellum","hovedtype":"Bebyggelse","undertype":"by","navnestatus":"suAutoriseret","kommuner":["T\u00F8nder"]}},{"type":"Feature","geometry":{"type":"Point","coordinates":[8.84333065,55.05682927]},"properties":{"id":"12337669-a342-6b98-e053-d480220a5a3f","navn":"Storde","hovedtype":"Bebyggelse","undertype":"by","navnestatus":"suAutoriseret","kommuner":["T\u00F8nder"]}},{"type":"Feature","geometry":{"type":"Point","coordinates":[8.84609683,55.01516815]},"properties":{"id":"12337669-a343-6b98-e053-d480220a5a3f","navn":"S\u00F8lsted","hovedtype":"Bebyggelse","undertype":"by","navnestatus":"suAutoriseret","kommuner":["T\u00F8nder"]}},{"type":"Feature","geometry":{"type":"Point","coordinates":[8.88210517,55.0103451]},"properties":{"id":"12337669-a345-6b98-e053-d480220a5a3f","navn":"Tyvse","hovedtype":"Bebyggelse","undertype":"by","navnestatus":"suAutoriseret","kommuner":["T\u00F8nder"]}},{"type":"Feature","geometry":{"type":"Point","coordinates":[9.04434689,55.03315485]},"properties":{"id":"12337669-a346-6b98-e053-d480220a5a3f","navn":"Alslev","hovedtype":"Bebyggelse","undertype":"by","navnestatus":"suAutoriseret","kommuner":["T\u00F8nder"]}},{"type":"Feature","geometry":{"type":"Point","coordinates":[9.02341026,55.04028731]},"properties":{"id":"12337669-a347-6b98-e053-d480220a5a3f","navn":"Alslev Kro","hovedtype":"Bebyggelse","undertype":"by","navnestatus":"suAutoriseret","kommuner":["T\u00F8nder"]}},{"type":"Feature","geometry":{"type":"Point","coordinates":[8.97427816,55.02336813]},"properties":{"id":"12337669-a34b-6b98-e053-d480220a5a3f","navn":"Eltoft","hovedtype":"Bebyggelse","undertype":"by","navnestatus":"officielt","kommuner":["T\u00F8nder"]}},{"type":"Feature","geometry":{"type":"Point","coordinates":[8.92399377,54.99812299]},"properties":{"id":"12337669-a34d-6b98-e053-d480220a5a3f","navn":"H\u00F8gslund","hovedtype":"Bebyggelse","undertype":"by","navnestatus":"suAutoriseret","kommuner":["T\u00F8nder"]}},{"type":"Feature","geometry":{"type":"Point","coordinates":[9.03665226,55.00129245]},"properties":{"id":"12337669-a34f-6b98-e053-d480220a5a3f","navn":"\u00D8ster H\u00F8jst","hovedtype":"Bebyggelse","undertype":"by","navnestatus":"suAutoriseret","kommuner":["T\u00F8nder"]}},{"type":"Feature","geometry":{"type":"Point","coordinates":[8.91907298,55.05141222]},"properties":{"id":"12337669-a350-6b98-e053-d480220a5a3f","navn":"Kalvehave","hovedtype":"Bebyggelse","undertype":"by","navnestatus":"suAutoriseret","kommuner":["T\u00F8nder"]}},{"type":"Feature","geometry":{"type":"Point","coordinates":[8.93158113,54.99793299]},"properties":{"id":"12337669-a351-6b98-e053-d480220a5a3f","navn":"Kongsbjerg","hovedtype":"Bebyggelse","undertype":"by","navnestatus":"suAutoriseret","kommuner":["T\u00F8nder"]}},{"type":"Feature","geometry":{"type":"Point","coordinates":[8.96442604,55.02083464]},"properties":{"id":"12337669-a35b-6b98-e053-d480220a5a3f","navn":"Frederiksg\u00E5rd Mark","hovedtype":"Bebyggelse","undertype":"by","navnestatus":"suAutoriseret","kommuner":["T\u00F8nder"]}},{"type":"Feature","geometry":{"type":"Point","coordinates":[8.6449114,55.06138939]},"properties":{"id":"12337669-a362-6b98-e053-d480220a5a3f","navn":"Buntje-Ballum","hovedtype":"Bebyggelse","undertype":"by","navnestatus":"suAutoriseret","kommuner":["T\u00F8nder"]}},{"type":"Feature","geometry":{"type":"Point","coordinates":[8.68234612,55.05693386]},"properties":{"id":"12337669-a365-6b98-e053-d480220a5a3f","navn":"Hedehuse","hovedtype":"Bebyggelse","undertype":"by","navnestatus":"officielt","kommuner":["T\u00F8nder"]}},{"type":"Feature","geometry":{"type":"Point","coordinates":[8.65980711,55.07508625]},"properties":{"id":"12337669-a366-6b98-e053-d480220a5a3f","navn":"Husum-Ballum","hovedtype":"Bebyggelse","undertype":"by","navnestatus":"suAutoriseret","kommuner":["T\u00F8nder"]}},{"type":"Feature","geometry":{"type":"Point","coordinates":[8.68576955,55.08788111]},"properties":{"id":"12337669-a367-6b98-e053-d480220a5a3f","navn":"M\u00F8lby-Ballum","hovedtype":"Bebyggelse","undertype":"by","navnestatus":"suAutoriseret","kommuner":["T\u00F8nder"]}},{"type":"Feature","geometry":{"type":"Point","coordinates":[8.69638398,55.05700662]},"properties":{"id":"12337669-a369-6b98-e053-d480220a5a3f","navn":"Skast","hovedtype":"Bebyggelse","undertype":"by","navnestatus":"suAutoriseret","kommuner":["T\u00F8nder"]}},{"type":"Feature","geometry":{"type":"Point","coordinates":[8.65595336,55.06624885]},"properties":{"id":"12337669-a36b-6b98-e053-d480220a5a3f","navn":"S\u00F8nderm\u00F8lle","hovedtype":"Bebyggelse","undertype":"by","navnestatus":"officielt","kommuner":["T\u00F8nder"]}},{"type":"Feature","geometry":{"type":"Point","coordinates":[8.67412608,55.05666304]},"properties":{"id":"12337669-a36d-6b98-e053-d480220a5a3f","navn":"Buntje Mark","hovedtype":"Bebyggelse","undertype":"by","navnestatus":"officielt","kommuner":["T\u00F8nder"]}},{"type":"Feature","geometry":{"type":"Point","coordinates":[8.77288027,55.08291249]},"properties":{"id":"12337669-a36e-6b98-e053-d480220a5a3f","navn":"Abterp","hovedtype":"Bebyggelse","undertype":"by","navnestatus":"suAutoriseret","kommuner":["T\u00F8nder"]}},{"type":"Feature","geometry":{"type":"Point","coordinates":[8.76825005,55.05690874]},"properties":{"id":"12337669-a371-6b98-e053-d480220a5a3f","navn":"Harres","hovedtype":"Bebyggelse","undertype":"by","navnestatus":"suAutoriseret","kommuner":["T\u00F8nder"]}},{"type":"Feature","geometry":{"type":"Point","coordinates":[8.80964779,55.07704655]},"properties":{"id":"12337669-a372-6b98-e053-d480220a5a3f","navn":"S\u00F8nder Vollum","hovedtype":"Bebyggelse","undertype":"by","navnestatus":"suAutoriseret","kommuner":["T\u00F8nder"]}},{"type":"Feature","geometry":{"type":"Point","coordinates":[8.70494897,55.01178125]},"properties":{"id":"12337669-a373-6b98-e053-d480220a5a3f","navn":"Vester Gammelby","hovedtype":"Bebyggelse","undertype":"by","navnestatus":"suAutoriseret","kommuner":["T\u00F8nder"]}},{"type":"Feature","geometry":{"type":"Point","coordinates":[8.71028301,54.99210784]},"properties":{"id":"12337669-a374-6b98-e053-d480220a5a3f","navn":"Hemme","hovedtype":"Bebyggelse","undertype":"by","navnestatus":"suAutoriseret","kommuner":["T\u00F8nder"]}},{"type":"Feature","geometry":{"type":"Point","coordinates":[8.65731099,55.02055439]},"properties":{"id":"12337669-a375-6b98-e053-d480220a5a3f","navn":"Hjerpsted","hovedtype":"Bebyggelse","undertype":"by","navnestatus":"suAutoriseret","kommuner":["T\u00F8nder"]}},{"type":"Feature","geometry":{"type":"Point","coordinates":[8.63938665,55.03945389]},"properties":{"id":"12337669-a376-6b98-e053-d480220a5a3f","navn":"Koldby","hovedtype":"Bebyggelse","undertype":"by","navnestatus":"suAutoriseret","kommuner":["T\u00F8nder"]}},{"type":"Feature","geometry":{"type":"Point","coordinates":[8.69257734,55.0037568]},"properties":{"id":"12337669-a377-6b98-e053-d480220a5a3f","navn":"Nyland","hovedtype":"Bebyggelse","undertype":"by","navnestatus":"suAutoriseret","kommuner":["T\u00F8nder"]}},{"type":"Feature","geometry":{"type":"Point","coordinates":[8.65085891,55.05061103]},"properties":{"id":"12337669-a379-6b98-e053-d480220a5a3f","navn":"Rejsby-Ballum","hovedtype":"Bebyggelse","undertype":"by","navnestatus":"suAutoriseret","kommuner":["T\u00F8nder"]}},{"type":"Feature","geometry":{"type":"Point","coordinates":[8.73036703,55.01031345]},"properties":{"id":"12337669-a37a-6b98-e053-d480220a5a3f","navn":"N\u00F8rre Sejerslev","hovedtype":"Bebyggelse","undertype":"by","navnestatus":"suAutoriseret","kommuner":["T\u00F8nder"]}},{"type":"Feature","geometry":{"type":"Point","coordinates":[8.69935113,54.99479892]},"properties":{"id":"12337669-a37b-6b98-e053-d480220a5a3f","navn":"S\u00F8nder Sejerslev","hovedtype":"Bebyggelse","undertype":"by","navnestatus":"suAutoriseret","kommuner":["T\u00F8nder"]}},{"type":"Feature","geometry":{"type":"Point","coordinates":[8.734947,55.0180764]},"properties":{"id":"12337669-a37c-6b98-e053-d480220a5a3f","navn":"Vasen","hovedtype":"Bebyggelse","undertype":"by","navnestatus":"officielt","kommuner":["T\u00F8nder"]}},{"type":"Feature","geometry":{"type":"Point","coordinates":[8.79900159,55.04072859]},"properties":{"id":"12337669-a37e-6b98-e053-d480220a5a3f","navn":"Borg","hovedtype":"Bebyggelse","undertype":"by","navnestatus":"suAutoriseret","kommuner":["T\u00F8nder"]}},{"type":"Feature","geometry":{"type":"Point","coordinates":[8.77073786,54.9956849]},"properties":{"id":"12337669-a37f-6b98-e053-d480220a5a3f","navn":"\u00D8ster Gammelby","hovedtype":"Bebyggelse","undertype":"by","navnestatus":"suAutoriseret","kommuner":["T\u00F8nder"]}},{"type":"Feature","geometry":{"type":"Point","coordinates":[8.7631893,55.0456373]},"properties":{"id":"12337669-a383-6b98-e053-d480220a5a3f","navn":"Sandsk\u00E5r","hovedtype":"Bebyggelse","undertype":"by","navnestatus":"officielt","kommuner":["T\u00F8nder"]}},{"type":"Feature","geometry":{"type":"Point","coordinates":[8.78091631,55.00953082]},"properties":{"id":"12337669-a384-6b98-e053-d480220a5a3f","navn":"Visby","hovedtype":"Bebyggelse","undertype":"by","navnestatus":"suAutoriseret","kommuner":["T\u00F8nder"]}},{"type":"Feature","geometry":{"type":"Point","coordinates":[8.72204502,55.17419084]},"properties":{"id":"12337669-a38c-6b98-e053-d480220a5a3f","navn":"Astrup","hovedtype":"Bebyggelse","undertype":"by","navnestatus":"suAutoriseret","kommuner":["T\u00F8nder"]}},{"type":"Feature","geometry":{"type":"Point","coordinates":[8.7161321,55.1827469]},"properties":{"id":"12337669-a38e-6b98-e053-d480220a5a3f","navn":"Smedegade","hovedtype":"Bebyggelse","undertype":"by","navnestatus":"officielt","kommuner":["T\u00F8nder"]}},{"type":"Feature","geometry":{"type":"Point","coordinates":[8.7927924,55.14532701]},"properties":{"id":"12337669-a390-6b98-e053-d480220a5a3f","navn":"Barsb\u00F8l","hovedtype":"Bebyggelse","undertype":"by","navnestatus":"suAutoriseret","kommuner":["T\u00F8nder"]}},{"type":"Feature","geometry":{"type":"Point","coordinates":[8.79306825,55.15059732]},"properties":{"id":"12337669-a393-6b98-e053-d480220a5a3f","navn":"G\u00E5rdkrog","hovedtype":"Bebyggelse","undertype":"by","navnestatus":"suAutoriseret","kommuner":["T\u00F8nder"]}},{"type":"Feature","geometry":{"type":"Point","coordinates":[8.80311394,55.15272088]},"properties":{"id":"12337669-a394-6b98-e053-d480220a5a3f","navn":"Vester Gasse","hovedtype":"Bebyggelse","undertype":"by","navnestatus":"suAutoriseret","kommuner":["T\u00F8nder"]}},{"type":"Feature","geometry":{"type":"Point","coordinates":[8.76637429,55.13459052]},"properties":{"id":"12337669-a39b-6b98-e053-d480220a5a3f","navn":"Ottersb\u00F8l","hovedtype":"Bebyggelse","undertype":"by","navnestatus":"suAutoriseret","kommuner":["T\u00F8nder"]}},{"type":"Feature","geometry":{"type":"Point","coordinates":[8.76900244,55.15767599]},"properties":{"id":"12337669-a39c-6b98-e053-d480220a5a3f","navn":"Sk\u00E6rb\u00E6k","hovedtype":"Bebyggelse","undertype":"by","navnestatus":"suAutoriseret","kommuner":["T\u00F8nder"]}},{"type":"Feature","geometry":{"type":"Point","coordinates":[8.81366142,55.12753909]},"properties":{"id":"12337669-a3a1-6b98-e053-d480220a5a3f","navn":"Vinum","hovedtype":"Bebyggelse","undertype":"by","navnestatus":"suAutoriseret","kommuner":["T\u00F8nder"]}},{"type":"Feature","geometry":{"type":"Point","coordinates":[8.74576374,55.09771553]},"properties":{"id":"12337669-a3a4-6b98-e053-d480220a5a3f","navn":"Lunde","hovedtype":"Bebyggelse","undertype":"by","navnestatus":"suAutoriseret","kommuner":["T\u00F8nder"]}},{"type":"Feature","geometry":{"type":"Point","coordinates":[8.75683067,55.12078444]},"properties":{"id":"12337669-a3a5-6b98-e053-d480220a5a3f","navn":"Mjolden","hovedtype":"Bebyggelse","undertype":"by","navnestatus":"suAutoriseret","kommuner":["T\u00F8nder"]}},{"type":"Feature","geometry":{"type":"Point","coordinates":[8.80772677,55.11807486]},"properties":{"id":"12337669-a3a6-6b98-e053-d480220a5a3f","navn":"D\u00F8strup","hovedtype":"Bebyggelse","undertype":"by","navnestatus":"suAutoriseret","kommuner":["T\u00F8nder"]}},{"type":"Feature","geometry":{"type":"Point","coordinates":[8.55071993,55.09020396]},"properties":{"id":"12337669-a3a7-6b98-e053-d480220a5a3f","navn":"Havneby","hovedtype":"Bebyggelse","undertype":"by","navnestatus":"suAutoriseret","kommuner":["T\u00F8nder"]}},{"type":"Feature","geometry":{"type":"Point","coordinates":[8.55179847,55.15754272]},"properties":{"id":"12337669-a3a9-6b98-e053-d480220a5a3f","navn":"Bolilmark","hovedtype":"Bebyggelse","undertype":"by","navnestatus":"suAutoriseret","kommuner":["T\u00F8nder"]}},{"type":"Feature","geometry":{"type":"Point","coordinates":[8.55463991,55.17823361]},"properties":{"id":"12337669-a3aa-6b98-e053-d480220a5a3f","navn":"Juvre","hovedtype":"Bebyggelse","undertype":"by","navnestatus":"suAutoriseret","kommuner":["T\u00F8nder"]}},{"type":"Feature","geometry":{"type":"Point","coordinates":[8.54567266,55.13156425]},"properties":{"id":"12337669-a3ab-6b98-e053-d480220a5a3f","navn":"Kongsmark","hovedtype":"Bebyggelse","undertype":"by","navnestatus":"suAutoriseret","kommuner":["T\u00F8nder"]}},{"type":"Feature","geometry":{"type":"Point","coordinates":[8.54240579,55.16590719]},"properties":{"id":"12337669-a3ad-6b98-e053-d480220a5a3f","navn":"Toftum","hovedtype":"Bebyggelse","undertype":"by","navnestatus":"suAutoriseret","kommuner":["T\u00F8nder"]}},{"type":"Feature","geometry":{"type":"Point","coordinates":[8.55413206,55.15261077]},"properties":{"id":"12337669-a3af-6b98-e053-d480220a5a3f","navn":"N\u00F8rre Tvismark","hovedtype":"Bebyggelse","undertype":"by","navnestatus":"suAutoriseret","kommuner":["T\u00F8nder"]}},{"type":"Feature","geometry":{"type":"Point","coordinates":[8.53992189,55.11020725]},"properties":{"id":"12337669-a3b1-6b98-e053-d480220a5a3f","navn":"R\u00F8m\u00F8 Kirkeby","hovedtype":"Bebyggelse","undertype":"by","navnestatus":"suAutoriseret","kommuner":["T\u00F8nder"]}},{"type":"Feature","geometry":{"type":"Point","coordinates":[8.55416574,55.121035]},"properties":{"id":"12337669-a3b5-6b98-e053-d480220a5a3f","navn":"Tagholm","hovedtype":"Bebyggelse","undertype":"by","navnestatus":"suAutoriseret","kommuner":["T\u00F8nder"]}},{"type":"Feature","geometry":{"type":"Point","coordinates":[8.46876589,55.34862214]},"properties":{"id":"12337669-a3bd-6b98-e053-d480220a5a3f","navn":"S\u00F8nderho","hovedtype":"Bebyggelse","undertype":"by","navnestatus":"suAutoriseret","kommuner":["Fan\u00F8"]}},{"type":"Feature","geometry":{"type":"Point","coordinates":[8.53806676,55.27430666]},"properties":{"id":"12337669-a3bf-6b98-e053-d480220a5a3f","navn":"Mand\u00F8","hovedtype":"Bebyggelse","undertype":"by","navnestatus":"suAutoriseret","kommuner":["Esbjerg"]}},{"type":"Feature","geometry":{"type":"Point","coordinates":[8.57994231,55.673794]},"properties":{"id":"12337669-a3c2-6b98-e053-d480220a5a3f","navn":"Lindingbro","hovedtype":"Bebyggelse","undertype":"by","navnestatus":"suAutoriseret","kommuner":["Varde"]}},{"type":"Feature","geometry":{"type":"Point","coordinates":[8.79779756,55.60121155]},"properties":{"id":"12337669-a3c3-6b98-e053-d480220a5a3f","navn":"Agerb\u00E6k","hovedtype":"Bebyggelse","undertype":"by","navnestatus":"suAutoriseret","kommuner":["Varde"]}},{"type":"Feature","geometry":{"type":"Point","coordinates":[8.42110036,55.58733834]},"properties":{"id":"12337669-a3cb-6b98-e053-d480220a5a3f","navn":"Alslev","hovedtype":"Bebyggelse","undertype":"by","navnestatus":"suAutoriseret","kommuner":["Varde"]}},{"type":"Feature","geometry":{"type":"Point","coordinates":[8.36618984,55.59102063]},"properties":{"id":"12337669-a3cc-6b98-e053-d480220a5a3f","navn":"Knudsmark","hovedtype":"Bebyggelse","undertype":"by","navnestatus":"suAutoriseret","kommuner":["Varde"]}},{"type":"Feature","geometry":{"type":"Point","coordinates":[8.57462465,55.46972474]},"properties":{"id":"12337669-a3d1-6b98-e053-d480220a5a3f","navn":"Tj\u00E6reborg","hovedtype":"Bebyggelse","undertype":"by","navnestatus":"suAutoriseret","kommuner":["Esbjerg"]}},{"type":"Feature","geometry":{"type":"Point","coordinates":[8.79584529,55.76269782]},"properties":{"id":"12337669-a3db-6b98-e053-d480220a5a3f","navn":"Eg","hovedtype":"Bebyggelse","undertype":"by","navnestatus":"suAutoriseret","kommuner":["Billund"]}},{"type":"Feature","geometry":{"type":"Point","coordinates":[8.64732256,55.69701768]},"properties":{"id":"12337669-a3de-6b98-e053-d480220a5a3f","navn":"Hodde","hovedtype":"Bebyggelse","undertype":"by","navnestatus":"suAutoriseret","kommuner":["Varde"]}},{"type":"Feature","geometry":{"type":"Point","coordinates":[8.75221867,55.70544527]},"properties":{"id":"12337669-a3e1-6b98-e053-d480220a5a3f","navn":"Ansager","hovedtype":"Bebyggelse","undertype":"by","navnestatus":"suAutoriseret","kommuner":["Varde"]}},{"type":"Feature","geometry":{"type":"Point","coordinates":[8.8051642,55.64529963]},"properties":{"id":"12337669-a3e8-6b98-e053-d480220a5a3f","navn":"Starup","hovedtype":"Bebyggelse","undertype":"by","navnestatus":"suAutoriseret","kommuner":["Varde"]}},{"type":"Feature","geometry":{"type":"Point","coordinates":[8.86818179,55.79016616]},"properties":{"id":"12337669-a3f5-6b98-e053-d480220a5a3f","navn":"Nollund","hovedtype":"Bebyggelse","undertype":"by","navnestatus":"suAutoriseret","kommuner":["Billund"]}},{"type":"Feature","geometry":{"type":"Point","coordinates":[8.81769462,55.78496637]},"properties":{"id":"12337669-a3f6-6b98-e053-d480220a5a3f","navn":"Urup","hovedtype":"Bebyggelse","undertype":"by","navnestatus":"suAutoriseret","kommuner":["Billund"]}},{"type":"Feature","geometry":{"type":"Point","coordinates":[8.91981692,55.75941937]},"properties":{"id":"12337669-a3f8-6b98-e053-d480220a5a3f","navn":"Grindsted","hovedtype":"Bebyggelse","undertype":"by","navnestatus":"suAutoriseret","kommuner":["Billund"]}},{"type":"Feature","geometry":{"type":"Point","coordinates":[9.01362623,55.74241099]},"properties":{"id":"12337669-a408-6b98-e053-d480220a5a3f","navn":"L\u00F8vlund","hovedtype":"Bebyggelse","undertype":"by","navnestatus":"suAutoriseret","kommuner":["Billund"]}},{"type":"Feature","geometry":{"type":"Point","coordinates":[8.84387826,55.69996388]},"properties":{"id":"12337669-a40a-6b98-e053-d480220a5a3f","navn":"Stenderup","hovedtype":"Bebyggelse","undertype":"by","navnestatus":"suAutoriseret","kommuner":["Billund"]}},{"type":"Feature","geometry":{"type":"Point","coordinates":[8.9966332,55.6939779]},"properties":{"id":"12337669-a40d-6b98-e053-d480220a5a3f","navn":"Hejnsvig","hovedtype":"Bebyggelse","undertype":"by","navnestatus":"suAutoriseret","kommuner":["Billund"]}},{"type":"Feature","geometry":{"type":"Point","coordinates":[8.91713258,55.6908386]},"properties":{"id":"12337669-a411-6b98-e053-d480220a5a3f","navn":"Vesterhede","hovedtype":"Bebyggelse","undertype":"by","navnestatus":"suAutoriseret","kommuner":["Billund"]}},{"type":"Feature","geometry":{"type":"Point","coordinates":[8.81868468,55.6495534]},"properties":{"id":"12337669-a416-6b98-e053-d480220a5a3f","navn":"Tofterup","hovedtype":"Bebyggelse","undertype":"by","navnestatus":"suAutoriseret","kommuner":["Varde"]}},{"type":"Feature","geometry":{"type":"Point","coordinates":[8.95002548,55.64561619]},"properties":{"id":"12337669-a417-6b98-e053-d480220a5a3f","navn":"Donslund","hovedtype":"Bebyggelse","undertype":"by","navnestatus":"suAutoriseret","kommuner":["Billund"]}},{"type":"Feature","geometry":{"type":"Point","coordinates":[8.94064123,55.60781898]},"properties":{"id":"12337669-a41a-6b98-e053-d480220a5a3f","navn":"Hovborg","hovedtype":"Bebyggelse","undertype":"by","navnestatus":"suAutoriseret","kommuner":["Vejen"]}},{"type":"Feature","geometry":{"type":"Point","coordinates":[9.00630132,55.65016874]},"properties":{"id":"12337669-a41c-6b98-e053-d480220a5a3f","navn":"Nebel","hovedtype":"Bebyggelse","undertype":"by","navnestatus":"suAutoriseret","kommuner":["Billund"]}},{"type":"Feature","geometry":{"type":"Point","coordinates":[8.74169529,55.67871812]},"properties":{"id":"12337669-a427-6b98-e053-d480220a5a3f","navn":"Gr\u00F8nmose","hovedtype":"Bebyggelse","undertype":"by","navnestatus":"suAutoriseret","kommuner":["Varde"]}},{"type":"Feature","geometry":{"type":"Point","coordinates":[8.73508212,55.66660288]},"properties":{"id":"12337669-a42a-6b98-e053-d480220a5a3f","navn":"Tvillingg\u00E5rde","hovedtype":"Bebyggelse","undertype":"by","navnestatus":"officielt","kommuner":["Varde"]}},{"type":"Feature","geometry":{"type":"Point","coordinates":[8.68091624,55.65005238]},"properties":{"id":"12337669-a435-6b98-e053-d480220a5a3f","navn":"Nordenskov","hovedtype":"Bebyggelse","undertype":"by","navnestatus":"suAutoriseret","kommuner":["Varde"]}},{"type":"Feature","geometry":{"type":"Point","coordinates":[8.7268948,55.61423877]},"properties":{"id":"12337669-a439-6b98-e053-d480220a5a3f","navn":"Vrenderup","hovedtype":"Bebyggelse","undertype":"by","navnestatus":"suAutoriseret","kommuner":["Varde"]}},{"type":"Feature","geometry":{"type":"Point","coordinates":[8.65446198,55.64556272]},"properties":{"id":"12337669-a43a-6b98-e053-d480220a5a3f","navn":"\u00D8se","hovedtype":"Bebyggelse","undertype":"by","navnestatus":"suAutoriseret","kommuner":["Varde"]}},{"type":"Feature","geometry":{"type":"Point","coordinates":[8.73287074,55.65610083]},"properties":{"id":"12337669-a43c-6b98-e053-d480220a5a3f","navn":"Abildhede","hovedtype":"Bebyggelse","undertype":"by","navnestatus":"suAutoriseret","kommuner":["Varde"]}},{"type":"Feature","geometry":{"type":"Point","coordinates":[8.79845572,55.61300341]},"properties":{"id":"12337669-a43e-6b98-e053-d480220a5a3f","navn":"Agerb\u00E6klund","hovedtype":"Bebyggelse","undertype":"by","navnestatus":"officielt","kommuner":["Varde"]}},{"type":"Feature","geometry":{"type":"Point","coordinates":[8.59792867,55.62497929]},"properties":{"id":"12337669-a443-6b98-e053-d480220a5a3f","navn":"N\u00E6sbjerg","hovedtype":"Bebyggelse","undertype":"by","navnestatus":"suAutoriseret","kommuner":["Varde"]}},{"type":"Feature","geometry":{"type":"Point","coordinates":[8.71138719,55.63048816]},"properties":{"id":"12337669-a444-6b98-e053-d480220a5a3f","navn":"Stenh\u00F8j","hovedtype":"Bebyggelse","undertype":"by","navnestatus":"suAutoriseret","kommuner":["Varde"]}},{"type":"Feature","geometry":{"type":"Point","coordinates":[8.60528977,55.71756517]},"properties":{"id":"12337669-a445-6b98-e053-d480220a5a3f","navn":"Tistrup","hovedtype":"Bebyggelse","undertype":"by","navnestatus":"suAutoriseret","kommuner":["Varde"]}},{"type":"Feature","geometry":{"type":"Point","coordinates":[8.6100767,55.76381154]},"properties":{"id":"12337669-a44d-6b98-e053-d480220a5a3f","navn":"G\u00E5rde","hovedtype":"Bebyggelse","undertype":"by","navnestatus":"suAutoriseret","kommuner":["Varde"]}},{"type":"Feature","geometry":{"type":"Point","coordinates":[8.62662814,55.74482083]},"properties":{"id":"12337669-a44f-6b98-e053-d480220a5a3f","navn":"Hauge G\u00E5rde","hovedtype":"Bebyggelse","undertype":"by","navnestatus":"officielt","kommuner":["Varde"]}},{"type":"Feature","geometry":{"type":"Point","coordinates":[8.59303986,55.73275248]},"properties":{"id":"12337669-a454-6b98-e053-d480220a5a3f","navn":"Krasborg","hovedtype":"Bebyggelse","undertype":"by","navnestatus":"suAutoriseret","kommuner":["Varde"]}},{"type":"Feature","geometry":{"type":"Point","coordinates":[8.70017675,55.77790643]},"properties":{"id":"12337669-a455-6b98-e053-d480220a5a3f","navn":"Krusbjerg","hovedtype":"Bebyggelse","undertype":"by","navnestatus":"suAutoriseret","kommuner":["Varde"]}},{"type":"Feature","geometry":{"type":"Point","coordinates":[8.65515753,55.78338829]},"properties":{"id":"12337669-a456-6b98-e053-d480220a5a3f","navn":"Lindbjerg","hovedtype":"Bebyggelse","undertype":"by","navnestatus":"suAutoriseret","kommuner":["Varde"]}},{"type":"Feature","geometry":{"type":"Point","coordinates":[8.64329719,55.78764753]},"properties":{"id":"12337669-a45b-6b98-e053-d480220a5a3f","navn":"Sig","hovedtype":"Bebyggelse","undertype":"by","navnestatus":"suAutoriseret","kommuner":["Varde"]}},{"type":"Feature","geometry":{"type":"Point","coordinates":[8.70555317,55.73914565]},"properties":{"id":"12337669-a45c-6b98-e053-d480220a5a3f","navn":"Skovlund","hovedtype":"Bebyggelse","undertype":"by","navnestatus":"suAutoriseret","kommuner":["Varde"]}},{"type":"Feature","geometry":{"type":"Point","coordinates":[8.65668754,55.71399699]},"properties":{"id":"12337669-a466-6b98-e053-d480220a5a3f","navn":"Krarup","hovedtype":"Bebyggelse","undertype":"by","navnestatus":"suAutoriseret","kommuner":["Varde"]}},{"type":"Feature","geometry":{"type":"Point","coordinates":[8.77538907,55.70949485]},"properties":{"id":"12337669-a468-6b98-e053-d480220a5a3f","navn":"Kvie","hovedtype":"Bebyggelse","undertype":"by","navnestatus":"suAutoriseret","kommuner":["Varde"]}},{"type":"Feature","geometry":{"type":"Point","coordinates":[8.74400609,55.73359776]},"properties":{"id":"12337669-a46a-6b98-e053-d480220a5a3f","navn":"\u00C5lling","hovedtype":"Bebyggelse","undertype":"by","navnestatus":"suAutoriseret","kommuner":["Varde"]}},{"type":"Feature","geometry":{"type":"Point","coordinates":[8.81449577,55.42098368]},"properties":{"id":"12337669-a475-6b98-e053-d480220a5a3f","navn":"Haleg\u00E5rde","hovedtype":"Bebyggelse","undertype":"by","navnestatus":"suAutoriseret","kommuner":["Esbjerg"]}},{"type":"Feature","geometry":{"type":"Point","coordinates":[8.66052665,55.49643976]},"properties":{"id":"12337669-a478-6b98-e053-d480220a5a3f","navn":"N\u00F8rre Vong","hovedtype":"Bebyggelse","undertype":"by","navnestatus":"officielt","kommuner":["Esbjerg"]}},{"type":"Feature","geometry":{"type":"Point","coordinates":[8.787725,55.49821667]},"properties":{"id":"12337669-a47a-6b98-e053-d480220a5a3f","navn":"Bjerndrup","hovedtype":"Bebyggelse","undertype":"by","navnestatus":"suAutoriseret","kommuner":["Esbjerg"]}},{"type":"Feature","geometry":{"type":"Point","coordinates":[8.827094,55.56041621]},"properties":{"id":"12337669-a484-6b98-e053-d480220a5a3f","navn":"Glejbjerg","hovedtype":"Bebyggelse","undertype":"by","navnestatus":"suAutoriseret","kommuner":["Vejen"]}},{"type":"Feature","geometry":{"type":"Point","coordinates":[8.82510552,55.56738657]},"properties":{"id":"12337669-a48a-6b98-e053-d480220a5a3f","navn":"\u00C5strup","hovedtype":"Bebyggelse","undertype":"by","navnestatus":"suAutoriseret","kommuner":["Vejen"]}},{"type":"Feature","geometry":{"type":"Point","coordinates":[9.01522574,55.56565756]},"properties":{"id":"12337669-a490-6b98-e053-d480220a5a3f","navn":"Lindknud","hovedtype":"Bebyggelse","undertype":"by","navnestatus":"suAutoriseret","kommuner":["Vejen"]}},{"type":"Feature","geometry":{"type":"Point","coordinates":[9.01526302,55.59274965]},"properties":{"id":"12337669-a492-6b98-e053-d480220a5a3f","navn":"Okslund","hovedtype":"Bebyggelse","undertype":"by","navnestatus":"suAutoriseret","kommuner":["Vejen"]}},{"type":"Feature","geometry":{"type":"Point","coordinates":[8.88599798,55.56377184]},"properties":{"id":"12337669-a496-6b98-e053-d480220a5a3f","navn":"Tvilho","hovedtype":"Bebyggelse","undertype":"by","navnestatus":"suAutoriseret","kommuner":["Vejen"]}},{"type":"Feature","geometry":{"type":"Point","coordinates":[9.00142725,55.51514207]},"properties":{"id":"12337669-a499-6b98-e053-d480220a5a3f","navn":"Vester Gjerndrup","hovedtype":"Bebyggelse","undertype":"by","navnestatus":"suAutoriseret","kommuner":["Vejen"]}},{"type":"Feature","geometry":{"type":"Point","coordinates":[8.91198352,55.50456597]},"properties":{"id":"12337669-a49a-6b98-e053-d480220a5a3f","navn":"Holsted","hovedtype":"Bebyggelse","undertype":"by","navnestatus":"suAutoriseret","kommuner":["Vejen"]}},{"type":"Feature","geometry":{"type":"Point","coordinates":[8.89305643,55.51308265]},"properties":{"id":"12337669-a49b-6b98-e053-d480220a5a3f","navn":"Holsted Vesterby","hovedtype":"Bebyggelse","undertype":"by","navnestatus":"suAutoriseret","kommuner":["Vejen"]}},{"type":"Feature","geometry":{"type":"Point","coordinates":[8.83564657,55.59427249]},