{"type":"FeatureCollection","features":[{"type":"Feature","geometry":{"type":"Point","coordinates":[8.99805345,56.62328569]},"properties":{"id":"12337669-a083-6b98-e053-d480220a5a3f","navn":"Trustrup","hovedtype":"Bebyggelse","undertype":"spredtBebyggelse","navnestatus":"suAutoriseret","kommuner":["Skive"]}},{"type":"Feature","geometry":{"type":"Point","coordinates":[9.02865207,55.78426943]},"properties":{"id":"12337669-a085-6b98-e053-d480220a5a3f","navn":"Hjortlund","hovedtype":"Bebyggelse","undertype":"spredtBebyggelse","navnestatus":"suAutoriseret","kommuner":["Billund","Vejle"]}},{"type":"Feature","geometry":{"type":"Point","coordinates":[9.92907815,55.44791552]},"properties":{"id":"12337669-a086-6b98-e053-d480220a5a3f","navn":"Ejbykrog","hovedtype":"Bebyggelse","undertype":"spredtBebyggelse","navnestatus":"suAutoriseret","kommuner":["Middelfart"]}},{"type":"Feature","geometry":{"type":"Point","coordinates":[8.70000314,55.79981887]},"properties":{"id":"12337669-a08c-6b98-e053-d480220a5a3f","navn":"Agersnap","hovedtype":"Bebyggelse","undertype":"spredtBebyggelse","navnestatus":"suAutoriseret","kommuner":["Varde"]}},{"type":"Feature","geometry":{"type":"Point","coordinates":[8.6309698,55.79662182]},"properties":{"id":"12337669-a08d-6b98-e053-d480220a5a3f","navn":"Egknud","hovedtype":"Bebyggelse","undertype":"spredtBebyggelse","navnestatus":"suAutoriseret","kommuner":["Varde"]}},{"type":"Feature","geometry":{"type":"Point","coordinates":[8.65362063,55.80223996]},"properties":{"id":"12337669-a08e-6b98-e053-d480220a5a3f","navn":"Medum","hovedtype":"Bebyggelse","undertype":"spredtBebyggelse","navnestatus":"suAutoriseret","kommuner":["Varde"]}},{"type":"Feature","geometry":{"type":"Point","coordinates":[8.83555449,55.7951978]},"properties":{"id":"12337669-a08f-6b98-e053-d480220a5a3f","navn":"Dyvelsr\u00E6kke","hovedtype":"Bebyggelse","undertype":"spredtBebyggelse","navnestatus":"suAutoriseret","kommuner":["Billund"]}},{"type":"Feature","geometry":{"type":"Point","coordinates":[8.79300419,55.79702386]},"properties":{"id":"12337669-a090-6b98-e053-d480220a5a3f","navn":"N\u00F8rre Urup","hovedtype":"Bebyggelse","undertype":"spredtBebyggelse","navnestatus":"officielt","kommuner":["Billund"]}},{"type":"Feature","geometry":{"type":"Point","coordinates":[8.99796726,55.79447761]},"properties":{"id":"12337669-a091-6b98-e053-d480220a5a3f","navn":"Filskov S\u00F8ndermark","hovedtype":"Bebyggelse","undertype":"spredtBebyggelse","navnestatus":"suAutoriseret","kommuner":["Billund"]}},{"type":"Feature","geometry":{"type":"Point","coordinates":[9.00823419,55.7621589]},"properties":{"id":"12337669-a092-6b98-e053-d480220a5a3f","navn":"Hinnum","hovedtype":"Bebyggelse","undertype":"spredtBebyggelse","navnestatus":"suAutoriseret","kommuner":["Billund"]}},{"type":"Feature","geometry":{"type":"Point","coordinates":[9.03038473,55.74491796]},"properties":{"id":"12337669-a093-6b98-e053-d480220a5a3f","navn":"Silkeborg","hovedtype":"Bebyggelse","undertype":"spredtBebyggelse","navnestatus":"suAutoriseret","kommuner":["Billund"]}},{"type":"Feature","geometry":{"type":"Point","coordinates":[9.04542909,55.70207539]},"properties":{"id":"12337669-a094-6b98-e053-d480220a5a3f","navn":"Tr\u00F8llund","hovedtype":"Bebyggelse","undertype":"spredtBebyggelse","navnestatus":"suAutoriseret","kommuner":["Billund"]}},{"type":"Feature","geometry":{"type":"Point","coordinates":[9.00124309,55.5636806]},"properties":{"id":"12337669-a095-6b98-e053-d480220a5a3f","navn":"Debel","hovedtype":"Bebyggelse","undertype":"spredtBebyggelse","navnestatus":"suAutoriseret","kommuner":["Vejen"]}},{"type":"Feature","geometry":{"type":"Point","coordinates":[9.00829277,55.57770948]},"properties":{"id":"12337669-a096-6b98-e053-d480220a5a3f","navn":"Gilbjerg","hovedtype":"Bebyggelse","undertype":"spredtBebyggelse","navnestatus":"suAutoriseret","kommuner":["Vejen"]}},{"type":"Feature","geometry":{"type":"Point","coordinates":[9.02986686,55.52961701]},"properties":{"id":"12337669-a099-6b98-e053-d480220a5a3f","navn":"B\u00F8geskov","hovedtype":"Bebyggelse","undertype":"spredtBebyggelse","navnestatus":"suAutoriseret","kommuner":["Vejen"]}},{"type":"Feature","geometry":{"type":"Point","coordinates":[9.03707123,55.49807501]},"properties":{"id":"12337669-a09a-6b98-e053-d480220a5a3f","navn":"Eskelund","hovedtype":"Bebyggelse","undertype":"spredtBebyggelse","navnestatus":"suAutoriseret","kommuner":["Vejen"]}},{"type":"Feature","geometry":{"type":"Point","coordinates":[9.03224275,55.41946135]},"properties":{"id":"12337669-a09b-6b98-e053-d480220a5a3f","navn":"Dover Mark","hovedtype":"Bebyggelse","undertype":"spredtBebyggelse","navnestatus":"suAutoriseret","kommuner":["Vejen"]}},{"type":"Feature","geometry":{"type":"Point","coordinates":[8.97933978,55.39881123]},"properties":{"id":"12337669-a09c-6b98-e053-d480220a5a3f","navn":"Tornumskov","hovedtype":"Bebyggelse","undertype":"spredtBebyggelse","navnestatus":"suAutoriseret","kommuner":["Vejen"]}},{"type":"Feature","geometry":{"type":"Point","coordinates":[9.01446315,55.40004993]},"properties":{"id":"12337669-a09d-6b98-e053-d480220a5a3f","navn":"Vimtrup","hovedtype":"Bebyggelse","undertype":"spredtBebyggelse","navnestatus":"suAutoriseret","kommuner":["Vejen"]}},{"type":"Feature","geometry":{"type":"Point","coordinates":[8.34215724,55.7866867]},"properties":{"id":"12337669-a0a0-6b98-e053-d480220a5a3f","navn":"R\u00E6rup","hovedtype":"Bebyggelse","undertype":"spredtBebyggelse","navnestatus":"suAutoriseret","kommuner":["Varde","Ringk\u00F8bing-Skjern"]}},{"type":"Feature","geometry":{"type":"Point","coordinates":[8.31144013,55.78657633]},"properties":{"id":"12337669-a0a1-6b98-e053-d480220a5a3f","navn":"S\u00E6dding","hovedtype":"Bebyggelse","undertype":"spredtBebyggelse","navnestatus":"suAutoriseret","kommuner":["Varde"]}},{"type":"Feature","geometry":{"type":"Point","coordinates":[8.51587359,55.80086282]},"properties":{"id":"12337669-a0a2-6b98-e053-d480220a5a3f","navn":"K\u00E6rg\u00E5rd","hovedtype":"Bebyggelse","undertype":"spredtBebyggelse","navnestatus":"suAutoriseret","kommuner":["Varde","Ringk\u00F8bing-Skjern"]}},{"type":"Feature","geometry":{"type":"Point","coordinates":[8.52309137,55.79154639]},"properties":{"id":"12337669-a0a3-6b98-e053-d480220a5a3f","navn":"Mosb\u00F8l","hovedtype":"Bebyggelse","undertype":"spredtBebyggelse","navnestatus":"suAutoriseret","kommuner":["Varde","Ringk\u00F8bing-Skjern"]}},{"type":"Feature","geometry":{"type":"Point","coordinates":[8.5460334,55.79939771]},"properties":{"id":"12337669-a0a4-6b98-e053-d480220a5a3f","navn":"N\u00F8rtarp","hovedtype":"Bebyggelse","undertype":"spredtBebyggelse","navnestatus":"suAutoriseret","kommuner":["Varde"]}},{"type":"Feature","geometry":{"type":"Point","coordinates":[8.71611103,55.80747849]},"properties":{"id":"12337669-a0a6-6b98-e053-d480220a5a3f","navn":"Hejb\u00F8l","hovedtype":"Bebyggelse","undertype":"spredtBebyggelse","navnestatus":"suAutoriseret","kommuner":["Varde","Ringk\u00F8bing-Skjern"]}},{"type":"Feature","geometry":{"type":"Point","coordinates":[8.98975657,55.82929871]},"properties":{"id":"12337669-a0a8-6b98-e053-d480220a5a3f","navn":"Omvr\u00E5 S\u00F8ndermark","hovedtype":"Bebyggelse","undertype":"spredtBebyggelse","navnestatus":"suAutoriseret","kommuner":["Billund","Ikast-Brande"]}},{"type":"Feature","geometry":{"type":"Point","coordinates":[8.92822972,55.80386857]},"properties":{"id":"12337669-a0a9-6b98-e053-d480220a5a3f","navn":"Simmelg\u00E5rde","hovedtype":"Bebyggelse","undertype":"spredtBebyggelse","navnestatus":"suAutoriseret","kommuner":["Billund"]}},{"type":"Feature","geometry":{"type":"Point","coordinates":[8.43309858,55.79878158]},"properties":{"id":"12337669-a0aa-6b98-e053-d480220a5a3f","navn":"S\u00F8nderdiger","hovedtype":"Bebyggelse","undertype":"spredtBebyggelse","navnestatus":"suAutoriseret","kommuner":["Varde","Ringk\u00F8bing-Skjern"]}},{"type":"Feature","geometry":{"type":"Point","coordinates":[8.56294672,55.8058303]},"properties":{"id":"12337669-a0ab-6b98-e053-d480220a5a3f","navn":"\u00D8sttarp","hovedtype":"Bebyggelse","undertype":"spredtBebyggelse","navnestatus":"suAutoriseret","kommuner":["Varde"]}},{"type":"Feature","geometry":{"type":"Point","coordinates":[8.35647062,56.19704617]},"properties":{"id":"12337669-a0ad-6b98-e053-d480220a5a3f","navn":"S\u00F8nder Esp","hovedtype":"Bebyggelse","undertype":"spredtBebyggelse","navnestatus":"suAutoriseret","kommuner":["Ringk\u00F8bing-Skjern"]}},{"type":"Feature","geometry":{"type":"Point","coordinates":[8.49825872,56.2021346]},"properties":{"id":"12337669-a0ae-6b98-e053-d480220a5a3f","navn":"Skr\u00E5strup","hovedtype":"Bebyggelse","undertype":"spredtBebyggelse","navnestatus":"suAutoriseret","kommuner":["Herning","Ringk\u00F8bing-Skjern"]}},{"type":"Feature","geometry":{"type":"Point","coordinates":[8.52335743,56.19760515]},"properties":{"id":"12337669-a0af-6b98-e053-d480220a5a3f","navn":"Lille Sp\u00E5b\u00E6k","hovedtype":"Bebyggelse","undertype":"spredtBebyggelse","navnestatus":"officielt","kommuner":["Herning","Ringk\u00F8bing-Skjern"]}},{"type":"Feature","geometry":{"type":"Point","coordinates":[8.54540702,56.18704287]},"properties":{"id":"12337669-a0b0-6b98-e053-d480220a5a3f","navn":"Store Sp\u00E5b\u00E6k","hovedtype":"Bebyggelse","undertype":"spredtBebyggelse","navnestatus":"officielt","kommuner":["Herning","Ringk\u00F8bing-Skjern"]}},{"type":"Feature","geometry":{"type":"Point","coordinates":[8.33525047,56.20658259]},"properties":{"id":"12337669-a0b1-6b98-e053-d480220a5a3f","navn":"P\u00F8lsmark","hovedtype":"Bebyggelse","undertype":"spredtBebyggelse","navnestatus":"suAutoriseret","kommuner":["Ringk\u00F8bing-Skjern"]}},{"type":"Feature","geometry":{"type":"Point","coordinates":[8.99790781,56.80723288]},"properties":{"id":"12337669-a0b3-6b98-e053-d480220a5a3f","navn":"S\u00F8nderg\u00E5rde","hovedtype":"Bebyggelse","undertype":"spredtBebyggelse","navnestatus":"suAutoriseret","kommuner":["Skive"]}},{"type":"Feature","geometry":{"type":"Point","coordinates":[8.81172328,57.01521769]},"properties":{"id":"12337669-a0b5-6b98-e053-d480220a5a3f","navn":"Ny Kl\u00F8v","hovedtype":"Bebyggelse","undertype":"spredtBebyggelse","navnestatus":"suAutoriseret","kommuner":["Thisted"]}},{"type":"Feature","geometry":{"type":"Point","coordinates":[8.84496695,57.01790844]},"properties":{"id":"12337669-a0b6-6b98-e053-d480220a5a3f","navn":"S\u00F8nderby","hovedtype":"Bebyggelse","undertype":"spredtBebyggelse","navnestatus":"suAutoriseret","kommuner":["Thisted"]}},{"type":"Feature","geometry":{"type":"Point","coordinates":[8.83375097,57.02210926]},"properties":{"id":"12337669-a0b7-6b98-e053-d480220a5a3f","navn":"Havland","hovedtype":"Bebyggelse","undertype":"spredtBebyggelse","navnestatus":"suAutoriseret","kommuner":["Thisted"]}},{"type":"Feature","geometry":{"type":"Point","coordinates":[8.95791148,57.01621001]},"properties":{"id":"12337669-a0b8-6b98-e053-d480220a5a3f","navn":"Vesl\u00F8s Mark","hovedtype":"Bebyggelse","undertype":"spredtBebyggelse","navnestatus":"suAutoriseret","kommuner":["Thisted"]}},{"type":"Feature","geometry":{"type":"Point","coordinates":[8.59699554,57.01810133]},"properties":{"id":"12337669-a0ba-6b98-e053-d480220a5a3f","navn":"Agerholm","hovedtype":"Bebyggelse","undertype":"spredtBebyggelse","navnestatus":"suAutoriseret","kommuner":["Thisted"]}},{"type":"Feature","geometry":{"type":"Point","coordinates":[8.70046719,57.01968048]},"properties":{"id":"12337669-a0bb-6b98-e053-d480220a5a3f","navn":"Tved Havreland","hovedtype":"Bebyggelse","undertype":"spredtBebyggelse","navnestatus":"suAutoriseret","kommuner":["Thisted"]}},{"type":"Feature","geometry":{"type":"Point","coordinates":[8.98683094,56.75024025]},"properties":{"id":"12337669-a0c0-6b98-e053-d480220a5a3f","navn":"Bjergby","hovedtype":"Bebyggelse","undertype":"spredtBebyggelse","navnestatus":"suAutoriseret","kommuner":["Skive"]}},{"type":"Feature","geometry":{"type":"Point","coordinates":[8.8423075,56.61827785]},"properties":{"id":"12337669-a0c5-6b98-e053-d480220a5a3f","navn":"S\u00F8nder Andrup","hovedtype":"Bebyggelse","undertype":"spredtBebyggelse","navnestatus":"suAutoriseret","kommuner":["Skive"]}},{"type":"Feature","geometry":{"type":"Point","coordinates":[8.71128279,56.60591643]},"properties":{"id":"12337669-a0c6-6b98-e053-d480220a5a3f","navn":"K\u00E5s Mark","hovedtype":"Bebyggelse","undertype":"spredtBebyggelse","navnestatus":"suAutoriseret","kommuner":["Skive"]}},{"type":"Feature","geometry":{"type":"Point","coordinates":[8.99099653,56.63364327]},"properties":{"id":"12337669-a0c9-6b98-e053-d480220a5a3f","navn":"Ejsk\u00E6r","hovedtype":"Bebyggelse","undertype":"spredtBebyggelse","navnestatus":"suAutoriseret","kommuner":["Skive"]}},{"type":"Feature","geometry":{"type":"Point","coordinates":[8.98416738,56.68098128]},"properties":{"id":"12337669-a0ca-6b98-e053-d480220a5a3f","navn":"Nannerup","hovedtype":"Bebyggelse","undertype":"spredtBebyggelse","navnestatus":"suAutoriseret","kommuner":["Skive"]}},{"type":"Feature","geometry":{"type":"Point","coordinates":[8.71240843,57.01310083]},"properties":{"id":"12337669-a0cc-6b98-e053-d480220a5a3f","navn":"Lille Hillerslev","hovedtype":"Bebyggelse","undertype":"spredtBebyggelse","navnestatus":"suAutoriseret","kommuner":["Thisted"]}},{"type":"Feature","geometry":{"type":"Point","coordinates":[9.51475166,54.99236593]},"properties":{"id":"12337669-a0cf-6b98-e053-d480220a5a3f","navn":"Felsted Mark","hovedtype":"Bebyggelse","undertype":"spredtBebyggelse","navnestatus":"suAutoriseret","kommuner":["Aabenraa"]}},{"type":"Feature","geometry":{"type":"Point","coordinates":[9.93611782,54.93873585]},"properties":{"id":"12337669-a0d1-6b98-e053-d480220a5a3f","navn":"Mjangh\u00F8j","hovedtype":"Bebyggelse","undertype":"spredtBebyggelse","navnestatus":"suAutoriseret","kommuner":["S\u00F8nderborg"]}},{"type":"Feature","geometry":{"type":"Point","coordinates":[9.09982421,54.99361575]},"properties":{"id":"12337669-a0d5-6b98-e053-d480220a5a3f","navn":"Hyndingholm","hovedtype":"Bebyggelse","undertype":"spredtBebyggelse","navnestatus":"suAutoriseret","kommuner":["Aabenraa"]}},{"type":"Feature","geometry":{"type":"Point","coordinates":[9.07046829,54.89246221]},"properties":{"id":"12337669-a0d6-6b98-e053-d480220a5a3f","navn":"Rens Mark","hovedtype":"Bebyggelse","undertype":"spredtBebyggelse","navnestatus":"suAutoriseret","kommuner":["Aabenraa"]}},{"type":"Feature","geometry":{"type":"Point","coordinates":[9.04193952,55.10353459]},"properties":{"id":"12337669-a0d8-6b98-e053-d480220a5a3f","navn":"B\u00E5lsted","hovedtype":"Bebyggelse","undertype":"spredtBebyggelse","navnestatus":"suAutoriseret","kommuner":["T\u00F8nder"]}},{"type":"Feature","geometry":{"type":"Point","coordinates":[9.27214195,55.39700027]},"properties":{"id":"12337669-a0da-6b98-e053-d480220a5a3f","navn":"Bastrupskov","hovedtype":"Bebyggelse","undertype":"spredtBebyggelse","navnestatus":"suAutoriseret","kommuner":["Vejen","Kolding"]}},{"type":"Feature","geometry":{"type":"Point","coordinates":[9.3305689,55.39868265]},"properties":{"id":"12337669-a0db-6b98-e053-d480220a5a3f","navn":"G\u00E5sk\u00E6r","hovedtype":"Bebyggelse","undertype":"spredtBebyggelse","navnestatus":"suAutoriseret","kommuner":["Kolding"]}},{"type":"Feature","geometry":{"type":"Point","coordinates":[9.05159159,55.22761256]},"properties":{"id":"12337669-a0de-6b98-e053-d480220a5a3f","navn":"N\u00F8rremark","hovedtype":"Bebyggelse","undertype":"spredtBebyggelse","navnestatus":"suAutoriseret","kommuner":["Haderslev","T\u00F8nder"]}},{"type":"Feature","geometry":{"type":"Point","coordinates":[9.21771451,56.21060051]},"properties":{"id":"12337669-a0e3-6b98-e053-d480220a5a3f","navn":"Moselund","hovedtype":"Bebyggelse","undertype":"spredtBebyggelse","navnestatus":"suAutoriseret","kommuner":["Ikast-Brande","Viborg"]}},{"type":"Feature","geometry":{"type":"Point","coordinates":[9.89998669,56.50007617]},"properties":{"id":"12337669-a0e5-6b98-e053-d480220a5a3f","navn":"Neder Bjerregrav","hovedtype":"Bebyggelse","undertype":"spredtBebyggelse","navnestatus":"suAutoriseret","kommuner":["Randers"]}},{"type":"Feature","geometry":{"type":"Point","coordinates":[9.0021582,56.59020497]},"properties":{"id":"12337669-a0e8-6b98-e053-d480220a5a3f","navn":"Vinde N\u00F8rremark","hovedtype":"Bebyggelse","undertype":"spredtBebyggelse","navnestatus":"suAutoriseret","kommuner":["Skive"]}},{"type":"Feature","geometry":{"type":"Point","coordinates":[9.01131263,56.46078384]},"properties":{"id":"12337669-a0e9-6b98-e053-d480220a5a3f","navn":"Trevad","hovedtype":"Bebyggelse","undertype":"spredtBebyggelse","navnestatus":"suAutoriseret","kommuner":["Holstebro","Viborg"]}},{"type":"Feature","geometry":{"type":"Point","coordinates":[9.9098495,56.70847931]},"properties":{"id":"12337669-a0eb-6b98-e053-d480220a5a3f","navn":"Monstrup","hovedtype":"Bebyggelse","undertype":"spredtBebyggelse","navnestatus":"suAutoriseret","kommuner":["Mariagerfjord"]}},{"type":"Feature","geometry":{"type":"Point","coordinates":[9.907332,56.66012244]},"properties":{"id":"12337669-a0ee-6b98-e053-d480220a5a3f","navn":"Krogen","hovedtype":"Bebyggelse","undertype":"spredtBebyggelse","navnestatus":"suAutoriseret","kommuner":["Mariagerfjord"]}},{"type":"Feature","geometry":{"type":"Point","coordinates":[9.91182748,56.62495842]},"properties":{"id":"12337669-a0ef-6b98-e053-d480220a5a3f","navn":"Vintersbjerg","hovedtype":"Bebyggelse","undertype":"spredtBebyggelse","navnestatus":"suAutoriseret","kommuner":["Mariagerfjord"]}},{"type":"Feature","geometry":{"type":"Point","coordinates":[9.0013642,56.71086553]},"properties":{"id":"12337669-a0f0-6b98-e053-d480220a5a3f","navn":"Moseknolde","hovedtype":"Bebyggelse","undertype":"spredtBebyggelse","navnestatus":"suAutoriseret","kommuner":["Skive"]}},{"type":"Feature","geometry":{"type":"Point","coordinates":[9.90513115,57.35317334]},"properties":{"id":"12337669-a0f3-6b98-e053-d480220a5a3f","navn":"Stenvad","hovedtype":"Bebyggelse","undertype":"spredtBebyggelse","navnestatus":"suAutoriseret","kommuner":["Hj\u00F8rring"]}},{"type":"Feature","geometry":{"type":"Point","coordinates":[9.78447827,57.43025696]},"properties":{"id":"12337669-a0f6-6b98-e053-d480220a5a3f","navn":"N\u00F8rre Rubjerg","hovedtype":"Bebyggelse","undertype":"spredtBebyggelse","navnestatus":"suAutoriseret","kommuner":["Hj\u00F8rring"]}},{"type":"Feature","geometry":{"type":"Point","coordinates":[9.91116843,57.2108326]},"properties":{"id":"12337669-a0f9-6b98-e053-d480220a5a3f","navn":"Br\u00E6ndskov","hovedtype":"Bebyggelse","undertype":"spredtBebyggelse","navnestatus":"suAutoriseret","kommuner":["Aalborg"]}},{"type":"Feature","geometry":{"type":"Point","coordinates":[9.89387392,57.14360502]},"properties":{"id":"12337669-a0fb-6b98-e053-d480220a5a3f","navn":"N\u00F8rhalne Hedehuse","hovedtype":"Bebyggelse","undertype":"spredtBebyggelse","navnestatus":"suAutoriseret","kommuner":["Jammerbugt","Aalborg"]}},{"type":"Feature","geometry":{"type":"Point","coordinates":[8.91961703,56.20724681]},"properties":{"id":"12337669-a0fc-6b98-e053-d480220a5a3f","navn":"Remme","hovedtype":"Bebyggelse","undertype":"spredtBebyggelse","navnestatus":"suAutoriseret","kommuner":["Herning"]}},{"type":"Feature","geometry":{"type":"Point","coordinates":[8.96204305,57.06971318]},"properties":{"id":"12337669-a0fe-6b98-e053-d480220a5a3f","navn":"Langvad","hovedtype":"Bebyggelse","undertype":"spredtBebyggelse","navnestatus":"suAutoriseret","kommuner":["Thisted"]}},{"type":"Feature","geometry":{"type":"Point","coordinates":[9.91805272,56.55402352]},"properties":{"id":"12337669-a100-6b98-e053-d480220a5a3f","navn":"Asferg N\u00F8rremark","hovedtype":"Bebyggelse","undertype":"spredtBebyggelse","navnestatus":"suAutoriseret","kommuner":["Randers"]}},{"type":"Feature","geometry":{"type":"Point","coordinates":[9.91011209,56.74104258]},"properties":{"id":"12337669-a105-6b98-e053-d480220a5a3f","navn":"Lundg\u00E5rd","hovedtype":"Bebyggelse","undertype":"spredtBebyggelse","navnestatus":"suAutoriseret","kommuner":["Mariagerfjord"]}},{"type":"Feature","geometry":{"type":"Point","coordinates":[10.16948072,57.02772497]},"properties":{"id":"12337669-a107-6b98-e053-d480220a5a3f","navn":"Hjortrimmen","hovedtype":"Bebyggelse","undertype":"spredtBebyggelse","navnestatus":"suAutoriseret","kommuner":["Aalborg"]}},{"type":"Feature","geometry":{"type":"Point","coordinates":[10.14949364,57.03111052]},"properties":{"id":"12337669-a108-6b98-e053-d480220a5a3f","navn":"Skiveren","hovedtype":"Bebyggelse","undertype":"spredtBebyggelse","navnestatus":"suAutoriseret","kommuner":["Aalborg"]}},{"type":"Feature","geometry":{"type":"Point","coordinates":[10.25997698,57.43855482]},"properties":{"id":"12337669-a10e-6b98-e053-d480220a5a3f","navn":"Lille Tislum","hovedtype":"Bebyggelse","undertype":"spredtBebyggelse","navnestatus":"officielt","kommuner":["Hj\u00F8rring"]}},{"type":"Feature","geometry":{"type":"Point","coordinates":[10.10275675,57.43828585]},"properties":{"id":"12337669-a111-6b98-e053-d480220a5a3f","navn":"L\u00F8rslev \u00D8sterhede","hovedtype":"Bebyggelse","undertype":"spredtBebyggelse","navnestatus":"suAutoriseret","kommuner":["Hj\u00F8rring"]}},{"type":"Feature","geometry":{"type":"Point","coordinates":[10.20320703,57.43470955]},"properties":{"id":"12337669-a112-6b98-e053-d480220a5a3f","navn":"Sk\u00E6rshede","hovedtype":"Bebyggelse","undertype":"spredtBebyggelse","navnestatus":"suAutoriseret","kommuner":["Hj\u00F8rring"]}},{"type":"Feature","geometry":{"type":"Point","coordinates":[10.06238876,57.43739522]},"properties":{"id":"12337669-a113-6b98-e053-d480220a5a3f","navn":"Holmen","hovedtype":"Bebyggelse","undertype":"spredtBebyggelse","navnestatus":"suAutoriseret","kommuner":["Hj\u00F8rring"]}},{"type":"Feature","geometry":{"type":"Point","coordinates":[9.93275582,55.31066085]},"properties":{"id":"12337669-a115-6b98-e053-d480220a5a3f","navn":"Karup","hovedtype":"Bebyggelse","undertype":"spredtBebyggelse","navnestatus":"suAutoriseret","kommuner":["Assens"]}},{"type":"Feature","geometry":{"type":"Point","coordinates":[10.81669271,56.43250288]},"properties":{"id":"12337669-a116-6b98-e053-d480220a5a3f","navn":"Kristiansminde","hovedtype":"Bebyggelse","undertype":"spredtBebyggelse","navnestatus":"suAutoriseret","kommuner":["Norddjurs"]}},{"type":"Feature","geometry":{"type":"Point","coordinates":[10.56821995,54.99973498]},"properties":{"id":"12337669-a11b-6b98-e053-d480220a5a3f","navn":"S\u00F8nder Vorn\u00E6s","hovedtype":"Bebyggelse","undertype":"spredtBebyggelse","navnestatus":"suAutoriseret","kommuner":["Svendborg"]}},{"type":"Feature","geometry":{"type":"Point","coordinates":[10.81871739,54.98423081]},"properties":{"id":"12337669-a11e-6b98-e053-d480220a5a3f","navn":"Frellesvig Huse","hovedtype":"Bebyggelse","undertype":"spredtBebyggelse","navnestatus":"officielt","kommuner":["Langeland"]}},{"type":"Feature","geometry":{"type":"Point","coordinates":[9.54239246,56.21386364]},"properties":{"id":"12337669-a120-6b98-e053-d480220a5a3f","navn":"Ebstrup","hovedtype":"Bebyggelse","undertype":"spredtBebyggelse","navnestatus":"suAutoriseret","kommuner":["Silkeborg"]}},{"type":"Feature","geometry":{"type":"Point","coordinates":[9.72332337,56.21202351]},"properties":{"id":"12337669-a121-6b98-e053-d480220a5a3f","navn":"Amerika","hovedtype":"Bebyggelse","undertype":"spredtBebyggelse","navnestatus":"suAutoriseret","kommuner":["Silkeborg"]}},{"type":"Feature","geometry":{"type":"Point","coordinates":[9.91616386,56.22831863]},"properties":{"id":"12337669-a124-6b98-e053-d480220a5a3f","navn":"Voldbyholt","hovedtype":"Bebyggelse","undertype":"spredtBebyggelse","navnestatus":"suAutoriseret","kommuner":["Favrskov"]}},{"type":"Feature","geometry":{"type":"Point","coordinates":[8.99869279,56.47410583]},"properties":{"id":"12337669-a127-6b98-e053-d480220a5a3f","navn":"\u00C5k\u00E6r","hovedtype":"Bebyggelse","undertype":"spredtBebyggelse","navnestatus":"suAutoriseret","kommuner":["Viborg"]}},{"type":"Feature","geometry":{"type":"Point","coordinates":[8.78000967,56.61155855]},"properties":{"id":"12337669-a128-6b98-e053-d480220a5a3f","navn":"Betryk","hovedtype":"Bebyggelse","undertype":"spredtBebyggelse","navnestatus":"suAutoriseret","kommuner":["Skive"]}},{"type":"Feature","geometry":{"type":"Point","coordinates":[8.98450672,56.56967802]},"properties":{"id":"12337669-a129-6b98-e053-d480220a5a3f","navn":"Lund","hovedtype":"Bebyggelse","undertype":"spredtBebyggelse","navnestatus":"suAutoriseret","kommuner":["Skive"]}},{"type":"Feature","geometry":{"type":"Point","coordinates":[9.01958876,56.34674486]},"properties":{"id":"12337669-a12c-6b98-e053-d480220a5a3f","navn":"Stavlund","hovedtype":"Bebyggelse","undertype":"spredtBebyggelse","navnestatus":"suAutoriseret","kommuner":["Herning"]}},{"type":"Feature","geometry":{"type":"Point","coordinates":[9.00386571,56.24993379]},"properties":{"id":"12337669-a12d-6b98-e053-d480220a5a3f","navn":"Sneptrup","hovedtype":"Bebyggelse","undertype":"spredtBebyggelse","navnestatus":"suAutoriseret","kommuner":["Herning"]}},{"type":"Feature","geometry":{"type":"Point","coordinates":[8.79371714,56.21527254]},"properties":{"id":"12337669-a12e-6b98-e053-d480220a5a3f","navn":"Romvig G\u00E5rde","hovedtype":"Bebyggelse","undertype":"spredtBebyggelse","navnestatus":"suAutoriseret","kommuner":["Herning"]}},{"type":"Feature","geometry":{"type":"Point","coordinates":[8.97604463,56.21183824]},"properties":{"id":"12337669-a130-6b98-e053-d480220a5a3f","navn":"\u00D8ster Lin\u00E5","hovedtype":"Bebyggelse","undertype":"spredtBebyggelse","navnestatus":"officielt","kommuner":["Herning"]}},{"type":"Feature","geometry":{"type":"Point","coordinates":[9.91757866,55.94027283]},"properties":{"id":"12337669-a131-6b98-e053-d480220a5a3f","navn":"Kattrup Made","hovedtype":"Bebyggelse","undertype":"spredtBebyggelse","navnestatus":"officielt","kommuner":["Horsens"]}},{"type":"Feature","geometry":{"type":"Point","coordinates":[9.92641786,55.93890327]},"properties":{"id":"12337669-a132-6b98-e053-d480220a5a3f","navn":"Snarskov","hovedtype":"Bebyggelse","undertype":"spredtBebyggelse","navnestatus":"suAutoriseret","kommuner":["Horsens"]}},{"type":"Feature","geometry":{"type":"Point","coordinates":[9.00711577,56.37750592]},"properties":{"id":"12337669-a133-6b98-e053-d480220a5a3f","navn":"Haderis","hovedtype":"Bebyggelse","undertype":"spredtBebyggelse","navnestatus":"suAutoriseret","kommuner":["Herning"]}},{"type":"Feature","geometry":{"type":"Point","coordinates":[9.01214896,56.28654375]},"properties":{"id":"12337669-a134-6b98-e053-d480220a5a3f","navn":"Vistorp","hovedtype":"Bebyggelse","undertype":"spredtBebyggelse","navnestatus":"suAutoriseret","kommuner":["Herning"]}},{"type":"Feature","geometry":{"type":"Point","coordinates":[9.00236253,56.22460914]},"properties":{"id":"12337669-a135-6b98-e053-d480220a5a3f","navn":"S\u00F8nderos","hovedtype":"Bebyggelse","undertype":"spredtBebyggelse","navnestatus":"suAutoriseret","kommuner":["Herning"]}},{"type":"Feature","geometry":{"type":"Point","coordinates":[9.17802882,56.21115757]},"properties":{"id":"12337669-a136-6b98-e053-d480220a5a3f","navn":"Rusk\u00E6r","hovedtype":"Bebyggelse","undertype":"spredtBebyggelse","navnestatus":"suAutoriseret","kommuner":["Ikast-Brande"]}},{"type":"Feature","geometry":{"type":"Point","coordinates":[9.23830524,56.21768202]},"properties":{"id":"12337669-a137-6b98-e053-d480220a5a3f","navn":"Skyggehale","hovedtype":"Bebyggelse","undertype":"spredtBebyggelse","navnestatus":"suAutoriseret","kommuner":["Silkeborg","Ikast-Brande","Viborg"]}},{"type":"Feature","geometry":{"type":"Point","coordinates":[9.35973656,56.22116821]},"properties":{"id":"12337669-a138-6b98-e053-d480220a5a3f","navn":"\u00D8ster Christiansh\u00F8j","hovedtype":"Bebyggelse","undertype":"spredtBebyggelse","navnestatus":"suAutoriseret","kommuner":["Silkeborg"]}},{"type":"Feature","geometry":{"type":"Point","coordinates":[9.38984497,56.21439805]},"properties":{"id":"12337669-a139-6b98-e053-d480220a5a3f","navn":"Middel Frederiksdal","hovedtype":"Bebyggelse","undertype":"spredtBebyggelse","navnestatus":"suAutoriseret","kommuner":["Silkeborg"]}},{"type":"Feature","geometry":{"type":"Point","coordinates":[9.40800466,56.21757803]},"properties":{"id":"12337669-a13a-6b98-e053-d480220a5a3f","navn":"Charlottenlund","hovedtype":"Bebyggelse","undertype":"spredtBebyggelse","navnestatus":"suAutoriseret","kommuner":["Silkeborg"]}},{"type":"Feature","geometry":{"type":"Point","coordinates":[9.76143514,57.02565805]},"properties":{"id":"12337669-a13d-6b98-e053-d480220a5a3f","navn":"Restrupk\u00E6r","hovedtype":"Bebyggelse","undertype":"spredtBebyggelse","navnestatus":"suAutoriseret","kommuner":["Aalborg"]}},{"type":"Feature","geometry":{"type":"Point","coordinates":[9.68822717,55.81851332]},"properties":{"id":"12337669-a140-6b98-e053-d480220a5a3f","navn":"L\u00F8sning N\u00F8rremark","hovedtype":"Bebyggelse","undertype":"spredtBebyggelse","navnestatus":"suAutoriseret","kommuner":["Hedensted"]}},{"type":"Feature","geometry":{"type":"Point","coordinates":[9.55907512,54.9982308]},"properties":{"id":"12337669-a142-6b98-e053-d480220a5a3f","navn":"Skovb\u00F8lg\u00E5rds Mark","hovedtype":"Bebyggelse","undertype":"spredtBebyggelse","navnestatus":"suAutoriseret","kommuner":["Aabenraa"]}},{"type":"Feature","geometry":{"type":"Point","coordinates":[9.90699227,57.37453645]},"properties":{"id":"12337669-a145-6b98-e053-d480220a5a3f","navn":"Smidstrup Hede","hovedtype":"Bebyggelse","undertype":"spredtBebyggelse","navnestatus":"suAutoriseret","kommuner":["Hj\u00F8rring"]}},{"type":"Feature","geometry":{"type":"Point","coordinates":[9.91278636,57.38127261]},"properties":{"id":"12337669-a146-6b98-e053-d480220a5a3f","navn":"Smidstrup Sletting","hovedtype":"Bebyggelse","undertype":"spredtBebyggelse","navnestatus":"officielt","kommuner":["Hj\u00F8rring"]}},{"type":"Feature","geometry":{"type":"Point","coordinates":[9.91305349,57.36107202]},"properties":{"id":"12337669-a147-6b98-e053-d480220a5a3f","navn":"Vesterheden","hovedtype":"Bebyggelse","undertype":"spredtBebyggelse","navnestatus":"suAutoriseret","kommuner":["Hj\u00F8rring"]}},{"type":"Feature","geometry":{"type":"Point","coordinates":[9.91094855,57.09509133]},"properties":{"id":"12337669-a149-6b98-e053-d480220a5a3f","navn":"Hvorup Nymark","hovedtype":"Bebyggelse","undertype":"spredtBebyggelse","navnestatus":"officielt","kommuner":["Aalborg"]}},{"type":"Feature","geometry":{"type":"Point","coordinates":[9.90964322,57.33218259]},"properties":{"id":"12337669-a14b-6b98-e053-d480220a5a3f","navn":"M\u00F8llehuse","hovedtype":"Bebyggelse","undertype":"spredtBebyggelse","navnestatus":"suAutoriseret","kommuner":["Br\u00F8nderslev","Hj\u00F8rring"]}},{"type":"Feature","geometry":{"type":"Point","coordinates":[9.79963676,57.02909405]},"properties":{"id":"12337669-a14d-6b98-e053-d480220a5a3f","navn":"Restrup Enge","hovedtype":"Bebyggelse","undertype":"spredtBebyggelse","navnestatus":"suAutoriseret","kommuner":["Aalborg"]}},{"type":"Feature","geometry":{"type":"Point","coordinates":[9.92889423,56.20374536]},"properties":{"id":"12337669-a14f-6b98-e053-d480220a5a3f","navn":"Herskind Hede","hovedtype":"Bebyggelse","undertype":"spredtBebyggelse","navnestatus":"suAutoriseret","kommuner":["Favrskov","Skanderborg"]}},{"type":"Feature","geometry":{"type":"Point","coordinates":[9.59471786,55.81155107]},"properties":{"id":"12337669-a154-6b98-e053-d480220a5a3f","navn":"\u00D8rumskov","hovedtype":"Bebyggelse","undertype":"spredtBebyggelse","navnestatus":"suAutoriseret","kommuner":["Hedensted"]}},{"type":"Feature","geometry":{"type":"Point","coordinates":[9.91370607,57.20187403]},"properties":{"id":"12337669-a155-6b98-e053-d480220a5a3f","navn":"Skovmark","hovedtype":"Bebyggelse","undertype":"spredtBebyggelse","navnestatus":"suAutoriseret","kommuner":["Aalborg"]}},{"type":"Feature","geometry":{"type":"Point","coordinates":[9.92123702,57.16860247]},"properties":{"id":"12337669-a156-6b98-e053-d480220a5a3f","navn":"S\u00F8nder Elk\u00E6r Mark","hovedtype":"Bebyggelse","undertype":"spredtBebyggelse","navnestatus":"officielt","kommuner":["Jammerbugt","Aalborg"]}},{"type":"Feature","geometry":{"type":"Point","coordinates":[9.97222272,55.81503242]},"properties":{"id":"12337669-a158-6b98-e053-d480220a5a3f","navn":"Bisholt","hovedtype":"Bebyggelse","undertype":"spredtBebyggelse","navnestatus":"officielt","kommuner":["Hedensted"]}},{"type":"Feature","geometry":{"type":"Point","coordinates":[8.95166377,56.19518587]},"properties":{"id":"12337669-a159-6b98-e053-d480220a5a3f","navn":"Tr\u00E6lund","hovedtype":"Bebyggelse","undertype":"spredtBebyggelse","navnestatus":"suAutoriseret","kommuner":["Herning"]}},{"type":"Feature","geometry":{"type":"Point","coordinates":[9.01482868,56.17566016]},"properties":{"id":"12337669-a15b-6b98-e053-d480220a5a3f","navn":"Vr\u00E5","hovedtype":"Bebyggelse","undertype":"spredtBebyggelse","navnestatus":"suAutoriseret","kommuner":["Herning"]}},{"type":"Feature","geometry":{"type":"Point","coordinates":[9.00958825,56.11140938]},"properties":{"id":"12337669-a15d-6b98-e053-d480220a5a3f","navn":"Knudmose Huse","hovedtype":"Bebyggelse","undertype":"spredtBebyggelse","navnestatus":"suAutoriseret","kommuner":["Herning"]}},{"type":"Feature","geometry":{"type":"Point","coordinates":[9.01032703,55.87406023]},"properties":{"id":"12337669-a15e-6b98-e053-d480220a5a3f","navn":"Tr\u00E6lund","hovedtype":"Bebyggelse","undertype":"spredtBebyggelse","navnestatus":"suAutoriseret","kommuner":["Ikast-Brande"]}},{"type":"Feature","geometry":{"type":"Point","coordinates":[9.02691831,56.07804902]},"properties":{"id":"12337669-a15f-6b98-e053-d480220a5a3f","navn":"Slumstrup","hovedtype":"Bebyggelse","undertype":"spredtBebyggelse","navnestatus":"suAutoriseret","kommuner":["Herning"]}},{"type":"Feature","geometry":{"type":"Point","coordinates":[9.01778144,56.03017471]},"properties":{"id":"12337669-a160-6b98-e053-d480220a5a3f","navn":"Skovbjerg","hovedtype":"Bebyggelse","undertype":"spredtBebyggelse","navnestatus":"suAutoriseret","kommuner":["Herning"]}},{"type":"Feature","geometry":{"type":"Point","coordinates":[9.01502603,55.99972455]},"properties":{"id":"12337669-a162-6b98-e053-d480220a5a3f","navn":"Green","hovedtype":"Bebyggelse","undertype":"spredtBebyggelse","navnestatus":"suAutoriseret","kommuner":["Herning","Ikast-Brande"]}},{"type":"Feature","geometry":{"type":"Point","coordinates":[9.00563207,55.98037994]},"properties":{"id":"12337669-a163-6b98-e053-d480220a5a3f","navn":"Sandfeld","hovedtype":"Bebyggelse","undertype":"spredtBebyggelse","navnestatus":"suAutoriseret","kommuner":["Herning","Ikast-Brande"]}},{"type":"Feature","geometry":{"type":"Point","coordinates":[9.02255302,55.94743487]},"properties":{"id":"12337669-a164-6b98-e053-d480220a5a3f","navn":"N\u00F8rrek\u00E6r","hovedtype":"Bebyggelse","undertype":"spredtBebyggelse","navnestatus":"officielt","kommuner":["Ikast-Brande"]}},{"type":"Feature","geometry":{"type":"Point","coordinates":[9.03224749,55.93321366]},"properties":{"id":"12337669-a165-6b98-e053-d480220a5a3f","navn":"K\u00E6rby","hovedtype":"Bebyggelse","undertype":"spredtBebyggelse","navnestatus":"suAutoriseret","kommuner":["Ikast-Brande"]}},{"type":"Feature","geometry":{"type":"Point","coordinates":[8.60473739,56.19882087]},"properties":{"id":"12337669-a166-6b98-e053-d480220a5a3f","navn":"Askov Mark","hovedtype":"Bebyggelse","undertype":"spredtBebyggelse","navnestatus":"suAutoriseret","kommuner":["Herning"]}},{"type":"Feature","geometry":{"type":"Point","coordinates":[8.63669917,56.19429181]},"properties":{"id":"12337669-a167-6b98-e053-d480220a5a3f","navn":"Helmosedal","hovedtype":"Bebyggelse","undertype":"spredtBebyggelse","navnestatus":"suAutoriseret","kommuner":["Herning"]}},{"type":"Feature","geometry":{"type":"Point","coordinates":[8.70855045,56.2029165]},"properties":{"id":"12337669-a168-6b98-e053-d480220a5a3f","navn":"R\u00F8dding","hovedtype":"Bebyggelse","undertype":"spredtBebyggelse","navnestatus":"suAutoriseret","kommuner":["Herning"]}},{"type":"Feature","geometry":{"type":"Point","coordinates":[8.36949363,56.20876643]},"properties":{"id":"12337669-a16a-6b98-e053-d480220a5a3f","navn":"N\u00F8rre Esp","hovedtype":"Bebyggelse","undertype":"spredtBebyggelse","navnestatus":"suAutoriseret","kommuner":["Ringk\u00F8bing-Skjern"]}},{"type":"Feature","geometry":{"type":"Point","coordinates":[9.87982938,56.21035802]},"properties":{"id":"12337669-a16d-6b98-e053-d480220a5a3f","navn":"Farre Hede","hovedtype":"Bebyggelse","undertype":"spredtBebyggelse","navnestatus":"suAutoriseret","kommuner":["Favrskov","Skanderborg"]}},{"type":"Feature","geometry":{"type":"Point","coordinates":[9.87934724,56.22272784]},"properties":{"id":"12337669-a16e-6b98-e053-d480220a5a3f","navn":"Voldby Hede","hovedtype":"Bebyggelse","undertype":"spredtBebyggelse","navnestatus":"suAutoriseret","kommuner":["Favrskov","Skanderborg"]}},{"type":"Feature","geometry":{"type":"Point","coordinates":[9.59531296,56.2160609]},"properties":{"id":"12337669-a170-6b98-e053-d480220a5a3f","navn":"Sortenborg","hovedtype":"Bebyggelse","undertype":"spredtBebyggelse","navnestatus":"suAutoriseret","kommuner":["Silkeborg"]}},{"type":"Feature","geometry":{"type":"Point","coordinates":[9.61222483,56.21917745]},"properties":{"id":"12337669-a171-6b98-e053-d480220a5a3f","navn":"Grauballe Vestermark","hovedtype":"Bebyggelse","undertype":"spredtBebyggelse","navnestatus":"officielt","kommuner":["Silkeborg"]}},{"type":"Feature","geometry":{"type":"Point","coordinates":[8.27336197,56.19455566]},"properties":{"id":"12337669-a172-6b98-e053-d480220a5a3f","navn":"Vester Tim","hovedtype":"Bebyggelse","undertype":"spredtBebyggelse","navnestatus":"suAutoriseret","kommuner":["Holstebro","Ringk\u00F8bing-Skjern"]}},{"type":"Feature","geometry":{"type":"Point","coordinates":[10.82347935,56.33482017]},"properties":{"id":"12337669-a173-6b98-e053-d480220a5a3f","navn":"S\u00F8nder Hom\u00E5","hovedtype":"Bebyggelse","undertype":"spredtBebyggelse","navnestatus":"suAutoriseret","kommuner":["Norddjurs"]}},{"type":"Feature","geometry":{"type":"Point","coordinates":[10.22912214,57.43170034]},"properties":{"id":"12337669-a178-6b98-e053-d480220a5a3f","navn":"Stensb\u00E6k","hovedtype":"Bebyggelse","undertype":"spredtBebyggelse","navnestatus":"suAutoriseret","kommuner":["Hj\u00F8rring"]}},{"type":"Feature","geometry":{"type":"Point","coordinates":[10.81216589,54.90523011]},"properties":{"id":"12337669-a17c-6b98-e053-d480220a5a3f","navn":"N\u00E6bbehuse","hovedtype":"Bebyggelse","undertype":"spredtBebyggelse","navnestatus":"suAutoriseret","kommuner":["Langeland"]}},{"type":"Feature","geometry":{"type":"Point","coordinates":[9.91942018,56.19563827]},"properties":{"id":"12337669-a17d-6b98-e053-d480220a5a3f","navn":"Lille Sjelle","hovedtype":"Bebyggelse","undertype":"spredtBebyggelse","navnestatus":"officielt","kommuner":["Skanderborg"]}},{"type":"Feature","geometry":{"type":"Point","coordinates":[9.7197732,55.80024637]},"properties":{"id":"12337669-a183-6b98-e053-d480220a5a3f","navn":"Stubberup \u00D8stermark","hovedtype":"Bebyggelse","undertype":"spredtBebyggelse","navnestatus":"suAutoriseret","kommuner":["Hedensted"]}},{"type":"Feature","geometry":{"type":"Point","coordinates":[9.91385908,55.810786]},"properties":{"id":"12337669-a184-6b98-e053-d480220a5a3f","navn":"Sejet S\u00F8ndermark","hovedtype":"Bebyggelse","undertype":"spredtBebyggelse","navnestatus":"officielt","kommuner":["Horsens","Hedensted"]}},{"type":"Feature","geometry":{"type":"Point","coordinates":[9.30177945,55.80068371]},"properties":{"id":"12337669-a185-6b98-e053-d480220a5a3f","navn":"Skolding","hovedtype":"Bebyggelse","undertype":"spredtBebyggelse","navnestatus":"suAutoriseret","kommuner":["Vejle"]}},{"type":"Feature","geometry":{"type":"Point","coordinates":[10.63200753,55.80445354]},"properties":{"id":"12337669-a18b-6b98-e053-d480220a5a3f","navn":"Brundbymark","hovedtype":"Bebyggelse","undertype":"spredtBebyggelse","navnestatus":"suAutoriseret","kommuner":["Sams\u00F8"]}},{"type":"Feature","geometry":{"type":"Point","coordinates":[9.33505801,56.21920509]},"properties":{"id":"12337669-a18d-6b98-e053-d480220a5a3f","navn":"Vester Christiansh\u00F8j","hovedtype":"Bebyggelse","undertype":"spredtBebyggelse","navnestatus":"suAutoriseret","kommuner":["Silkeborg","Ikast-Brande"]}},{"type":"Feature","geometry":{"type":"Point","coordinates":[9.93859006,54.87428249]},"properties":{"id":"12337669-a18e-6b98-e053-d480220a5a3f","navn":"B\u00F8ghoved","hovedtype":"Bebyggelse","undertype":"spredtBebyggelse","navnestatus":"suAutoriseret","kommuner":["S\u00F8nderborg"]}},{"type":"Feature","geometry":{"type":"Point","coordinates":[9.56133302,56.20793914]},"properties":{"id":"12337669-a18f-6b98-e053-d480220a5a3f","navn":"Bj\u00F8rnholt","hovedtype":"Bebyggelse","undertype":"spredtBebyggelse","navnestatus":"suAutoriseret","kommuner":["Silkeborg"]}},{"type":"Feature","geometry":{"type":"Point","coordinates":[9.57660404,56.21099574]},"properties":{"id":"12337669-a190-6b98-e053-d480220a5a3f","navn":"Nisset S\u00F8nderhede","hovedtype":"Bebyggelse","undertype":"spredtBebyggelse","navnestatus":"suAutoriseret","kommuner":["Silkeborg"]}},{"type":"Feature","geometry":{"type":"Point","coordinates":[9.08359964,56.20548983]},"properties":{"id":"12337669-a191-6b98-e053-d480220a5a3f","navn":"\u00D8stermark","hovedtype":"Bebyggelse","undertype":"spredtBebyggelse","navnestatus":"suAutoriseret","kommuner":["Herning","Ikast-Brande"]}},{"type":"Feature","geometry":{"type":"Point","coordinates":[9.20672037,56.19611635]},"properties":{"id":"12337669-a192-6b98-e053-d480220a5a3f","navn":"Stubk\u00E6r","hovedtype":"Bebyggelse","undertype":"spredtBebyggelse","navnestatus":"suAutoriseret","kommuner":["Ikast-Brande"]}},{"type":"Feature","geometry":{"type":"Point","coordinates":[9.04053567,55.64273432]},"properties":{"id":"12337669-a194-6b98-e053-d480220a5a3f","navn":"Rankenbjerg","hovedtype":"Bebyggelse","undertype":"spredtBebyggelse","navnestatus":"suAutoriseret","kommuner":["Billund"]}},{"type":"Feature","geometry":{"type":"Point","coordinates":[11.72250659,55.5724129]},"properties":{"id":"12337669-a196-6b98-e053-d480220a5a3f","navn":"Holtehuse","hovedtype":"Bebyggelse","undertype":"spredtBebyggelse","navnestatus":"suAutoriseret","kommuner":["Holb\u00E6k"]}},{"type":"Feature","geometry":{"type":"Point","coordinates":[11.70740505,55.45331058]},"properties":{"id":"12337669-a198-6b98-e053-d480220a5a3f","navn":"Egerup","hovedtype":"Bebyggelse","undertype":"spredtBebyggelse","navnestatus":"suAutoriseret","kommuner":["Ringsted","Sor\u00F8"]}},{"type":"Feature","geometry":{"type":"Point","coordinates":[9.05075244,55.80178287]},"properties":{"id":"12337669-a19d-6b98-e053-d480220a5a3f","navn":"Filskov Mark","hovedtype":"Bebyggelse","undertype":"spredtBebyggelse","navnestatus":"officielt","kommuner":["Billund","Vejle"]}},{"type":"Feature","geometry":{"type":"Point","coordinates":[9.07352048,55.80307235]},"properties":{"id":"12337669-a1a0-6b98-e053-d480220a5a3f","navn":"Egsg\u00E5rd","hovedtype":"Bebyggelse","undertype":"spredtBebyggelse","navnestatus":"suAutoriseret","kommuner":["Billund","Vejle"]}},{"type":"Feature","geometry":{"type":"Point","coordinates":[9.61230381,55.80336764]},"properties":{"id":"12337669-a1a2-6b98-e053-d480220a5a3f","navn":"Kragelund F\u00E6lled","hovedtype":"Bebyggelse","undertype":"spredtBebyggelse","navnestatus":"suAutoriseret","kommuner":["Hedensted"]}},{"type":"Feature","geometry":{"type":"Point","coordinates":[9.92575022,55.80395569]},"properties":{"id":"12337669-a1a3-6b98-e053-d480220a5a3f","navn":"Skjold Vestermark","hovedtype":"Bebyggelse","undertype":"spredtBebyggelse","navnestatus":"officielt","kommuner":["Horsens","Hedensted"]}},{"type":"Feature","geometry":{"type":"Point","coordinates":[9.93527123,55.7214463]},"properties":{"id":"12337669-a1a5-6b98-e053-d480220a5a3f","navn":"Vesterager","hovedtype":"Bebyggelse","undertype":"spredtBebyggelse","navnestatus":"suAutoriseret","kommuner":["Hedensted"]}},{"type":"Feature","geometry":{"type":"Point","coordinates":[9.92746428,55.75474621]},"properties":{"id":"12337669-a1a6-6b98-e053-d480220a5a3f","navn":"Klejs Vestermark","hovedtype":"Bebyggelse","undertype":"spredtBebyggelse","navnestatus":"suAutoriseret","kommuner":["Hedensted"]}},{"type":"Feature","geometry":{"type":"Point","coordinates":[9.91401631,55.71761605]},"properties":{"id":"12337669-a1a7-6b98-e053-d480220a5a3f","navn":"Gramtange","hovedtype":"Bebyggelse","undertype":"spredtBebyggelse","navnestatus":"suAutoriseret","kommuner":["Hedensted"]}},{"type":"Feature","geometry":{"type":"Point","coordinates":[9.03742548,55.47279826]},"properties":{"id":"12337669-a1ab-6b98-e053-d480220a5a3f","navn":"Langeskov","hovedtype":"Bebyggelse","undertype":"spredtBebyggelse","navnestatus":"suAutoriseret","kommuner":["Vejen"]}},{"type":"Feature","geometry":{"type":"Point","coordinates":[9.05831259,55.40296121]},"properties":{"id":"12337669-a1ac-6b98-e053-d480220a5a3f","navn":"Hjertingskov","hovedtype":"Bebyggelse","undertype":"spredtBebyggelse","navnestatus":"suAutoriseret","kommuner":["Vejen"]}},{"type":"Feature","geometry":{"type":"Point","coordinates":[8.28466376,55.79445683]},"properties":{"id":"12337669-a1ad-6b98-e053-d480220a5a3f","navn":"Forager","hovedtype":"Bebyggelse","undertype":"spredtBebyggelse","navnestatus":"suAutoriseret","kommuner":["Varde","Ringk\u00F8bing-Skjern"]}},{"type":"Feature","geometry":{"type":"Point","coordinates":[9.24567438,55.40481061]},"properties":{"id":"12337669-a1af-6b98-e053-d480220a5a3f","navn":"Bastrup Mark","hovedtype":"Bebyggelse","undertype":"spredtBebyggelse","navnestatus":"officielt","kommuner":["Vejen","Kolding"]}},{"type":"Feature","geometry":{"type":"Point","coordinates":[11.73108931,55.58119146]},"properties":{"id":"12337669-a1b3-6b98-e053-d480220a5a3f","navn":"Enghaveg\u00E5rdene","hovedtype":"Bebyggelse","undertype":"spredtBebyggelse","navnestatus":"officielt","kommuner":["Holb\u00E6k"]}},{"type":"Feature","geometry":{"type":"Point","coordinates":[9.0310032,55.271538]},"properties":{"id":"12337669-a1b4-6b98-e053-d480220a5a3f","navn":"Tiset \u00D8stermark","hovedtype":"Bebyggelse","undertype":"spredtBebyggelse","navnestatus":"officielt","kommuner":["Haderslev"]}},{"type":"Feature","geometry":{"type":"Point","coordinates":[14.70494983,55.12212034]},"properties":{"id":"12337669-a1b5-6b98-e053-d480220a5a3f","navn":"Blykobbe Plantage","hovedtype":"Bebyggelse","undertype":"spredtBebyggelse","navnestatus":"suAutoriseret","kommuner":["Bornholm"]}},{"type":"Feature","geometry":{"type":"Point","coordinates":[9.05337506,55.24941256]},"properties":{"id":"12337669-a1b6-6b98-e053-d480220a5a3f","navn":"Kastrup Enge","hovedtype":"Bebyggelse","undertype":"spredtBebyggelse","navnestatus":"suAutoriseret","kommuner":["Haderslev","T\u00F8nder"]}},{"type":"Feature","geometry":{"type":"Point","coordinates":[9.04667616,55.34186945]},"properties":{"id":"12337669-a1b7-6b98-e053-d480220a5a3f","navn":"Hundeb\u00F8l","hovedtype":"Bebyggelse","undertype":"spredtBebyggelse","navnestatus":"suAutoriseret","kommuner":["Vejen"]}},{"type":"Feature","geometry":{"type":"Point","coordinates":[9.20310355,55.38801498]},"properties":{"id":"12337669-a1b8-6b98-e053-d480220a5a3f","navn":"Jelsskov","hovedtype":"Bebyggelse","undertype":"spredtBebyggelse","navnestatus":"suAutoriseret","kommuner":["Vejen","Kolding"]}},{"type":"Feature","geometry":{"type":"Point","coordinates":[9.18177489,55.399534]},"properties":{"id":"12337669-a1b9-6b98-e053-d480220a5a3f","navn":"Skodborgskov","hovedtype":"Bebyggelse","undertype":"spredtBebyggelse","navnestatus":"suAutoriseret","kommuner":["Vejen"]}},{"type":"Feature","geometry":{"type":"Point","coordinates":[9.14669484,55.39872793]},"properties":{"id":"12337669-a1ba-6b98-e053-d480220a5a3f","navn":"Basholt Huse","hovedtype":"Bebyggelse","undertype":"spredtBebyggelse","navnestatus":"suAutoriseret","kommuner":["Vejen"]}},{"type":"Feature","geometry":{"type":"Point","coordinates":[9.04518997,55.37898914]},"properties":{"id":"12337669-a1bb-6b98-e053-d480220a5a3f","navn":"R\u00F8dding Vestermark","hovedtype":"Bebyggelse","undertype":"spredtBebyggelse","navnestatus":"suAutoriseret","kommuner":["Vejen"]}},{"type":"Feature","geometry":{"type":"Point","coordinates":[9.04345924,55.32035188]},"properties":{"id":"12337669-a1bc-6b98-e053-d480220a5a3f","navn":"Hindballe","hovedtype":"Bebyggelse","undertype":"spredtBebyggelse","navnestatus":"suAutoriseret","kommuner":["Haderslev","Vejen"]}},{"type":"Feature","geometry":{"type":"Point","coordinates":[8.89524305,55.39135678]},"properties":{"id":"12337669-a1be-6b98-e053-d480220a5a3f","navn":"Bavng\u00E5rd","hovedtype":"Bebyggelse","undertype":"spredtBebyggelse","navnestatus":"suAutoriseret","kommuner":["Esbjerg","Vejen"]}},{"type":"Feature","geometry":{"type":"Point","coordinates":[9.04636778,55.01357417]},"properties":{"id":"12337669-a1bf-6b98-e053-d480220a5a3f","navn":"Alslev Vr\u00E5","hovedtype":"Bebyggelse","undertype":"spredtBebyggelse","navnestatus":"suAutoriseret","kommuner":["T\u00F8nder"]}},{"type":"Feature","geometry":{"type":"Point","coordinates":[9.23525261,54.9964009]},"properties":{"id":"12337669-a1c2-6b98-e053-d480220a5a3f","navn":"Raved Mark","hovedtype":"Bebyggelse","undertype":"spredtBebyggelse","navnestatus":"suAutoriseret","kommuner":["Aabenraa"]}},{"type":"Feature","geometry":{"type":"Point","coordinates":[9.53987903,54.99734826]},"properties":{"id":"12337669-a1c4-6b98-e053-d480220a5a3f","navn":"V\u00E6lk\u00E6r","hovedtype":"Bebyggelse","undertype":"spredtBebyggelse","navnestatus":"suAutoriseret","kommuner":["Aabenraa"]}},{"type":"Feature","geometry":{"type":"Point","coordinates":[9.65615771,54.99905991]},"properties":{"id":"12337669-a1c5-6b98-e053-d480220a5a3f","navn":"Blans N\u00F8rremark","hovedtype":"Bebyggelse","undertype":"spredtBebyggelse","navnestatus":"suAutoriseret","kommuner":["S\u00F8nderborg"]}},{"type":"Feature","geometry":{"type":"Point","coordinates":[9.04422098,55.18551985]},"properties":{"id":"12337669-a1c7-6b98-e053-d480220a5a3f","navn":"Kirkeh\u00F8j","hovedtype":"Bebyggelse","undertype":"spredtBebyggelse","navnestatus":"suAutoriseret","kommuner":["T\u00F8nder"]}},{"type":"Feature","geometry":{"type":"Point","coordinates":[9.0419277,55.17880083]},"properties":{"id":"12337669-a1c8-6b98-e053-d480220a5a3f","navn":"Pugh\u00F8j","hovedtype":"Bebyggelse","undertype":"spredtBebyggelse","navnestatus":"suAutoriseret","kommuner":["T\u00F8nder"]}},{"type":"Feature","geometry":{"type":"Point","coordinates":[9.0458502,55.02483083]},"properties":{"id":"12337669-a1c9-6b98-e053-d480220a5a3f","navn":"Alslev over \u00C5en","hovedtype":"Bebyggelse","undertype":"spredtBebyggelse","navnestatus":"suAutoriseret","kommuner":["T\u00F8nder"]}},{"type":"Feature","geometry":{"type":"Point","coordinates":[8.79780277,54.98830378]},"properties":{"id":"12337669-a1cb-6b98-e053-d480220a5a3f","navn":"G\u00E6rup Mark","hovedtype":"Bebyggelse","undertype":"spredtBebyggelse","navnestatus":"suAutoriseret","kommuner":["T\u00F8nder"]}},{"type":"Feature","geometry":{"type":"Point","coordinates":[8.98261444,54.99193316]},"properties":{"id":"12337669-a1ce-6b98-e053-d480220a5a3f","navn":"Ellehus \u00D8stermark","hovedtype":"Bebyggelse","undertype":"spredtBebyggelse","navnestatus":"suAutoriseret","kommuner":["T\u00F8nder"]}},{"type":"Feature","geometry":{"type":"Point","coordinates":[8.96961896,54.9909137]},"properties":{"id":"12337669-a1d0-6b98-e053-d480220a5a3f","navn":"Ellehus","hovedtype":"Bebyggelse","undertype":"spredtBebyggelse","navnestatus":"suAutoriseret","kommuner":["T\u00F8nder"]}},{"type":"Feature","geometry":{"type":"Point","coordinates":[8.90464842,54.98964258]},"properties":{"id":"12337669-a1d1-6b98-e053-d480220a5a3f","navn":"Brodersg\u00E5rd Mark","hovedtype":"Bebyggelse","undertype":"spredtBebyggelse","navnestatus":"suAutoriseret","kommuner":["T\u00F8nder"]}},{"type":"Feature","geometry":{"type":"Point","coordinates":[8.88203257,54.99211689]},"properties":{"id":"12337669-a1d2-6b98-e053-d480220a5a3f","navn":"N\u00F8rre Abild","hovedtype":"Bebyggelse","undertype":"spredtBebyggelse","navnestatus":"suAutoriseret","kommuner":["T\u00F8nder"]}},{"type":"Feature","geometry":{"type":"Point","coordinates":[8.84100247,54.99055564]},"properties":{"id":"12337669-a1d3-6b98-e053-d480220a5a3f","navn":"Abild Mark","hovedtype":"Bebyggelse","undertype":"spredtBebyggelse","navnestatus":"suAutoriseret","kommuner":["T\u00F8nder"]}},{"type":"Feature","geometry":{"type":"Point","coordinates":[9.93717894,54.92996239]},"properties":{"id":"12337669-a1d5-6b98-e053-d480220a5a3f","navn":"Majb\u00F8l L\u00F8kke","hovedtype":"Bebyggelse","undertype":"spredtBebyggelse","navnestatus":"suAutoriseret","kommuner":["S\u00F8nderborg"]}},{"type":"Feature","geometry":{"type":"Point","coordinates":[11.72794533,55.83582595]},"properties":{"id":"12337669-a1dd-6b98-e053-d480220a5a3f","navn":"Gr\u00F8nlandshuse","hovedtype":"Bebyggelse","undertype":"spredtBebyggelse","navnestatus":"suAutoriseret","kommuner":["Odsherred"]}},{"type":"Feature","geometry":{"type":"Point","coordinates":[11.41983991,55.80800967]},"properties":{"id":"12337669-a1de-6b98-e053-d480220a5a3f","navn":"Linderup","hovedtype":"Bebyggelse","undertype":"spredtBebyggelse","navnestatus":"suAutoriseret","kommuner":["Odsherred"]}},{"type":"Feature","geometry":{"type":"Point","coordinates":[11.41078242,55.80862924]},"properties":{"id":"12337669-a1df-6b98-e053-d480220a5a3f","navn":"\u00C5shuse","hovedtype":"Bebyggelse","undertype":"spredtBebyggelse","navnestatus":"suAutoriseret","kommuner":["Odsherred"]}},{"type":"Feature","geometry":{"type":"Point","coordinates":[12.18748969,55.7983751]},"properties":{"id":"12337669-a1e1-6b98-e053-d480220a5a3f","navn":"Tostedmark","hovedtype":"Bebyggelse","undertype":"spredtBebyggelse","navnestatus":"suAutoriseret","kommuner":["Egedal"]}},{"type":"Feature","geometry":{"type":"Point","coordinates":[11.40066034,55.8066795]},"properties":{"id":"12337669-a1e8-6b98-e053-d480220a5a3f","navn":"Stubberup Huse","hovedtype":"Bebyggelse","undertype":"spredtBebyggelse","navnestatus":"officielt","kommuner":["Odsherred"]}},{"type":"Feature","geometry":{"type":"Point","coordinates":[12.09533405,55.80092614]},"properties":{"id":"12337669-a1e9-6b98-e053-d480220a5a3f","navn":"Viermose","hovedtype":"Bebyggelse","undertype":"spredtBebyggelse","navnestatus":"suAutoriseret","kommuner":["Frederikssund"]}},{"type":"Feature","geometry":{"type":"Point","coordinates":[9.60322097,56.62134653]},"properties":{"id":"12337669-a1ea-6b98-e053-d480220a5a3f","navn":"Fristrup N\u00F8rremark","hovedtype":"Bebyggelse","undertype":"spredtBebyggelse","navnestatus":"officielt","kommuner":["Viborg"]}},{"type":"Feature","geometry":{"type":"Point","coordinates":[8.89703069,54.97490232]},"properties":{"id":"12337669-a1fc-6b98-e053-d480220a5a3f","navn":"S\u00F8nder Vennemose","hovedtype":"Bebyggelse","undertype":"spredtBebyggelse","navnestatus":"suAutoriseret","kommuner":["T\u00F8nder"]}},{"type":"Feature","geometry":{"type":"Point","coordinates":[8.9800826,54.97784984]},"properties":{"id":"12337669-a1fd-6b98-e053-d480220a5a3f","navn":"Adelvad","hovedtype":"Bebyggelse","undertype":"spredtBebyggelse","navnestatus":"suAutoriseret","kommuner":["T\u00F8nder"]}},{"type":"Feature","geometry":{"type":"Point","coordinates":[8.99169227,54.97360555]},"properties":{"id":"12337669-a1ff-6b98-e053-d480220a5a3f","navn":"B\u00F8gvad Mark","hovedtype":"Bebyggelse","undertype":"spredtBebyggelse","navnestatus":"officielt","kommuner":["T\u00F8nder"]}},{"type":"Feature","geometry":{"type":"Point","coordinates":[8.95171924,54.97623393]},"properties":{"id":"12337669-a201-6b98-e053-d480220a5a3f","navn":"Emmerske Bjerg","hovedtype":"Bebyggelse","undertype":"spredtBebyggelse","navnestatus":"suAutoriseret","kommuner":["T\u00F8nder"]}},{"type":"Feature","geometry":{"type":"Point","coordinates":[8.9810238,54.92479344]},"properties":{"id":"12337669-a205-6b98-e053-d480220a5a3f","navn":"Jejsing Mark","hovedtype":"Bebyggelse","undertype":"spredtBebyggelse","navnestatus":"suAutoriseret","kommuner":["T\u00F8nder"]}},{"type":"Feature","geometry":{"type":"Point","coordinates":[9.03796133,54.952331]},"properties":{"id":"12337669-a206-6b98-e053-d480220a5a3f","navn":"Lund Mark","hovedtype":"Bebyggelse","undertype":"spredtBebyggelse","navnestatus":"suAutoriseret","kommuner":["T\u00F8nder","Aabenraa"]}},{"type":"Feature","geometry":{"type":"Point","coordinates":[9.00674709,54.94661592]},"properties":{"id":"12337669-a20b-6b98-e053-d480220a5a3f","navn":"Solderup Mark","hovedtype":"Bebyggelse","undertype":"spredtBebyggelse","navnestatus":"suAutoriseret","kommuner":["T\u00F8nder"]}},{"type":"Feature","geometry":{"type":"Point","coordinates":[9.03575534,54.93543923]},"properties":{"id":"12337669-a20c-6b98-e053-d480220a5a3f","navn":"Stemmild","hovedtype":"Bebyggelse","undertype":"spredtBebyggelse","navnestatus":"suAutoriseret","kommuner":["T\u00F8nder","Aabenraa"]}},{"type":"Feature","geometry":{"type":"Point","coordinates":[8.93745092,54.9432872]},"properties":{"id":"12337669-a20e-6b98-e053-d480220a5a3f","navn":"Tidsholm","hovedtype":"Bebyggelse","undertype":"spredtBebyggelse","navnestatus":"suAutoriseret","kommuner":["T\u00F8nder"]}},{"type":"Feature","geometry":{"type":"Point","coordinates":[8.94484224,54.98494857]},"properties":{"id":"12337669-a20f-6b98-e053-d480220a5a3f","navn":"Travsted","hovedtype":"Bebyggelse","undertype":"spredtBebyggelse","navnestatus":"suAutoriseret","kommuner":["T\u00F8nder"]}},{"type":"Feature","geometry":{"type":"Point","coordinates":[9.03441443,54.98725774]},"properties":{"id":"12337669-a211-6b98-e053-d480220a5a3f","navn":"Tr\u00E6holm","hovedtype":"Bebyggelse","undertype":"spredtBebyggelse","navnestatus":"suAutoriseret","kommuner":["T\u00F8nder"]}},{"type":"Feature","geometry":{"type":"Point","coordinates":[8.99892177,54.93352616]},"properties":{"id":"12337669-a212-6b98-e053-d480220a5a3f","navn":"Store T\u00F8nde","hovedtype":"Bebyggelse","undertype":"spredtBebyggelse","navnestatus":"officielt","kommuner":["T\u00F8nder","Aabenraa"]}},{"type":"Feature","geometry":{"type":"Point","coordinates":[8.86998144,54.90349064]},"properties":{"id":"12337669-a214-6b98-e053-d480220a5a3f","navn":"Bremsb\u00F8l","hovedtype":"Bebyggelse","undertype":"spredtBebyggelse","navnestatus":"suAutoriseret","kommuner":["T\u00F8nder"]}},{"type":"Feature","geometry":{"type":"Point","coordinates":[8.87801235,54.91703352]},"properties":{"id":"12337669-a216-6b98-e053-d480220a5a3f","navn":"S\u00E6d Mark","hovedtype":"Bebyggelse","undertype":"spredtBebyggelse","navnestatus":"suAutoriseret","kommuner":["T\u00F8nder"]}},{"type":"Feature","geometry":{"type":"Point","coordinates":[9.00631859,54.91402799]},"properties":{"id":"12337669-a218-6b98-e053-d480220a5a3f","navn":"Gr\u00F8ng\u00E5rd Mark","hovedtype":"Bebyggelse","undertype":"spredtBebyggelse","navnestatus":"suAutoriseret","kommuner":["T\u00F8nder","Aabenraa"]}},{"type":"Feature","geometry":{"type":"Point","coordinates":[8.9014538,54.98958759]},"properties":{"id":"12337669-a21b-6b98-e053-d480220a5a3f","navn":"Brodersg\u00E5rd","hovedtype":"Bebyggelse","undertype":"spredtBebyggelse","navnestatus":"suAutoriseret","kommuner":["T\u00F8nder"]}},{"type":"Feature","geometry":{"type":"Point","coordinates":[8.74339308,54.94765827]},"properties":{"id":"12337669-a221-6b98-e053-d480220a5a3f","navn":"H\u00F8jer Kog","hovedtype":"Bebyggelse","undertype":"spredtBebyggelse","navnestatus":"suAutoriseret","kommuner":["T\u00F8nder"]}},{"type":"Feature","geometry":{"type":"Point","coordinates":[8.71414917,54.98313254]},"properties":{"id":"12337669-a227-6b98-e053-d480220a5a3f","navn":"K\u00E6rg\u00E5rd","hovedtype":"Bebyggelse","undertype":"spredtBebyggelse","navnestatus":"suAutoriseret","kommuner":["T\u00F8nder"]}},{"type":"Feature","geometry":{"type":"Point","coordinates":[8.73499251,54.91414489]},"properties":{"id":"12337669-a229-6b98-e053-d480220a5a3f","navn":"Ved Gaden","hovedtype":"Bebyggelse","undertype":"spredtBebyggelse","navnestatus":"suAutoriseret","kommuner":["T\u00F8nder"]}},{"type":"Feature","geometry":{"type":"Point","coordinates":[8.78906309,54.90689775]},"properties":{"id":"12337669-a232-6b98-e053-d480220a5a3f","navn":"Gammeldige","hovedtype":"Bebyggelse","undertype":"spredtBebyggelse","navnestatus":"suAutoriseret","kommuner":["T\u00F8nder"]}},{"type":"Feature","geometry":{"type":"Point","coordinates":[8.80074846,54.97962324]},"properties":{"id":"12337669-a234-6b98-e053-d480220a5a3f","navn":"\u00D8sterby Mark","hovedtype":"Bebyggelse","undertype":"spredtBebyggelse","navnestatus":"suAutoriseret","kommuner":["T\u00F8nder"]}},{"type":"Feature","geometry":{"type":"Point","coordinates":[8.77679689,54.91088473]},"properties":{"id":"12337669-a23a-6b98-e053-d480220a5a3f","navn":"Ved \u00C5en","hovedtype":"Bebyggelse","undertype":"spredtBebyggelse","navnestatus":"suAutoriseret","kommuner":["T\u00F8nder"]}},{"type":"Feature","geometry":{"type":"Point","coordinates":[8.67331831,54.91436531]},"properties":{"id":"12337669-a23b-6b98-e053-d480220a5a3f","navn":"Siltoft","hovedtype":"Bebyggelse","undertype":"spredtBebyggelse","navnestatus":"suAutoriseret","kommuner":["T\u00F8nder"]}},{"type":"Feature","geometry":{"type":"Point","coordinates":[8.7151869,54.93604072]},"properties":{"id":"12337669-a23f-6b98-e053-d480220a5a3f","navn":"H\u00F8jer Dige","hovedtype":"Bebyggelse","undertype":"spredtBebyggelse","navnestatus":"suAutoriseret","kommuner":["T\u00F8nder"]}},{"type":"Feature","geometry":{"type":"Point","coordinates":[8.79554729,54.96336956]},"properties":{"id":"12337669-a241-6b98-e053-d480220a5a3f","navn":"S\u00F8nderhede","hovedtype":"Bebyggelse","undertype":"spredtBebyggelse","navnestatus":"suAutoriseret","kommuner":["T\u00F8nder"]}},{"type":"Feature","geometry":{"type":"Point","coordinates":[8.81372943,54.98067812]},"properties":{"id":"12337669-a242-6b98-e053-d480220a5a3f","navn":"Hegning","hovedtype":"Bebyggelse","undertype":"spredtBebyggelse","navnestatus":"suAutoriseret","kommuner":["T\u00F8nder"]}},{"type":"Feature","geometry":{"type":"Point","coordinates":[8.70195439,54.97815903]},"properties":{"id":"12337669-a244-6b98-e053-d480220a5a3f","navn":"Tusborg","hovedtype":"Bebyggelse","undertype":"spredtBebyggelse","navnestatus":"suAutoriseret","kommuner":["T\u00F8nder"]}},{"type":"Feature","geometry":{"type":"Point","coordinates":[8.86251843,55.28853147]},"properties":{"id":"12337669-a24b-6b98-e053-d480220a5a3f","navn":"Snepsg\u00E5rde","hovedtype":"Bebyggelse","undertype":"spredtBebyggelse","navnestatus":"suAutoriseret","kommuner":["Esbjerg"]}},{"type":"Feature","geometry":{"type":"Point","coordinates":[8.89710519,55.28755975]},"properties":{"id":"12337669-a24c-6b98-e053-d480220a5a3f","navn":"Varminglund","hovedtype":"Bebyggelse","undertype":"spredtBebyggelse","navnestatus":"suAutoriseret","kommuner":["Haderslev","Esbjerg"]}},{"type":"Feature","geometry":{"type":"Point","coordinates":[8.9547035,55.296039]},"properties":{"id":"12337669-a24d-6b98-e053-d480220a5a3f","navn":"Storlund","hovedtype":"Bebyggelse","undertype":"spredtBebyggelse","navnestatus":"suAutoriseret","kommuner":["Haderslev"]}},{"type":"Feature","geometry":{"type":"Point","coordinates":[8.84077407,55.29668379]},"properties":{"id":"12337669-a24e-6b98-e053-d480220a5a3f","navn":"Favrlund","hovedtype":"Bebyggelse","undertype":"spredtBebyggelse","navnestatus":"suAutoriseret","kommuner":["Esbjerg"]}},{"type":"Feature","geometry":{"type":"Point","coordinates":[8.8297769,55.30990636]},"properties":{"id":"12337669-a24f-6b98-e053-d480220a5a3f","navn":"Seem","hovedtype":"Bebyggelse","undertype":"spredtBebyggelse","navnestatus":"suAutoriseret","kommuner":["Esbjerg"]}},{"type":"Feature","geometry":{"type":"Point","coordinates":[9.02085315,55.30154762]},"properties":{"id":"12337669-a250-6b98-e053-d480220a5a3f","navn":"Hornsg\u00E5rd Mark","hovedtype":"Bebyggelse","undertype":"spredtBebyggelse","navnestatus":"suAutoriseret","kommuner":["Haderslev"]}},{"type":"Feature","geometry":{"type":"Point","coordinates":[8.80876207,55.25186814]},"properties":{"id":"12337669-a252-6b98-e053-d480220a5a3f","navn":"Lille Roager","hovedtype":"Bebyggelse","undertype":"spredtBebyggelse","navnestatus":"suAutoriseret","kommuner":["Esbjerg"]}},{"type":"Feature","geometry":{"type":"Point","coordinates":[8.73480985,55.29510803]},"properties":{"id":"12337669-a253-6b98-e053-d480220a5a3f","navn":"N\u00F8rre Tr\u00E6k\u00E6r","hovedtype":"Bebyggelse","undertype":"spredtBebyggelse","navnestatus":"suAutoriseret","kommuner":["Esbjerg"]}},{"type":"Feature","geometry":{"type":"Point","coordinates":[8.82769246,55.34401264]},"properties":{"id":"12337669-a254-6b98-e053-d480220a5a3f","navn":"Bjergskifter","hovedtype":"Bebyggelse","undertype":"spredtBebyggelse","navnestatus":"officielt","kommuner":["Esbjerg"]}},{"type":"Feature","geometry":{"type":"Point","coordinates":[8.88554553,55.36012727]},"properties":{"id":"12337669-a255-6b98-e053-d480220a5a3f","navn":"F\u00E6sted Hede","hovedtype":"Bebyggelse","undertype":"spredtBebyggelse","navnestatus":"suAutoriseret","kommuner":["Esbjerg","Vejen"]}},{"type":"Feature","geometry":{"type":"Point","coordinates":[8.8680926,55.35972626]},"properties":{"id":"12337669-a256-6b98-e053-d480220a5a3f","navn":"Horslund","hovedtype":"Bebyggelse","undertype":"spredtBebyggelse","navnestatus":"suAutoriseret","kommuner":["Esbjerg"]}},{"type":"Feature","geometry":{"type":"Point","coordinates":[8.8897543,55.34951428]},"properties":{"id":"12337669-a258-6b98-e053-d480220a5a3f","navn":"Kamp","hovedtype":"Bebyggelse","undertype":"spredtBebyggelse","navnestatus":"suAutoriseret","kommuner":["Esbjerg","Vejen"]}},{"type":"Feature","geometry":{"type":"Point","coordinates":[8.82804636,55.33701398]},"properties":{"id":"12337669-a25a-6b98-e053-d480220a5a3f","navn":"Tved Huse","hovedtype":"Bebyggelse","undertype":"spredtBebyggelse","navnestatus":"suAutoriseret","kommuner":["Esbjerg"]}},{"type":"Feature","geometry":{"type":"Point","coordinates":[8.83057115,55.348961]},"properties":{"id":"12337669-a25b-6b98-e053-d480220a5a3f","navn":"Vesterenge","hovedtype":"Bebyggelse","undertype":"spredtBebyggelse","navnestatus":"suAutoriseret","kommuner":["Esbjerg"]}},{"type":"Feature","geometry":{"type":"Point","coordinates":[8.94497887,55.34920731]},"properties":{"id":"12337669-a25d-6b98-e053-d480220a5a3f","navn":"F\u00E6sted","hovedtype":"Bebyggelse","undertype":"spredtBebyggelse","navnestatus":"suAutoriseret","kommuner":["Vejen"]}},{"type":"Feature","geometry":{"type":"Point","coordinates":[8.93381297,55.35834629]},"properties":{"id":"12337669-a25e-6b98-e053-d480220a5a3f","navn":"F\u00E6sted Mark","hovedtype":"Bebyggelse","undertype":"spredtBebyggelse","navnestatus":"officielt","kommuner":["Vejen"]}},{"type":"Feature","geometry":{"type":"Point","coordinates":[8.98408034,55.37089]},"properties":{"id":"12337669-a260-6b98-e053-d480220a5a3f","navn":"Hygum Gammelmark","hovedtype":"Bebyggelse","undertype":"spredtBebyggelse","navnestatus":"suAutoriseret","kommuner":["Vejen"]}},{"type":"Feature","geometry":{"type":"Point","coordinates":[8.92531858,55.38768065]},"properties":{"id":"12337669-a262-6b98-e053-d480220a5a3f","navn":"Hjortvad","hovedtype":"Bebyggelse","undertype":"spredtBebyggelse","navnestatus":"suAutoriseret","kommuner":["Esbjerg","Vejen"]}},{"type":"Feature","geometry":{"type":"Point","coordinates":[8.96616127,55.34707828]},"properties":{"id":"12337669-a263-6b98-e053-d480220a5a3f","navn":"Holm","hovedtype":"Bebyggelse","undertype":"spredtBebyggelse","navnestatus":"suAutoriseret","kommuner":["Vejen"]}},{"type":"Feature","geometry":{"type":"Point","coordinates":[9.00695618,55.34069922]},"properties":{"id":"12337669-a265-6b98-e053-d480220a5a3f","navn":"Hygumskov","hovedtype":"Bebyggelse","undertype":"spredtBebyggelse","navnestatus":"suAutoriseret","kommuner":["Haderslev","Vejen"]}},{"type":"Feature","geometry":{"type":"Point","coordinates":[8.91275049,55.34492882]},"properties":{"id":"12337669-a266-6b98-e053-d480220a5a3f","navn":"Kamtrup","hovedtype":"Bebyggelse","undertype":"spredtBebyggelse","navnestatus":"suAutoriseret","kommuner":["Esbjerg","Vejen"]}},{"type":"Feature","geometry":{"type":"Point","coordinates":[8.94627275,55.38637962]},"properties":{"id":"12337669-a267-6b98-e053-d480220a5a3f","navn":"Kastbjerg","hovedtype":"Bebyggelse","undertype":"spredtBebyggelse","navnestatus":"suAutoriseret","kommuner":["Esbjerg","Vejen"]}},{"type":"Feature","geometry":{"type":"Point","coordinates":[8.91947848,55.37541195]},"properties":{"id":"12337669-a268-6b98-e053-d480220a5a3f","navn":"Knorborg","hovedtype":"Bebyggelse","undertype":"spredtBebyggelse","navnestatus":"suAutoriseret","kommuner":["Esbjerg","Vejen"]}},{"type":"Feature","geometry":{"type":"Point","coordinates":[9.0288463,55.37530159]},"properties":{"id":"12337669-a269-6b98-e053-d480220a5a3f","navn":"M\u00F8gelmose","hovedtype":"Bebyggelse","undertype":"spredtBebyggelse","navnestatus":"suAutoriseret","kommuner":["Vejen"]}},{"type":"Feature","geometry":{"type":"Point","coordinates":[8.96265181,55.36132482]},"properties":{"id":"12337669-a26a-6b98-e053-d480220a5a3f","navn":"Hygum Nymark","hovedtype":"Bebyggelse","undertype":"spredtBebyggelse","navnestatus":"suAutoriseret","kommuner":["Vejen"]}},{"type":"Feature","geometry":{"type":"Point","coordinates":[8.95425255,55.37007557]},"properties":{"id":"12337669-a26b-6b98-e053-d480220a5a3f","navn":"Hygum N\u00F8rremark","hovedtype":"Bebyggelse","undertype":"spredtBebyggelse","navnestatus":"suAutoriseret","kommuner":["Vejen"]}},{"type":"Feature","geometry":{"type":"Point","coordinates":[8.955822,55.37694806]},"properties":{"id":"12337669-a26c-6b98-e053-d480220a5a3f","navn":"S\u00F8nder Olling","hovedtype":"Bebyggelse","undertype":"spredtBebyggelse","navnestatus":"officielt","kommuner":["Vejen"]}},{"type":"Feature","geometry":{"type":"Point","coordinates":[8.96486146,55.33942933]},"properties":{"id":"12337669-a26d-6b98-e053-d480220a5a3f","navn":"S\u00F8nderholm","hovedtype":"Bebyggelse","undertype":"spredtBebyggelse","navnestatus":"suAutoriseret","kommuner":["Haderslev","Vejen"]}},{"type":"Feature","geometry":{"type":"Point","coordinates":[8.99780795,55.39123309]},"properties":{"id":"12337669-a26f-6b98-e053-d480220a5a3f","navn":"Vimtrup Mark","hovedtype":"Bebyggelse","undertype":"spredtBebyggelse","navnestatus":"suAutoriseret","kommuner":["Vejen"]}},{"type":"Feature","geometry":{"type":"Point","coordinates":[8.91799717,55.30914076]},"properties":{"id":"12337669-a271-6b98-e053-d480220a5a3f","navn":"\u00C5rup","hovedtype":"Bebyggelse","undertype":"spredtBebyggelse","navnestatus":"suAutoriseret","kommuner":["Haderslev"]}},{"type":"Feature","geometry":{"type":"Point","coordinates":[8.97932667,55.30772365]},"properties":{"id":"12337669-a273-6b98-e053-d480220a5a3f","navn":"Ganderup","hovedtype":"Bebyggelse","undertype":"spredtBebyggelse","navnestatus":"suAutoriseret","kommuner":["Haderslev"]}},{"type":"Feature","geometry":{"type":"Point","coordinates":[9.02531416,55.31557121]},"properties":{"id":"12337669-a275-6b98-e053-d480220a5a3f","navn":"M\u00F8gelballe","hovedtype":"Bebyggelse","undertype":"spredtBebyggelse","navnestatus":"suAutoriseret","kommuner":["Haderslev"]}},{"type":"Feature","geometry":{"type":"Point","coordinates":[8.95189416,55.31315348]},"properties":{"id":"12337669-a277-6b98-e053-d480220a5a3f","navn":"Vestermark","hovedtype":"Bebyggelse","undertype":"spredtBebyggelse","navnestatus":"suAutoriseret","kommuner":["Haderslev","Vejen"]}},{"type":"Feature","geometry":{"type":"Point","coordinates":[8.90779288,55.36493529]},"properties":{"id":"12337669-a278-6b98-e053-d480220a5a3f","navn":"Barslund","hovedtype":"Bebyggelse","undertype":"spredtBebyggelse","navnestatus":"suAutoriseret","kommuner":["Esbjerg","Vejen"]}},{"type":"Feature","geometry":{"type":"Point","coordinates":[9.00409609,55.37977559]},"properties":{"id":"12337669-a27a-6b98-e053-d480220a5a3f","navn":"Tornum Mark","hovedtype":"Bebyggelse","undertype":"spredtBebyggelse","navnestatus":"suAutoriseret","kommuner":["Vejen"]}},{"type":"Feature","geometry":{"type":"Point","coordinates":[8.97129078,55.39437105]},"properties":{"id":"12337669-a27b-6b98-e053-d480220a5a3f","navn":"Tornumg\u00E5rds Mark","hovedtype":"Bebyggelse","undertype":"spredtBebyggelse","navnestatus":"suAutoriseret","kommuner":["Vejen"]}},{"type":"Feature","geometry":{"type":"Point","coordinates":[8.95267995,55.33333201]},"properties":{"id":"12337669-a27c-6b98-e053-d480220a5a3f","navn":"Havremark","hovedtype":"Bebyggelse","undertype":"spredtBebyggelse","navnestatus":"suAutoriseret","kommuner":["Haderslev","Vejen"]}},{"type":"Feature","geometry":{"type":"Point","coordinates":[8.96660622,55.30999467]},"properties":{"id":"12337669-a27d-6b98-e053-d480220a5a3f","navn":"Ganderup Mark","hovedtype":"Bebyggelse","undertype":"spredtBebyggelse","navnestatus":"suAutoriseret","kommuner":["Haderslev"]}},{"type":"Feature","geometry":{"type":"Point","coordinates":[9.02714617,55.31166212]},"properties":{"id":"12337669-a27e-6b98-e053-d480220a5a3f","navn":"Gr\u00F8nsk\u00E6r","hovedtype":"Bebyggelse","undertype":"spredtBebyggelse","navnestatus":"suAutoriseret","kommuner":["Haderslev"]}},{"type":"Feature","geometry":{"type":"Point","coordinates":[8.85311086,55.2753151]},"properties":{"id":"12337669-a281-6b98-e053-d480220a5a3f","navn":"H\u00F8mlund","hovedtype":"Bebyggelse","undertype":"spredtBebyggelse","navnestatus":"suAutoriseret","kommuner":["Esbjerg"]}},{"type":"Feature","geometry":{"type":"Point","coordinates":[8.84155603,55.27966642]},"properties":{"id":"12337669-a282-6b98-e053-d480220a5a3f","navn":"H\u00F8m \u00D8stermark","hovedtype":"Bebyggelse","undertype":"spredtBebyggelse","navnestatus":"suAutoriseret","kommuner":["Esbjerg"]}},{"type":"Feature","geometry":{"type":"Point","coordinates":[8.91827429,55.26095087]},"properties":{"id":"12337669-a285-6b98-e053-d480220a5a3f","navn":"Trekroner","hovedtype":"Bebyggelse","undertype":"spredtBebyggelse","navnestatus":"suAutoriseret","kommuner":["Esbjerg"]}},{"type":"Feature","geometry":{"type":"Point","coordinates":[8.92328164,55.26961031]},"properties":{"id":"12337669-a286-6b98-e053-d480220a5a3f","navn":"M\u00F8lby","hovedtype":"Bebyggelse","undertype":"spredtBebyggelse","navnestatus":"suAutoriseret","kommuner":["Haderslev","Esbjerg"]}},{"type":"Feature","geometry":{"type":"Point","coordinates":[9.01892585,55.28365978]},"properties":{"id":"12337669-a287-6b98-e053-d480220a5a3f","navn":"Tiset N\u00F8rremark","hovedtype":"Bebyggelse","undertype":"spredtBebyggelse","navnestatus":"suAutoriseret","kommuner":["Haderslev"]}},{"type":"Feature","geometry":{"type":"Point","coordinates":[8.90548172,55.26338067]},"properties":{"id":"12337669-a288-6b98-e053-d480220a5a3f","navn":"Spandet G\u00E5rde","hovedtype":"Bebyggelse","undertype":"spredtBebyggelse","navnestatus":"suAutoriseret","kommuner":["Esbjerg"]}},{"type":"Feature","geometry":{"type":"Point","coordinates":[8.98461779,55.26953946]},"properties":{"id":"12337669-a28a-6b98-e053-d480220a5a3f","navn":"Tiset Vestermark","hovedtype":"Bebyggelse","undertype":"spredtBebyggelse","navnestatus":"suAutoriseret","kommuner":["Haderslev"]}},{"type":"Feature","geometry":{"type":"Point","coordinates":[8.97432755,55.28624832]},"properties":{"id":"12337669-a28b-6b98-e053-d480220a5a3f","navn":"Enderupskov \u00D8stermark","hovedtype":"Bebyggelse","undertype":"spredtBebyggelse","navnestatus":"suAutoriseret","kommuner":["Haderslev"]}},{"type":"Feature","geometry":{"type":"Point","coordinates":[8.85125788,55.19634218]},"properties":{"id":"12337669-a28f-6b98-e053-d480220a5a3f","navn":"Gejlbjerg","hovedtype":"Bebyggelse","undertype":"spredtBebyggelse","navnestatus":"suAutoriseret","kommuner":["T\u00F8nder"]}},{"type":"Feature","geometry":{"type":"Point","coordinates":[8.87249381,55.22108998]},"properties":{"id":"12337669-a290-6b98-e053-d480220a5a3f","navn":"Holb\u00E6k","hovedtype":"Bebyggelse","undertype":"spredtBebyggelse","navnestatus":"suAutoriseret","kommuner":["T\u00F8nder","Esbjerg"]}},{"type":"Feature","geometry":{"type":"Point","coordinates":[8.87762092,55.24117586]},"properties":{"id":"12337669-a291-6b98-e053-d480220a5a3f","navn":"H\u00F8lleskov","hovedtype":"Bebyggelse","undertype":"spredtBebyggelse","navnestatus":"suAutoriseret","kommuner":["Esbjerg"]}},{"type":"Feature","geometry":{"type":"Point","coordinates":[8.85873389,55.25717558]},"properties":{"id":"12337669-a292-6b98-e053-d480220a5a3f","navn":"S\u00F8nderby","hovedtype":"Bebyggelse","undertype":"spredtBebyggelse","navnestatus":"officielt","kommuner":["Esbjerg"]}},{"type":"Feature","geometry":{"type":"Point","coordinates":[8.89149915,55.20119679]},"properties":{"id":"12337669-a293-6b98-e053-d480220a5a3f","navn":"S\u00F8nderhede","hovedtype":"Bebyggelse","undertype":"spredtBebyggelse","navnestatus":"suAutoriseret","kommuner":["T\u00F8nder"]}},{"type":"Feature","geometry":{"type":"Point","coordinates":[8.87021375,55.20097739]},"properties":{"id":"12337669-a294-6b98-e053-d480220a5a3f","navn":"Vesterhede","hovedtype":"Bebyggelse","undertype":"spredtBebyggelse","navnestatus":"officielt","kommuner":["T\u00F8nder"]}},{"type":"Feature","geometry":{"type":"Point","coordinates":[8.8367811,55.23053555]},"properties":{"id":"12337669-a296-6b98-e053-d480220a5a3f","navn":"Vodderbro","hovedtype":"Bebyggelse","undertype":"spredtBebyggelse","navnestatus":"suAutoriseret","kommuner":["T\u00F8nder","Esbjerg"]}},{"type":"Feature","geometry":{"type":"Point","coordinates":[9.01583302,55.21930429]},"properties":{"id":"12337669-a298-6b98-e053-d480220a5a3f","navn":"Enemark","hovedtype":"Bebyggelse","undertype":"spredtBebyggelse","navnestatus":"suAutoriseret","kommuner":["T\u00F8nder"]}},{"type":"Feature","geometry":{"type":"Point","coordinates":[8.94775425,55.24798655]},"properties":{"id":"12337669-a299-6b98-e053-d480220a5a3f","navn":"Fogager","hovedtype":"Bebyggelse","undertype":"spredtBebyggelse","navnestatus":"suAutoriseret","kommuner":["Haderslev"]}},{"type":"Feature","geometry":{"type":"Point","coordinates":[9.02324034,55.23529246]},"properties":{"id":"12337669-a29a-6b98-e053-d480220a5a3f","navn":"Gelstoft","hovedtype":"Bebyggelse","undertype":"spredtBebyggelse","navnestatus":"suAutoriseret","kommuner":["Haderslev","T\u00F8nder"]}},{"type":"Feature","geometry":{"type":"Point","coordinates":[9.00760253,55.22255982]},"properties":{"id":"12337669-a29c-6b98-e053-d480220a5a3f","navn":"Lille H\u00F8jrup","hovedtype":"Bebyggelse","undertype":"spredtBebyggelse","navnestatus":"suAutoriseret","kommuner":["Haderslev","T\u00F8nder"]}},{"type":"Feature","geometry":{"type":"Point","coordinates":[8.96929385,55.25661872]},"properties":{"id":"12337669-a29e-6b98-e053-d480220a5a3f","navn":"Arnum N\u00F8rremark","hovedtype":"Bebyggelse","undertype":"spredtBebyggelse","navnestatus":"suAutoriseret","kommuner":["Haderslev"]}},{"type":"Feature","geometry":{"type":"Point","coordinates":[8.84672675,55.25205516]},"properties":{"id":"12337669-a29f-6b98-e053-d480220a5a3f","navn":"Kirkeby \u00D8stermark","hovedtype":"Bebyggelse","undertype":"spredtBebyggelse","navnestatus":"suAutoriseret","kommuner":["Esbjerg"]}},{"type":"Feature","geometry":{"type":"Point","coordinates":[8.92948668,55.25523513]},"properties":{"id":"12337669-a2a1-6b98-e053-d480220a5a3f","navn":"Lille Spandet","hovedtype":"Bebyggelse","undertype":"spredtBebyggelse","navnestatus":"suAutoriseret","kommuner":["Haderslev","Esbjerg"]}},{"type":"Feature","geometry":{"type":"Point","coordinates":[9.03370504,55.20454684]},"properties":{"id":"12337669-a2a2-6b98-e053-d480220a5a3f","navn":"Stenderup G\u00E5rde","hovedtype":"Bebyggelse","undertype":"spredtBebyggelse","navnestatus":"suAutoriseret","kommuner":["T\u00F8nder"]}},{"type":"Feature","geometry":{"type":"Point","coordinates":[8.9541494,55.2614635]},"properties":{"id":"12337669-a2a3-6b98-e053-d480220a5a3f","navn":"Stensb\u00E6k","hovedtype":"Bebyggelse","undertype":"spredtBebyggelse","navnestatus":"suAutoriseret","kommuner":["Haderslev"]}},{"type":"Feature","geometry":{"type":"Point","coordinates":[8.95976533,55.23768728]},"properties":{"id":"12337669-a2a4-6b98-e053-d480220a5a3f","navn":"Arnum S\u00F8ndermark","hovedtype":"Bebyggelse","undertype":"spredtBebyggelse","navnestatus":"suAutoriseret","kommuner":["Haderslev"]}},{"type":"Feature","geometry":{"type":"Point","coordinates":[8.92454569,55.21282175]},"properties":{"id":"12337669-a2a5-6b98-e053-d480220a5a3f","navn":"\u00D8sterhede","hovedtype":"Bebyggelse","undertype":"spredtBebyggelse","navnestatus":"suAutoriseret","kommuner":["Haderslev","T\u00F8nder"]}},{"type":"Feature","geometry":{"type":"Point","coordinates":[8.90736723,55.22132951]},"properties":{"id":"12337669-a2a6-6b98-e053-d480220a5a3f","navn":"\u00D8sterlund","hovedtype":"Bebyggelse","undertype":"spredtBebyggelse","navnestatus":"suAutoriseret","kommuner":["T\u00F8nder","Esbjerg"]}},{"type":"Feature","geometry":{"type":"Point","coordinates":[8.8437729,55.28904384]},"properties":{"id":"12337669-a2a7-6b98-e053-d480220a5a3f","navn":"Favrholt","hovedtype":"Bebyggelse","undertype":"spredtBebyggelse","navnestatus":"suAutoriseret","kommuner":["Esbjerg"]}},{"type":"Feature","geometry":{"type":"Point","coordinates":[8.83742318,55.25693405]},"properties":{"id":"12337669-a2a9-6b98-e053-d480220a5a3f","navn":"Roager \u00D8stermark","hovedtype":"Bebyggelse","undertype":"spredtBebyggelse","navnestatus":"suAutoriseret","kommuner":["Esbjerg"]}},{"type":"Feature","geometry":{"type":"Point","coordinates":[8.99098885,55.25324212]},"properties":{"id":"12337669-a2aa-6b98-e053-d480220a5a3f","navn":"Tiset S\u00F8ndermark","hovedtype":"Bebyggelse","undertype":"spredtBebyggelse","navnestatus":"suAutoriseret","kommuner":["Haderslev"]}},{"type":"Feature","geometry":{"type":"Point","coordinates":[8.98881326,55.27651636]},"properties":{"id":"12337669-a2ab-6b98-e053-d480220a5a3f","navn":"Landbolsmark","hovedtype":"Bebyggelse","undertype":"spredtBebyggelse","navnestatus":"suAutoriseret","kommuner":["Haderslev"]}},{"type":"Feature","geometry":{"type":"Point","coordinates":[8.91785693,55.23423538]},"properties":{"id":"12337669-a2ae-6b98-e053-d480220a5a3f","navn":"Spandet Mark","hovedtype":"Bebyggelse","undertype":"spredtBebyggelse","navnestatus":"suAutoriseret","kommuner":["Haderslev","T\u00F8nder","Esbjerg"]}},{"type":"Feature","geometry":{"type":"Point","coordinates":[8.89013119,55.2316644]},"properties":{"id":"12337669-a2af-6b98-e053-d480220a5a3f","navn":"Sibirien","hovedtype":"Bebyggelse","undertype":"spredtBebyggelse","navnestatus":"officielt","kommuner":["T\u00F8nder","Esbjerg"]}},{"type":"Feature","geometry":{"type":"Point","coordinates":[8.92972406,55.20549789]},"properties":{"id":"12337669-a2b0-6b98-e053-d480220a5a3f","navn":"Lindet Skov","hovedtype":"Bebyggelse","undertype":"spredtBebyggelse","navnestatus":"suAutoriseret","kommuner":["T\u00F8nder"]}},{"type":"Feature","geometry":{"type":"Point","coordinates":[8.792762,55.24280452]},"properties":{"id":"12337669-a2b1-6b98-e053-d480220a5a3f","navn":"Kirkeby Vestermark","hovedtype":"Bebyggelse","undertype":"spredtBebyggelse","navnestatus":"suAutoriseret","kommuner":["T\u00F8nder","Esbjerg"]}},{"type":"Feature","geometry":{"type":"Point","coordinates":[8.77838809,55.25911872]},"properties":{"id":"12337669-a2b2-6b98-e053-d480220a5a3f","navn":"Lundsmark Hede","hovedtype":"Bebyggelse","undertype":"spredtBebyggelse","navnestatus":"suAutoriseret","kommuner":["Esbjerg"]}},{"type":"Feature","geometry":{"type":"Point","coordinates":[8.69493857,55.27212421]},"properties":{"id":"12337669-a2b4-6b98-e053-d480220a5a3f","navn":"Enderup","hovedtype":"Bebyggelse","undertype":"spredtBebyggelse","navnestatus":"suAutoriseret","kommuner":["Esbjerg"]}},{"type":"Feature","geometry":{"type":"Point","coordinates":[8.70986694,55.27425622]},"properties":{"id":"12337669-a2b5-6b98-e053-d480220a5a3f","navn":"Enderup Mark","hovedtype":"Bebyggelse","undertype":"spredtBebyggelse","navnestatus":"suAutoriseret","kommuner":["Esbjerg"]}},{"type":"Feature","geometry":{"type":"Point","coordinates":[8.72436655,55.26346741]},"properties":{"id":"12337669-a2b9-6b98-e053-d480220a5a3f","navn":"R\u00E5hede Mark","hovedtype":"Bebyggelse","undertype":"spredtBebyggelse","navnestatus":"suAutoriseret","kommuner":["Esbjerg"]}},{"type":"Feature","geometry":{"type":"Point","coordinates":[8.72113,55.28922061]},"properties":{"id":"12337669-a2ba-6b98-e053-d480220a5a3f","navn":"Tr\u00E6k\u00E6r","hovedtype":"Bebyggelse","undertype":"spredtBebyggelse","navnestatus":"officielt","kommuner":["Esbjerg"]}},{"type":"Feature","geometry":{"type":"Point","coordinates":[8.80649185,55.28310796]},"properties":{"id":"12337669-a2be-6b98-e053-d480220a5a3f","navn":"Vesterlund","hovedtype":"Bebyggelse","undertype":"spredtBebyggelse","navnestatus":"suAutoriseret","kommuner":["Esbjerg"]}},{"type":"Feature","geometry":{"type":"Point","coordinates":[8.69178718,55.21223824]},"properties":{"id":"12337669-a2bf-6b98-e053-d480220a5a3f","navn":"Vester \u00C5b\u00F8lling","hovedtype":"Bebyggelse","undertype":"spredtBebyggelse","navnestatus":"suAutoriseret","kommuner":["T\u00F8nder"]}},{"type":"Feature","geometry":{"type":"Point","coordinates":[8.76127319,55.22695866]},"properties":{"id":"12337669-a2c4-6b98-e053-d480220a5a3f","navn":"Rejsby \u00D8stermark","hovedtype":"Bebyggelse","undertype":"spredtBebyggelse","navnestatus":"suAutoriseret","kommuner":["T\u00F8nder"]}},{"type":"Feature","geometry":{"type":"Point","coordinates":[8.8164783,55.20722833]},"properties":{"id":"12337669-a2c6-6b98-e053-d480220a5a3f","navn":"Gammelby","hovedtype":"Bebyggelse","undertype":"spredtBebyggelse","navnestatus":"suAutoriseret","kommuner":["T\u00F8nder"]}},{"type":"Feature","geometry":{"type":"Point","coordinates":[8.77178607,55.20022698]},"properties":{"id":"12337669-a2c8-6b98-e053-d480220a5a3f","navn":"Normsted","hovedtype":"Bebyggelse","undertype":"spredtBebyggelse","navnestatus":"suAutoriseret","kommuner":["T\u00F8nder"]}},{"type":"Feature","geometry":{"type":"Point","coordinates":[8.80133199,55.22595725]},"properties":{"id":"12337669-a2c9-6b98-e053-d480220a5a3f","navn":"Birkelev N\u00F8rremark","hovedtype":"Bebyggelse","undertype":"spredtBebyggelse","navnestatus":"suAutoriseret","kommuner":["T\u00F8nder"]}},{"type":"Feature","geometry":{"type":"Point","coordinates":[8.80776,55.19759931]},"properties":{"id":"12337669-a2ca-6b98-e053-d480220a5a3f","navn":"Birkelev S\u00F8ndermark","hovedtype":"Bebyggelse","undertype":"spredtBebyggelse","navnestatus":"suAutoriseret","kommuner":["T\u00F8nder"]}},{"type":"Feature","geometry":{"type":"Point","coordinates":[8.72776154,55.37804221]},"properties":{"id":"12337669-a2d0-6b98-e053-d480220a5a3f","navn":"Hillerup Mark","hovedtype":"Bebyggelse","undertype":"spredtBebyggelse","navnestatus":"suAutoriseret","kommuner":["Esbjerg"]}},{"type":"Feature","geometry":{"type":"Point","coordinates":[8.71904005,55.36206825]},"properties":{"id":"12337669-a2d4-6b98-e053-d480220a5a3f","navn":"Tanderup","hovedtype":"Bebyggelse","undertype":"spredtBebyggelse","navnestatus":"suAutoriseret","kommuner":["Esbjerg"]}},{"type":"Feature","geometry":{"type":"Point","coordinates":[8.76031946,55.38543664]},"properties":{"id":"12337669-a2d6-6b98-e053-d480220a5a3f","navn":"Adelsvejsvang","hovedtype":"Bebyggelse","undertype":"spredtBebyggelse","navnestatus":"suAutoriseret","kommuner":["Esbjerg"]}},{"type":"Feature","geometry":{"type":"Point","coordinates":[8.74953816,55.32721486]},"properties":{"id":"12337669-a2d7-6b98-e053-d480220a5a3f","navn":"Inder Bjerrum","hovedtype":"Bebyggelse","undertype":"spredtBebyggelse","navnestatus":"suAutoriseret","kommuner":["Esbjerg"]}},{"type":"Feature","geometry":{"type":"Point","coordinates":[8.79995145,55.35995316]},"properties":{"id":"12337669-a2d8-6b98-e053-d480220a5a3f","navn":"Gammelhede","hovedtype":"Bebyggelse","undertype":"spredtBebyggelse","navnestatus":"suAutoriseret","kommuner":["Esbjerg"]}},{"type":"Feature","geometry":{"type":"Point","coordinates":[8.77508715,55.38059895]},"properties":{"id":"12337669-a2d9-6b98-e053-d480220a5a3f","navn":"Hedeg\u00E5rd","hovedtype":"Bebyggelse","undertype":"spredtBebyggelse","navnestatus":"suAutoriseret","kommuner":["Esbjerg"]}},{"type":"Feature","geometry":{"type":"Point","coordinates":[8.75340787,55.3401807]},"properties":{"id":"12337669-a2da-6b98-e053-d480220a5a3f","navn":"Jernk\u00E6rmark","hovedtype":"Bebyggelse","undertype":"spredtBebyggelse","navnestatus":"suAutoriseret","kommuner":["Esbjerg"]}},{"type":"Feature","geometry":{"type":"Point","coordinates":[8.79990751,55.35464648]},"properties":{"id":"12337669-a2db-6b98-e053-d480220a5a3f","navn":"Nyhede","hovedtype":"Bebyggelse","undertype":"spredtBebyggelse","navnestatus":"suAutoriseret","kommuner":["Esbjerg"]}},{"type":"Feature","geometry":{"type":"Point","coordinates":[8.79041509,55.35697061]},"properties":{"id":"12337669-a2dd-6b98-e053-d480220a5a3f","navn":"Ribe Mark","hovedtype":"Bebyggelse","undertype":"spredtBebyggelse","navnestatus":"suAutoriseret","kommuner":["Esbjerg"]}},{"type":"Feature","geometry":{"type":"Point","coordinates":[8.75921274,55.38230501]},"properties":{"id":"12337669-a2e9-6b98-e053-d480220a5a3f","navn":"Jedsted Mark","hovedtype":"Bebyggelse","undertype":"spredtBebyggelse","navnestatus":"suAutoriseret","kommuner":["Esbjerg"]}},{"type":"Feature","geometry":{"type":"Point","coordinates":[8.80602012,55.30112731]},"properties":{"id":"12337669-a2ef-6b98-e053-d480220a5a3f","navn":"Seem Mark","hovedtype":"Bebyggelse","undertype":"spredtBebyggelse","navnestatus":"suAutoriseret","kommuner":["Esbjerg"]}},{"type":"Feature","geometry":{"type":"Point","coordinates":[8.74723951,55.30251876]},"properties":{"id":"12337669-a2f4-6b98-e053-d480220a5a3f","navn":"S\u00F8nder Farup Mark","hovedtype":"Bebyggelse","undertype":"spredtBebyggelse","navnestatus":"suAutoriseret","kommuner":["Esbjerg"]}},{"type":"Feature","geometry":{"type":"Point","coordinates":[8.7873928,55.36494223]},"properties":{"id":"12337669-a2f5-6b98-e053-d480220a5a3f","navn":"K\u00E6rb\u00F8l Mark","hovedtype":"Bebyggelse","undertype":"spredtBebyggelse","navnestatus":"suAutoriseret","kommuner":["Esbjerg"]}},{"type":"Feature","geometry":{"type":"Point","coordinates":[8.82261382,55.1697238]},"properties":{"id":"12337669-a2fc-6b98-e053-d480220a5a3f","navn":"Snabe","hovedtype":"Bebyggelse","undertype":"spredtBebyggelse","navnestatus":"suAutoriseret","kommuner":["T\u00F8nder"]}},{"type":"Feature","geometry":{"type":"Point","coordinates":[8.70905409,55.09628807]},"properties":{"id":"12337669-a2ff-6b98-e053-d480220a5a3f","navn":"Kringlum","hovedtype":"Bebyggelse","undertype":"spredtBebyggelse","navnestatus":"suAutoriseret","kommuner":["T\u00F8nder"]}},{"type":"Feature","geometry":{"type":"Point","coordinates":[9.01136544,55.09527333]},"properties":{"id":"12337669-a300-6b98-e053-d480220a5a3f","navn":"Bjerndrup","hovedtype":"Bebyggelse","undertype":"spredtBebyggelse","navnestatus":"suAutoriseret","kommuner":["T\u00F8nder"]}},{"type":"Feature","geometry":{"type":"Point","coordinates":[8.8384217,55.07945322]},"properties":{"id":"12337669-a305-6b98-e053-d480220a5a3f","navn":"Vollum \u00D8stermark","hovedtype":"Bebyggelse","undertype":"spredtBebyggelse","navnestatus":"suAutoriseret","kommuner":["T\u00F8nder"]}},{"type":"Feature","geometry":{"type":"Point","coordinates":[8.84154893,55.14634709]},"properties":{"id":"12337669-a308-6b98-e053-d480220a5a3f","navn":"K\u00E6pslund","hovedtype":"Bebyggelse","undertype":"spredtBebyggelse","navnestatus":"officielt","kommuner":["T\u00F8nder"]}},{"type":"Feature","geometry":{"type":"Point","coordinates":[9.03263356,55.18963307]},"properties":{"id":"12337669-a30d-6b98-e053-d480220a5a3f","navn":"Allerup Mark","hovedtype":"Bebyggelse","undertype":"spredtBebyggelse","navnestatus":"suAutoriseret","kommuner":["T\u00F8nder"]}},{"type":"Feature","geometry":{"type":"Point","coordinates":[8.98939369,55.18010469]},"properties":{"id":"12337669-a30f-6b98-e053-d480220a5a3f","navn":"Fiskholm","hovedtype":"Bebyggelse","undertype":"spredtBebyggelse","navnestatus":"suAutoriseret","kommuner":["T\u00F8nder"]}},{"type":"Feature","geometry":{"type":"Point","coordinates":[8.86907497,55.17591828]},"properties":{"id":"12337669-a310-6b98-e053-d480220a5a3f","navn":"\u00D8ster Gasse Mark","hovedtype":"Bebyggelse","undertype":"spredtBebyggelse","navnestatus":"officielt","kommuner":["T\u00F8nder"]}},{"type":"Feature","geometry":{"type":"Point","coordinates":[8.96130353,55.12783991]},"properties":{"id":"12337669-a313-6b98-e053-d480220a5a3f","navn":"N\u00F8rreg\u00E5rd","hovedtype":"Bebyggelse","undertype":"spredtBebyggelse","navnestatus":"suAutoriseret","kommuner":["T\u00F8nder"]}},{"type":"Feature","geometry":{"type":"Point","coordinates":[9.03997367,55.16886446]},"properties":{"id":"12337669-a315-6b98-e053-d480220a5a3f","navn":"Rurup N\u00F8rremark","hovedtype":"Bebyggelse","undertype":"spredtBebyggelse","navnestatus":"suAutoriseret","kommuner":["T\u00F8nder"]}},{"type":"Feature","geometry":{"type":"Point","coordinates":[8.98818261,55.14090313]},"properties":{"id":"12337669-a317-6b98-e053-d480220a5a3f","navn":"Roost Vestermark","hovedtype":"Bebyggelse","undertype":"spredtBebyggelse","navnestatus":"suAutoriseret","kommuner":["T\u00F8nder"]}},{"type":"Feature","geometry":{"type":"Point","coordinates":[9.04501704,55.1353781]},"properties":{"id":"12337669-a318-6b98-e053-d480220a5a3f","navn":"Rundbjerg","hovedtype":"Bebyggelse","undertype":"spredtBebyggelse","navnestatus":"suAutoriseret","kommuner":["T\u00F8nder"]}},{"type":"Feature","geometry":{"type":"Point","coordinates":[9.00843815,55.15391635]},"properties":{"id":"12337669-a31a-6b98-e053-d480220a5a3f","navn":"Rurup Vestermark","hovedtype":"Bebyggelse","undertype":"spredtBebyggelse","navnestatus":"suAutoriseret","kommuner":["T\u00F8nder"]}},{"type":"Feature","geometry":{"type":"Point","coordinates":[9.02955315,55.17903736]},"properties":{"id":"12337669-a31b-6b98-e053-d480220a5a3f","navn":"R\u00F8met","hovedtype":"Bebyggelse","undertype":"spredtBebyggelse","navnestatus":"suAutoriseret","kommuner":["T\u00F8nder"]}},{"type":"Feature","geometry":{"type":"Point","coordinates":[8.93054546,55.15668244]},"properties":{"id":"12337669-a31c-6b98-e053-d480220a5a3f","navn":"Skikkildmund","hovedtype":"Bebyggelse","undertype":"spredtBebyggelse","navnestatus":"suAutoriseret","kommuner":["T\u00F8nder"]}},{"type":"Feature","geometry":{"type":"Point","coordinates":[8.96290996,55.17554155]},"properties":{"id":"12337669-a31e-6b98-e053-d480220a5a3f","navn":"Svinh\u00F8j","hovedtype":"Bebyggelse","undertype":"spredtBebyggelse","navnestatus":"suAutoriseret","kommuner":["T\u00F8nder"]}},{"type":"Feature","geometry":{"type":"Point","coordinates":[8.92811585,55.14967761]},"properties":{"id":"12337669-a31f-6b98-e053-d480220a5a3f","navn":"Vesterg\u00E5rd","hovedtype":"Bebyggelse","undertype":"spredtBebyggelse","navnestatus":"suAutoriseret","kommuner":["T\u00F8nder"]}},{"type":"Feature","geometry":{"type":"Point","coordinates":[8.89028844,55.12364529]},"properties":{"id":"12337669-a321-6b98-e053-d480220a5a3f","navn":"Hedeager Huse","hovedtype":"Bebyggelse","undertype":"spredtBebyggelse","navnestatus":"officielt","kommuner":["T\u00F8nder"]}},{"type":"Feature","geometry":{"type":"Point","coordinates":[8.91704095,55.10258421]},"properties":{"id":"12337669-a32a-6b98-e053-d480220a5a3f","navn":"L\u00F8gum Bjerge","hovedtype":"Bebyggelse","undertype":"spredtBebyggelse","navnestatus":"suAutoriseret","kommuner":["T\u00F8nder"]}},{"type":"Feature","geometry":{"type":"Point","coordinates":[8.97198714,55.1113992]},"properties":{"id":"12337669-a32d-6b98-e053-d480220a5a3f","navn":"Tohede","hovedtype":"Bebyggelse","undertype":"spredtBebyggelse","navnestatus":"suAutoriseret","kommuner":["T\u00F8nder"]}},{"type":"Feature","geometry":{"type":"Point","coordinates":[8.91957705,55.09657955]},"properties":{"id":"12337669-a32e-6b98-e053-d480220a5a3f","navn":"Tornskov Bjerg","hovedtype":"Bebyggelse","undertype":"spredtBebyggelse","navnestatus":"suAutoriseret","kommuner":["T\u00F8nder"]}},{"type":"Feature","geometry":{"type":"Point","coordinates":[9.03517269,55.12942909]},"properties":{"id":"12337669-a330-6b98-e053-d480220a5a3f","navn":"Smedegade","hovedtype":"Bebyggelse","undertype":"spredtBebyggelse","navnestatus":"suAutoriseret","kommuner":["T\u00F8nder"]}},{"type":"Feature","geometry":{"type":"Point","coordinates":[8.89381568,55.16881088]},"properties":{"id":"12337669-a331-6b98-e053-d480220a5a3f","navn":"Bj\u00F8rnk\u00E6r","hovedtype":"Bebyggelse","undertype":"spredtBebyggelse","navnestatus":"suAutoriseret","kommuner":["T\u00F8nder"]}},{"type":"Feature","geometry":{"type":"Point","coordinates":[8.96686764,55.10288932]},"properties":{"id":"12337669-a332-6b98-e053-d480220a5a3f","navn":"Lundstoft","hovedtype":"Bebyggelse","undertype":"spredtBebyggelse","navnestatus":"suAutoriseret","kommuner":["T\u00F8nder"]}},{"type":"Feature","geometry":{"type":"Point","coordinates":[8.86151829,55.06616741]},"properties":{"id":"12337669-a333-6b98-e053-d480220a5a3f","navn":"Kumled","hovedtype":"Bebyggelse","undertype":"spredtBebyggelse","navnestatus":"suAutoriseret","kommuner":["T\u00F8nder"]}},{"type":"Feature","geometry":{"type":"Point","coordinates":[8.87857545,55.06348491]},"properties":{"id":"12337669-a335-6b98-e053-d480220a5a3f","navn":"S\u00F8g\u00E5rd","hovedtype":"Bebyggelse","undertype":"spredtBebyggelse","navnestatus":"suAutoriseret","kommuner":["T\u00F8nder"]}},{"type":"Feature","geometry":{"type":"Point","coordinates":[8.96831824,55.07644288]},"properties":{"id":"12337669-a337-6b98-e053-d480220a5a3f","navn":"Landeby","hovedtype":"Bebyggelse","undertype":"spredtBebyggelse","navnestatus":"suAutoriseret","kommuner":["T\u00F8nder"]}},{"type":"Feature","geometry":{"type":"Point","coordinates":[8.89611384,55.08059477]},"properties":{"id":"12337669-a338-6b98-e053-d480220a5a3f","navn":"L\u00F8gumg\u00E5rde Mark","hovedtype":"Bebyggelse","undertype":"spredtBebyggelse","navnestatus":"suAutoriseret","kommuner":["T\u00F8nder"]}},{"type":"Feature","geometry":{"type":"Point","coordinates":[9.00148765,55.06178707]},"properties":{"id":"12337669-a33b-6b98-e053-d480220a5a3f","navn":"\u00D8stermarken","hovedtype":"Bebyggelse","undertype":"spredtBebyggelse","navnestatus":"suAutoriseret","kommuner":["T\u00F8nder"]}},{"type":"Feature","geometry":{"type":"Point","coordinates":[9.02595726,55.08189766]},"properties":{"id":"12337669-a33e-6b98-e053-d480220a5a3f","navn":"Visbjerg","hovedtype":"Bebyggelse","undertype":"spredtBebyggelse","navnestatus":"suAutoriseret","kommuner":["T\u00F8nder"]}},{"type":"Feature","geometry":{"type":"Point","coordinates":[8.87843114,55.04677198]},"properties":{"id":"12337669-a340-6b98-e053-d480220a5a3f","navn":"Vestermark","hovedtype":"Bebyggelse","undertype":"spredtBebyggelse","navnestatus":"suAutoriseret","kommuner":["T\u00F8nder"]}},{"type":"Feature","geometry":{"type":"Point","coordinates":[8.83772024,55.05064567]},"properties":{"id":"12337669-a341-6b98-e053-d480220a5a3f","navn":"Galgemark","hovedtype":"Bebyggelse","undertype":"spredtBebyggelse","navnestatus":"suAutoriseret","kommuner":["T\u00F8nder"]}},{"type":"Feature","geometry":{"type":"Point","coordinates":[8.85547896,55.05222989]},"properties":{"id":"12337669-a344-6b98-e053-d480220a5a3f","navn":"Tr\u00E6lborg","hovedtype":"Bebyggelse","undertype":"spredtBebyggelse","navnestatus":"suAutoriseret","kommuner":["T\u00F8nder"]}},{"type":"Feature","geometry":{"type":"Point","coordinates":[8.99489551,55.03907875]},"properties":{"id":"12337669-a348-6b98-e053-d480220a5a3f","navn":"Asset","hovedtype":"Bebyggelse","undertype":"spredtBebyggelse","navnestatus":"suAutoriseret","kommuner":["T\u00F8nder"]}},{"type":"Feature","geometry":{"type":"Point","coordinates":[8.98565121,55.02035209]},"properties":{"id":"12337669-a349-6b98-e053-d480220a5a3f","navn":"Draved","hovedtype":"Bebyggelse","undertype":"spredtBebyggelse","navnestatus":"suAutoriseret","kommuner":["T\u00F8nder"]}},{"type":"Feature","geometry":{"type":"Point","coordinates":[8.90908341,55.02500417]},"properties":{"id":"12337669-a34a-6b98-e053-d480220a5a3f","navn":"Ellum Mark","hovedtype":"Bebyggelse","undertype":"spredtBebyggelse","navnestatus":"suAutoriseret","kommuner":["T\u00F8nder"]}},