{"type":"FeatureCollection","features":[{"type":"Feature","geometry":{"type":"Point","coordinates":[8.91967846,56.96379212]},"properties":{"id":"1233766a-1195-6b98-e053-d480220a5a3f","navn":"Kong Fegges Grav","hovedtype":"Andentopografi punkt","undertype":"gravsted","navnestatus":"officielt","kommuner":["Mors\u00F8"]}},{"type":"Feature","geometry":{"type":"Point","coordinates":[8.31702034,56.77378668]},"properties":{"id":"1233766a-11bc-6b98-e053-d480220a5a3f","navn":"Liden Kirstens Grav","hovedtype":"Andentopografi punkt","undertype":"gravsted","navnestatus":"officielt","kommuner":["Thisted"]}},{"type":"Feature","geometry":{"type":"Point","coordinates":[9.9029384,54.89302814]},"properties":{"id":"1233766a-11d3-6b98-e053-d480220a5a3f","navn":"Salomons Grav","hovedtype":"Andentopografi punkt","undertype":"gravsted","navnestatus":"officielt","kommuner":["S\u00F8nderborg"]}},{"type":"Feature","geometry":{"type":"Point","coordinates":[9.4978704,55.61334297]},"properties":{"id":"1233766a-123f-6b98-e053-d480220a5a3f","navn":"Krigergrav","hovedtype":"Andentopografi punkt","undertype":"gravsted","navnestatus":"officielt","kommuner":["Kolding"]}},{"type":"Feature","geometry":{"type":"Point","coordinates":[9.17210584,55.99649683]},"properties":{"id":"1233766a-12d0-6b98-e053-d480220a5a3f","navn":"Castenschioldsh\u00F8j","hovedtype":"Andentopografi punkt","undertype":"gravsted","navnestatus":"officielt","kommuner":["Ikast-Brande"]}},{"type":"Feature","geometry":{"type":"Point","coordinates":[9.07825553,56.45618335]},"properties":{"id":"1233766a-135f-6b98-e053-d480220a5a3f","navn":"Laustes Grav","hovedtype":"Andentopografi punkt","undertype":"gravsted","navnestatus":"officielt","kommuner":["Viborg"]}},{"type":"Feature","geometry":{"type":"Point","coordinates":[9.09041996,56.66397462]},"properties":{"id":"1233766a-13a6-6b98-e053-d480220a5a3f","navn":"Jeppe Aakj\u00E6rs Grav","hovedtype":"Andentopografi punkt","undertype":"gravsted","navnestatus":"officielt","kommuner":["Skive"]}},{"type":"Feature","geometry":{"type":"Point","coordinates":[10.63632231,57.73956107]},"properties":{"id":"1233766a-15b9-6b98-e053-d480220a5a3f","navn":"Drachmanns Grav","hovedtype":"Andentopografi punkt","undertype":"gravsted","navnestatus":"officielt","kommuner":["Frederikshavn"]}},{"type":"Feature","geometry":{"type":"Point","coordinates":[12.35393714,56.11754473]},"properties":{"id":"1233766a-17f5-6b98-e053-d480220a5a3f","navn":"Fabers Grav","hovedtype":"Andentopografi punkt","undertype":"gravsted","navnestatus":"officielt","kommuner":["Gribskov"]}},{"type":"Feature","geometry":{"type":"Point","coordinates":[12.08385086,56.05852443]},"properties":{"id":"1233766a-1848-6b98-e053-d480220a5a3f","navn":"Helene Grav","hovedtype":"Andentopografi punkt","undertype":"gravsted","navnestatus":"officielt","kommuner":["Gribskov"]}}]}