{"type":"FeatureCollection","features":[{"type":"Feature","geometry":{"type":"Point","coordinates":[10.79399884,56.49910082]},"properties":{"id":"1233766a-14ba-6b98-e053-d480220a5a3f","navn":"Pr\u00E6steled","hovedtype":"Andentopografi punkt","undertype":"ledL\u00E5ge","navnestatus":"officielt","kommuner":["Norddjurs"]}},{"type":"Feature","geometry":{"type":"Point","coordinates":[11.45856294,55.37353387]},"properties":{"id":"1233766a-1648-6b98-e053-d480220a5a3f","navn":"R\u00F8deled","hovedtype":"Andentopografi punkt","undertype":"ledL\u00E5ge","navnestatus":"officielt","kommuner":["Slagelse"]}},{"type":"Feature","geometry":{"type":"Point","coordinates":[12.04236861,54.97209441]},"properties":{"id":"1233766a-16e2-6b98-e053-d480220a5a3f","navn":"Drejerled","hovedtype":"Andentopografi punkt","undertype":"ledL\u00E5ge","navnestatus":"officielt","kommuner":["Vordingborg"]}},{"type":"Feature","geometry":{"type":"Point","coordinates":[12.02741571,54.97368655]},"properties":{"id":"1233766a-16e3-6b98-e053-d480220a5a3f","navn":"Kongeleddet","hovedtype":"Andentopografi punkt","undertype":"ledL\u00E5ge","navnestatus":"officielt","kommuner":["Vordingborg"]}},{"type":"Feature","geometry":{"type":"Point","coordinates":[12.05431763,54.97319165]},"properties":{"id":"1233766a-16e4-6b98-e053-d480220a5a3f","navn":"Kulleddet","hovedtype":"Andentopografi punkt","undertype":"ledL\u00E5ge","navnestatus":"officielt","kommuner":["Vordingborg"]}},{"type":"Feature","geometry":{"type":"Point","coordinates":[12.28929676,54.98720122]},"properties":{"id":"1233766a-1703-6b98-e053-d480220a5a3f","navn":"M\u00F8lleport","hovedtype":"Andentopografi punkt","undertype":"ledL\u00E5ge","navnestatus":"officielt","kommuner":["Vordingborg"]}},{"type":"Feature","geometry":{"type":"Point","coordinates":[12.54449218,55.775415]},"properties":{"id":"1233766a-1754-6b98-e053-d480220a5a3f","navn":"Fortunport","hovedtype":"Andentopografi punkt","undertype":"ledL\u00E5ge","navnestatus":"officielt","kommuner":["Lyngby-Taarb\u00E6k"]}},{"type":"Feature","geometry":{"type":"Point","coordinates":[12.59028621,55.78814731]},"properties":{"id":"1233766a-175d-6b98-e053-d480220a5a3f","navn":"Taarb\u00E6k Port","hovedtype":"Andentopografi punkt","undertype":"ledL\u00E5ge","navnestatus":"officielt","kommuner":["Lyngby-Taarb\u00E6k"]}},{"type":"Feature","geometry":{"type":"Point","coordinates":[12.57900226,55.77491349]},"properties":{"id":"1233766a-1760-6b98-e053-d480220a5a3f","navn":"Kongeport","hovedtype":"Andentopografi punkt","undertype":"ledL\u00E5ge","navnestatus":"officielt","kommuner":["Lyngby-Taarb\u00E6k"]}},{"type":"Feature","geometry":{"type":"Point","coordinates":[12.55676968,55.77184275]},"properties":{"id":"1233766a-1761-6b98-e053-d480220a5a3f","navn":"R\u00F8deport","hovedtype":"Andentopografi punkt","undertype":"ledL\u00E5ge","navnestatus":"officielt","kommuner":["Lyngby-Taarb\u00E6k"]}},{"type":"Feature","geometry":{"type":"Point","coordinates":[12.58611986,55.77815918]},"properties":{"id":"1233766a-1763-6b98-e053-d480220a5a3f","navn":"Klampenborgport","hovedtype":"Andentopografi punkt","undertype":"ledL\u00E5ge","navnestatus":"officielt","kommuner":["Lyngby-Taarb\u00E6k"]}},{"type":"Feature","geometry":{"type":"Point","coordinates":[12.54450441,55.78761327]},"properties":{"id":"1233766a-1764-6b98-e053-d480220a5a3f","navn":"Vesthus port","hovedtype":"Andentopografi punkt","undertype":"ledL\u00E5ge","navnestatus":"officielt","kommuner":["Lyngby-Taarb\u00E6k"]}},{"type":"Feature","geometry":{"type":"Point","coordinates":[11.8298555,55.682663]},"properties":{"id":"1233766a-17cb-6b98-e053-d480220a5a3f","navn":"N\u00E6sled","hovedtype":"Andentopografi punkt","undertype":"ledL\u00E5ge","navnestatus":"officielt","kommuner":["Lejre"]}},{"type":"Feature","geometry":{"type":"Point","coordinates":[12.25792192,56.06146323]},"properties":{"id":"1233766a-17ee-6b98-e053-d480220a5a3f","navn":"St\u00E6rporten","hovedtype":"Andentopografi punkt","undertype":"ledL\u00E5ge","navnestatus":"officielt","kommuner":["Gribskov"]}},{"type":"Feature","geometry":{"type":"Point","coordinates":[12.58297545,55.80196216]},"properties":{"id":"1233766a-17ff-6b98-e053-d480220a5a3f","navn":"Spring-forbi Port","hovedtype":"Andentopografi punkt","undertype":"ledL\u00E5ge","navnestatus":"officielt","kommuner":["Lyngby-Taarb\u00E6k"]}},{"type":"Feature","geometry":{"type":"Point","coordinates":[12.58692101,55.79493011]},"properties":{"id":"1233766a-1804-6b98-e053-d480220a5a3f","navn":"Trepile port","hovedtype":"Andentopografi punkt","undertype":"ledL\u00E5ge","navnestatus":"officielt","kommuner":["Lyngby-Taarb\u00E6k"]}},{"type":"Feature","geometry":{"type":"Point","coordinates":[12.28649823,55.99801621]},"properties":{"id":"1233766a-182e-6b98-e053-d480220a5a3f","navn":"Karensport","hovedtype":"Andentopografi punkt","undertype":"ledL\u00E5ge","navnestatus":"officielt","kommuner":["Hiller\u00F8d"]}},{"type":"Feature","geometry":{"type":"Point","coordinates":[11.98929729,55.8863198]},"properties":{"id":"1233766a-183a-6b98-e053-d480220a5a3f","navn":"Bromoseled","hovedtype":"Andentopografi punkt","undertype":"ledL\u00E5ge","navnestatus":"officielt","kommuner":["Frederikssund"]}},{"type":"Feature","geometry":{"type":"Point","coordinates":[9.75212969,55.56735642]},"properties":{"id":"3af6db9c-819c-7457-e053-d480220ab4da","navn":"Danmarks Port","hovedtype":"Andentopografi punkt","undertype":"ledL\u00E5ge","navnestatus":"officielt","kommuner":["Fredericia"]}},{"type":"Feature","geometry":{"type":"Point","coordinates":[12.54506606,55.79889624]},"properties":{"id":"3e813689-7118-99f0-e053-d480220a4479","navn":"Hjortek\u00E6r port","hovedtype":"Andentopografi punkt","undertype":"ledL\u00E5ge","navnestatus":"officielt","kommuner":["Lyngby-Taarb\u00E6k"]}},{"type":"Feature","geometry":{"type":"Point","coordinates":[12.56301983,55.80327776]},"properties":{"id":"3e815023-be57-96d6-e053-d380220a07c5","navn":"R\u00E5dvad port","hovedtype":"Andentopografi punkt","undertype":"ledL\u00E5ge","navnestatus":"officielt","kommuner":["Lyngby-Taarb\u00E6k"]}},{"type":"Feature","geometry":{"type":"Point","coordinates":[12.57565207,55.81043375]},"properties":{"id":"3e819caa-da1f-3aac-e053-d380220ac337","navn":"Strandm\u00F8lle port","hovedtype":"Andentopografi punkt","undertype":"ledL\u00E5ge","navnestatus":"officielt","kommuner":["Rudersdal"]}},{"type":"Feature","geometry":{"type":"Point","coordinates":[12.57859596,55.68723192]},"properties":{"id":"4a9be12e-8f46-4e2c-e053-d480220ad251","navn":"Dronningeporten","hovedtype":"Andentopografi punkt","undertype":"ledL\u00E5ge","navnestatus":"officielt","kommuner":["K\u00F8benhavn"]}},{"type":"Feature","geometry":{"type":"Point","coordinates":[12.58071505,55.68290804]},"properties":{"id":"4a9be12e-8f47-4e2c-e053-d480220ad251","navn":"Kongeporten","hovedtype":"Andentopografi punkt","undertype":"ledL\u00E5ge","navnestatus":"officielt","kommuner":["K\u00F8benhavn"]}},{"type":"Feature","geometry":{"type":"Point","coordinates":[10.24030157,55.09664136]},"properties":{"id":"50cd557f-3994-8007-e053-d280220afb65","navn":"Vesterport","hovedtype":"Andentopografi punkt","undertype":"ledL\u00E5ge","navnestatus":"officielt","kommuner":["Faaborg-Midtfyn"]}},{"type":"Feature","geometry":{"type":"Point","coordinates":[12.08113802,55.64257402]},"properties":{"id":"515d94e7-8ed6-7020-e053-d280220a2326","navn":"Absalonbuen","hovedtype":"Andentopografi punkt","undertype":"ledL\u00E5ge","navnestatus":"officielt","kommuner":["Roskilde"]}},{"type":"Feature","geometry":{"type":"Point","coordinates":[12.59498576,55.69256164]},"properties":{"id":"7f9046a8-3b8e-3f74-e053-d480220af363","navn":"Norgesporten","hovedtype":"Andentopografi punkt","undertype":"ledL\u00E5ge","navnestatus":"officielt","kommuner":["K\u00F8benhavn"]}},{"type":"Feature","geometry":{"type":"Point","coordinates":[12.59514178,55.69027296]},"properties":{"id":"7f9046a8-3b8f-3f74-e053-d480220af363","navn":"Kongeporten","hovedtype":"Andentopografi punkt","undertype":"ledL\u00E5ge","navnestatus":"officielt","kommuner":["K\u00F8benhavn"]}},{"type":"Feature","geometry":{"type":"Point","coordinates":[12.58160415,55.68380967]},"properties":{"id":"7f9193dd-b7ed-7a80-e053-d480220ab741","navn":"Meyns Port","hovedtype":"Andentopografi punkt","undertype":"ledL\u00E5ge","navnestatus":"officielt","kommuner":["K\u00F8benhavn"]}},{"type":"Feature","geometry":{"type":"Point","coordinates":[12.53258601,55.66611998]},"properties":{"id":"a11e3303-7556-c4ab-e053-d480220acb83","navn":"Stjerneporten","hovedtype":"Andentopografi punkt","undertype":"ledL\u00E5ge","navnestatus":"officielt","kommuner":["K\u00F8benhavn"]}},{"type":"Feature","geometry":{"type":"Point","coordinates":[9.75259594,55.5676673]},"properties":{"id":"bff0481c-d8ec-cd00-e053-0451210afb2a","navn":"Prinsens Port","hovedtype":"Andentopografi punkt","undertype":"ledL\u00E5ge","navnestatus":"officielt","kommuner":["Fredericia"]}},{"type":"Feature","geometry":{"type":"Point","coordinates":[9.75985807,55.56992247]},"properties":{"id":"c0124184-eb4d-842b-e053-0251210a6d07","navn":"N\u00F8rre Port","hovedtype":"Andentopografi punkt","undertype":"ledL\u00E5ge","navnestatus":"officielt","kommuner":["Fredericia"]}},{"type":"Feature","geometry":{"type":"Point","coordinates":[15.19044109,55.31821716]},"properties":{"id":"ea6efb0a-c9f1-2e59-e053-0b4f210addb4","navn":"Hoffmanns Port","hovedtype":"Andentopografi punkt","undertype":"ledL\u00E5ge","navnestatus":"officielt","kommuner":["Christians\u00F8"]}},{"type":"Feature","geometry":{"type":"Point","coordinates":[15.19113692,55.31965971]},"properties":{"id":"ea6efb0a-ca0b-2e59-e053-0b4f210addb4","navn":"Bielkes Port","hovedtype":"Andentopografi punkt","undertype":"ledL\u00E5ge","navnestatus":"officielt","kommuner":["Christians\u00F8"]}},{"type":"Feature","geometry":{"type":"Point","coordinates":[12.58865916,55.79952009]},"properties":{"id":"fb6b049b-2fb9-8004-e053-0c4f210a5bd2","navn":"M\u00E5neporten","hovedtype":"Andentopografi punkt","undertype":"ledL\u00E5ge","navnestatus":"officielt","kommuner":["Lyngby-Taarb\u00E6k"]}}]}