{"type":"FeatureCollection","features":[{"type":"Feature","geometry":{"type":"Point","coordinates":[15.08195485,55.09576855]},"properties":{"id":"1233766a-1853-6b98-e053-d480220a5a3f","navn":"\u00C5rsdale Ret","hovedtype":"Andentopografi punkt","undertype":"varde","navnestatus":"officielt","kommuner":["Bornholm"]}},{"type":"Feature","geometry":{"type":"Point","coordinates":[15.09071682,55.09360156]},"properties":{"id":"1233766a-185a-6b98-e053-d480220a5a3f","navn":"Midterpilt","hovedtype":"Andentopografi punkt","undertype":"varde","navnestatus":"officielt","kommuner":["Bornholm"]}},{"type":"Feature","geometry":{"type":"Point","coordinates":[15.09622011,55.09167797]},"properties":{"id":"1233766a-1860-6b98-e053-d480220a5a3f","navn":"\u00D8stre Pilt","hovedtype":"Andentopografi punkt","undertype":"varde","navnestatus":"officielt","kommuner":["Bornholm"]}},{"type":"Feature","geometry":{"type":"Point","coordinates":[15.04988033,55.0774227]},"properties":{"id":"1233766a-1867-6b98-e053-d480220a5a3f","navn":"D\u00F8vrepilt","hovedtype":"Andentopografi punkt","undertype":"varde","navnestatus":"officielt","kommuner":["Bornholm"]}},{"type":"Feature","geometry":{"type":"Point","coordinates":[15.03381698,55.08105936]},"properties":{"id":"1233766a-186c-6b98-e053-d480220a5a3f","navn":"Lille Mikkel","hovedtype":"Andentopografi punkt","undertype":"varde","navnestatus":"officielt","kommuner":["Bornholm"]}},{"type":"Feature","geometry":{"type":"Point","coordinates":[15.04999859,55.08156337]},"properties":{"id":"1233766a-1872-6b98-e053-d480220a5a3f","navn":"S\u00E6vepilt","hovedtype":"Andentopografi punkt","undertype":"varde","navnestatus":"officielt","kommuner":["Bornholm"]}},{"type":"Feature","geometry":{"type":"Point","coordinates":[15.03896674,55.08086793]},"properties":{"id":"1233766a-1873-6b98-e053-d480220a5a3f","navn":"Tornepilt","hovedtype":"Andentopografi punkt","undertype":"varde","navnestatus":"officielt","kommuner":["Bornholm"]}},{"type":"Feature","geometry":{"type":"Point","coordinates":[15.04182007,55.08198728]},"properties":{"id":"da68f065-9dcd-9a7d-e053-0c4f210a48c4","navn":"Store Mikkel","hovedtype":"Andentopografi punkt","undertype":"varde","navnestatus":"officielt","kommuner":["Bornholm"]}},{"type":"Feature","geometry":{"type":"Point","coordinates":[15.05441041,55.08605962]},"properties":{"id":"da68f065-9dce-9a7d-e053-0c4f210a48c4","navn":"Ridderpilt","hovedtype":"Andentopografi punkt","undertype":"varde","navnestatus":"officielt","kommuner":["Bornholm"]}},{"type":"Feature","geometry":{"type":"Point","coordinates":[15.02761923,55.08029817]},"properties":{"id":"da68f065-9dcf-9a7d-e053-0c4f210a48c4","navn":"T\u00F8rvekulepilt","hovedtype":"Andentopografi punkt","undertype":"varde","navnestatus":"officielt","kommuner":["Bornholm"]}},{"type":"Feature","geometry":{"type":"Point","coordinates":[14.99652212,55.08985742]},"properties":{"id":"da68f065-9dd0-9a7d-e053-0c4f210a48c4","navn":"F\u00E5rebakkepilt","hovedtype":"Andentopografi punkt","undertype":"varde","navnestatus":"officielt","kommuner":["Bornholm"]}}]}