{"type":"FeatureCollection","features":[{"type":"Feature","geometry":{"type":"Point","coordinates":[10.35524162,55.96726087]},"properties":{"id":"1233766a-1033-6b98-e053-d480220a5a3f","navn":"Tun\u00F8 Knob Vindm\u00F8llepark","hovedtype":"Andentopografi flade","undertype":"vindm\u00F8llepark","navnestatus":"officielt","kommuner":[]}},{"type":"Feature","geometry":{"type":"Point","coordinates":[9.93985005,57.23661147]},"properties":{"id":"1233766a-1035-6b98-e053-d480220a5a3f","navn":"Ry\u00E5 Vindm\u00F8llepark","hovedtype":"Andentopografi flade","undertype":"vindm\u00F8llepark","navnestatus":"officielt","kommuner":["Br\u00F8nderslev"]}},{"type":"Feature","geometry":{"type":"Point","coordinates":[8.66810435,55.03563956]},"properties":{"id":"1233766a-103e-6b98-e053-d480220a5a3f","navn":"Rejsby Hede","hovedtype":"Andentopografi flade","undertype":"vindm\u00F8llepark","navnestatus":"officielt","kommuner":["T\u00F8nder"]}},{"type":"Feature","geometry":{"type":"Point","coordinates":[8.57327733,56.15460277]},"properties":{"id":"1233766a-1041-6b98-e053-d480220a5a3f","navn":"Fjaldene","hovedtype":"Andentopografi flade","undertype":"vindm\u00F8llepark","navnestatus":"officielt","kommuner":["Herning","Ringk\u00F8bing-Skjern"]}},{"type":"Feature","geometry":{"type":"Point","coordinates":[8.24527753,56.22930295]},"properties":{"id":"1233766a-1044-6b98-e053-d480220a5a3f","navn":"Veders\u00F8 K\u00E6r","hovedtype":"Andentopografi flade","undertype":"vindm\u00F8llepark","navnestatus":"officielt","kommuner":["Ringk\u00F8bing-Skjern"]}},{"type":"Feature","geometry":{"type":"Point","coordinates":[8.65026855,57.11038623]},"properties":{"id":"1233766a-1047-6b98-e053-d480220a5a3f","navn":"Hanstholm","hovedtype":"Andentopografi flade","undertype":"vindm\u00F8llepark","navnestatus":"officielt","kommuner":["Thisted"]}},{"type":"Feature","geometry":{"type":"Point","coordinates":[10.26906708,56.47985455]},"properties":{"id":"1233766a-105a-6b98-e053-d480220a5a3f","navn":"Hollandsbjerg","hovedtype":"Andentopografi flade","undertype":"vindm\u00F8llepark","navnestatus":"officielt","kommuner":["Norddjurs"]}},{"type":"Feature","geometry":{"type":"Point","coordinates":[11.08327294,54.93735869]},"properties":{"id":"1233766a-1061-6b98-e053-d480220a5a3f","navn":"N\u00F8jsomheds Odde","hovedtype":"Andentopografi flade","undertype":"vindm\u00F8llepark","navnestatus":"officielt","kommuner":["Lolland"]}},{"type":"Feature","geometry":{"type":"Point","coordinates":[12.62921605,55.69718396]},"properties":{"id":"1233766a-106d-6b98-e053-d480220a5a3f","navn":"Lynetten","hovedtype":"Andentopografi flade","undertype":"vindm\u00F8llepark","navnestatus":"officielt","kommuner":["K\u00F8benhavn"]}},{"type":"Feature","geometry":{"type":"Point","coordinates":[8.40415484,56.38366742]},"properties":{"id":"1233766a-106f-6b98-e053-d480220a5a3f","navn":"Bur Vindm\u00F8llepark","hovedtype":"Andentopografi flade","undertype":"vindm\u00F8llepark","navnestatus":"officielt","kommuner":["Holstebro"]}},{"type":"Feature","geometry":{"type":"Point","coordinates":[8.38158015,56.00171554]},"properties":{"id":"1233766a-1070-6b98-e053-d480220a5a3f","navn":"Gestenge","hovedtype":"Andentopografi flade","undertype":"vindm\u00F8llepark","navnestatus":"officielt","kommuner":["Ringk\u00F8bing-Skjern"]}},{"type":"Feature","geometry":{"type":"Point","coordinates":[8.18769114,56.45708589]},"properties":{"id":"1233766a-1071-6b98-e053-d480220a5a3f","navn":"Brokilde","hovedtype":"Andentopografi flade","undertype":"vindm\u00F8llepark","navnestatus":"officielt","kommuner":["Lemvig"]}},{"type":"Feature","geometry":{"type":"Point","coordinates":[9.9078887,57.22431488]},"properties":{"id":"1233766a-1073-6b98-e053-d480220a5a3f","navn":"Stenis Enge","hovedtype":"Andentopografi flade","undertype":"vindm\u00F8llepark","navnestatus":"officielt","kommuner":["Aalborg"]}},{"type":"Feature","geometry":{"type":"Point","coordinates":[8.82941461,55.20038001]},"properties":{"id":"1233766a-1074-6b98-e053-d480220a5a3f","navn":"Sk\u00E6rb\u00E6k Vindm\u00F8llepark","hovedtype":"Andentopografi flade","undertype":"vindm\u00F8llepark","navnestatus":"officielt","kommuner":["T\u00F8nder"]}},{"type":"Feature","geometry":{"type":"Point","coordinates":[11.84146032,55.09277838]},"properties":{"id":"1233766a-1075-6b98-e053-d480220a5a3f","navn":"K\u00F8ng Mose","hovedtype":"Andentopografi flade","undertype":"vindm\u00F8llepark","navnestatus":"officielt","kommuner":["Vordingborg"]}},{"type":"Feature","geometry":{"type":"Point","coordinates":[8.27134035,55.80492979]},"properties":{"id":"1233766a-1076-6b98-e053-d480220a5a3f","navn":"Bork M\u00E6rsk","hovedtype":"Andentopografi flade","undertype":"vindm\u00F8llepark","navnestatus":"officielt","kommuner":["Ringk\u00F8bing-Skjern"]}},{"type":"Feature","geometry":{"type":"Point","coordinates":[8.36685988,56.80811119]},"properties":{"id":"1233766a-1077-6b98-e053-d480220a5a3f","navn":"Horsfelt","hovedtype":"Andentopografi flade","undertype":"vindm\u00F8llepark","navnestatus":"officielt","kommuner":["Thisted"]}},{"type":"Feature","geometry":{"type":"Point","coordinates":[12.66955824,55.69082322]},"properties":{"id":"1233766a-1078-6b98-e053-d480220a5a3f","navn":"Middelgrunden Vindm\u00F8llepark","hovedtype":"Andentopografi flade","undertype":"vindm\u00F8llepark","navnestatus":"officielt","kommuner":[]}},{"type":"Feature","geometry":{"type":"Point","coordinates":[8.55422911,55.81636405]},"properties":{"id":"1233766a-1079-6b98-e053-d480220a5a3f","navn":"\u00D8lgod","hovedtype":"Andentopografi flade","undertype":"vindm\u00F8llepark","navnestatus":"officielt","kommuner":["Varde"]}},{"type":"Feature","geometry":{"type":"Point","coordinates":[7.84055181,55.48613874]},"properties":{"id":"1233766a-107c-6b98-e053-d480220a5a3f","navn":"Horns Rev 1","hovedtype":"Andentopografi flade","undertype":"vindm\u00F8llepark","navnestatus":"officielt","kommuner":[]}},{"type":"Feature","geometry":{"type":"Point","coordinates":[9.54257484,57.12588457]},"properties":{"id":"1233766a-107d-6b98-e053-d480220a5a3f","navn":"N\u00F8rre \u00D8kse S\u00F8","hovedtype":"Andentopografi flade","undertype":"vindm\u00F8llepark","navnestatus":"officielt","kommuner":["Jammerbugt"]}},{"type":"Feature","geometry":{"type":"Point","coordinates":[10.00080704,56.95499563]},"properties":{"id":"1233766a-107e-6b98-e053-d480220a5a3f","navn":"Oppelstrup","hovedtype":"Andentopografi flade","undertype":"vindm\u00F8llepark","navnestatus":"officielt","kommuner":["Aalborg"]}},{"type":"Feature","geometry":{"type":"Point","coordinates":[8.95004207,55.13693657]},"properties":{"id":"1233766a-107f-6b98-e053-d480220a5a3f","navn":"Arrild","hovedtype":"Andentopografi flade","undertype":"vindm\u00F8llepark","navnestatus":"officielt","kommuner":["T\u00F8nder"]}},{"type":"Feature","geometry":{"type":"Point","coordinates":[10.58548464,55.73485367]},"properties":{"id":"1233766a-1080-6b98-e053-d480220a5a3f","navn":"Sams\u00F8","hovedtype":"Andentopografi flade","undertype":"vindm\u00F8llepark","navnestatus":"officielt","kommuner":[]}},{"type":"Feature","geometry":{"type":"Point","coordinates":[8.22020549,56.66299491]},"properties":{"id":"1233766a-1081-6b98-e053-d480220a5a3f","navn":"R\u00F8nland","hovedtype":"Andentopografi flade","undertype":"vindm\u00F8llepark","navnestatus":"officielt","kommuner":["Lemvig"]}},{"type":"Feature","geometry":{"type":"Point","coordinates":[10.30624941,56.67053902]},"properties":{"id":"1233766a-1082-6b98-e053-d480220a5a3f","navn":"Bjerre","hovedtype":"Andentopografi flade","undertype":"vindm\u00F8llepark","navnestatus":"officielt","kommuner":["Randers"]}},{"type":"Feature","geometry":{"type":"Point","coordinates":[8.78009552,55.20688122]},"properties":{"id":"1233766a-1083-6b98-e053-d480220a5a3f","navn":"Normsted","hovedtype":"Andentopografi flade","undertype":"vindm\u00F8llepark","navnestatus":"officielt","kommuner":["T\u00F8nder"]}},{"type":"Feature","geometry":{"type":"Point","coordinates":[8.72001127,55.20269552]},"properties":{"id":"1233766a-1084-6b98-e053-d480220a5a3f","navn":"Br\u00F8ns","hovedtype":"Andentopografi flade","undertype":"vindm\u00F8llepark","navnestatus":"officielt","kommuner":["T\u00F8nder"]}},{"type":"Feature","geometry":{"type":"Point","coordinates":[11.69948132,54.55087308]},"properties":{"id":"1233766a-1086-6b98-e053-d480220a5a3f","navn":"Nysted Havm\u00F8llepark","hovedtype":"Andentopografi flade","undertype":"vindm\u00F8llepark","navnestatus":"officielt","kommuner":[]}},{"type":"Feature","geometry":{"type":"Point","coordinates":[7.5876306,55.61426533]},"properties":{"id":"1233766a-1087-6b98-e053-d480220a5a3f","navn":"Horns Rev 2","hovedtype":"Andentopografi flade","undertype":"vindm\u00F8llepark","navnestatus":"officielt","kommuner":[]}},{"type":"Feature","geometry":{"type":"Point","coordinates":[11.58939023,54.54682499]},"properties":{"id":"1233766a-1088-6b98-e053-d480220a5a3f","navn":"R\u00F8dsand 2","hovedtype":"Andentopografi flade","undertype":"vindm\u00F8llepark","navnestatus":"officielt","kommuner":[]}},{"type":"Feature","geometry":{"type":"Point","coordinates":[11.2399274,56.5741176]},"properties":{"id":"1233766a-1089-6b98-e053-d480220a5a3f","navn":"Anholt Havm\u00F8llepark","hovedtype":"Andentopografi flade","undertype":"vindm\u00F8llepark","navnestatus":"officielt","kommuner":[]}},{"type":"Feature","geometry":{"type":"Point","coordinates":[8.88395953,57.05185328]},"properties":{"id":"207b83cc-abf1-764f-e053-d480220a1976","navn":"Testcenter \u00D8sterild","hovedtype":"Andentopografi flade","undertype":"vindm\u00F8llepark","navnestatus":"officielt","kommuner":["Thisted"]}},{"type":"Feature","geometry":{"type":"Point","coordinates":[7.64558422,55.70538574]},"properties":{"id":"90c68f71-b3a5-68bb-e053-d480220ae6c9","navn":"Horns Rev 3","hovedtype":"Andentopografi flade","undertype":"vindm\u00F8llepark","navnestatus":"officielt","kommuner":[]}},{"type":"Feature","geometry":{"type":"Point","coordinates":[12.94514399,55.03209708]},"properties":{"id":"cc7e9cf3-ce95-2639-e053-0c4f210a7375","navn":"Kriegers Flak","hovedtype":"Andentopografi flade","undertype":"vindm\u00F8llepark","navnestatus":"officielt","kommuner":[]}}]}