{"type":"FeatureCollection","features":[{"type":"Feature","geometry":{"type":"Point","coordinates":[9.33342121,54.83242791]},"properties":{"id":"1233766a-11dc-6b98-e053-d480220a5a3f","navn":"Fr\u00F8slev Vest","hovedtype":"Andentopografi punkt","undertype":"rastepladsMedService","navnestatus":"officielt","kommuner":["Aabenraa"]}},{"type":"Feature","geometry":{"type":"Point","coordinates":[9.32960491,54.82640731]},"properties":{"id":"1233766a-11dd-6b98-e053-d480220a5a3f","navn":"Fr\u00F8slev \u00D8st","hovedtype":"Andentopografi punkt","undertype":"rastepladsMedService","navnestatus":"officielt","kommuner":["Aabenraa"]}},{"type":"Feature","geometry":{"type":"Point","coordinates":[9.37213826,55.21636379]},"properties":{"id":"1233766a-1218-6b98-e053-d480220a5a3f","navn":"Ustrup Vest","hovedtype":"Andentopografi punkt","undertype":"rastepladsMedService","navnestatus":"officielt","kommuner":["Haderslev"]}},{"type":"Feature","geometry":{"type":"Point","coordinates":[9.37511944,55.2157667]},"properties":{"id":"1233766a-1219-6b98-e053-d480220a5a3f","navn":"Ustrup \u00D8st","hovedtype":"Andentopografi punkt","undertype":"rastepladsMedService","navnestatus":"officielt","kommuner":["Haderslev"]}},{"type":"Feature","geometry":{"type":"Point","coordinates":[9.55852063,55.64283886]},"properties":{"id":"1233766a-123c-6b98-e053-d480220a5a3f","navn":"Sk\u00E6rup Vest","hovedtype":"Andentopografi punkt","undertype":"rastepladsMedService","navnestatus":"officielt","kommuner":["Vejle"]}},{"type":"Feature","geometry":{"type":"Point","coordinates":[9.56251038,55.63992025]},"properties":{"id":"1233766a-123d-6b98-e053-d480220a5a3f","navn":"Sk\u00E6rup \u00D8st","hovedtype":"Andentopografi punkt","undertype":"rastepladsMedService","navnestatus":"officielt","kommuner":["Vejle"]}},{"type":"Feature","geometry":{"type":"Point","coordinates":[9.87072678,55.97730115]},"properties":{"id":"1233766a-12a8-6b98-e053-d480220a5a3f","navn":"Ejer Bavneh\u00F8j \u00D8st","hovedtype":"Andentopografi punkt","undertype":"rastepladsMedService","navnestatus":"officielt","kommuner":["Skanderborg"]}},{"type":"Feature","geometry":{"type":"Point","coordinates":[9.86477568,55.97952863]},"properties":{"id":"1233766a-12a9-6b98-e053-d480220a5a3f","navn":"Ejer Bavneh\u00F8j Vest","hovedtype":"Andentopografi punkt","undertype":"rastepladsMedService","navnestatus":"officielt","kommuner":["Skanderborg"]}},{"type":"Feature","geometry":{"type":"Point","coordinates":[9.11017031,56.41179682]},"properties":{"id":"1233766a-1341-6b98-e053-d480220a5a3f","navn":"Flintbjerge","hovedtype":"Andentopografi punkt","undertype":"rastepladsMedService","navnestatus":"officielt","kommuner":["Viborg"]}},{"type":"Feature","geometry":{"type":"Point","coordinates":[10.1907646,55.3946222]},"properties":{"id":"1233766a-1433-6b98-e053-d480220a5a3f","navn":"Kildebjerg Nord","hovedtype":"Andentopografi punkt","undertype":"rastepladsMedService","navnestatus":"officielt","kommuner":["Assens"]}},{"type":"Feature","geometry":{"type":"Point","coordinates":[10.1865229,55.39404479]},"properties":{"id":"1233766a-1434-6b98-e053-d480220a5a3f","navn":"Kildebjerg Syd","hovedtype":"Andentopografi punkt","undertype":"rastepladsMedService","navnestatus":"officielt","kommuner":["Assens"]}},{"type":"Feature","geometry":{"type":"Point","coordinates":[11.60713688,55.45491871]},"properties":{"id":"1233766a-1689-6b98-e053-d480220a5a3f","navn":"Tuels\u00F8 Nord","hovedtype":"Andentopografi punkt","undertype":"rastepladsMedService","navnestatus":"officielt","kommuner":["Sor\u00F8"]}},{"type":"Feature","geometry":{"type":"Point","coordinates":[11.59635102,55.45569196]},"properties":{"id":"1233766a-168f-6b98-e053-d480220a5a3f","navn":"Tuels\u00F8 Syd","hovedtype":"Andentopografi punkt","undertype":"rastepladsMedService","navnestatus":"officielt","kommuner":["Sor\u00F8"]}},{"type":"Feature","geometry":{"type":"Point","coordinates":[11.95622565,55.16879033]},"properties":{"id":"1233766a-170d-6b98-e053-d480220a5a3f","navn":"Tappern\u00F8je Vest","hovedtype":"Andentopografi punkt","undertype":"rastepladsMedService","navnestatus":"officielt","kommuner":["N\u00E6stved"]}},{"type":"Feature","geometry":{"type":"Point","coordinates":[11.95860318,55.16589302]},"properties":{"id":"1233766a-170e-6b98-e053-d480220a5a3f","navn":"Tappern\u00F8je \u00D8st","hovedtype":"Andentopografi punkt","undertype":"rastepladsMedService","navnestatus":"officielt","kommuner":["N\u00E6stved"]}},{"type":"Feature","geometry":{"type":"Point","coordinates":[12.22953746,55.5614537]},"properties":{"id":"1233766a-178e-6b98-e053-d480220a5a3f","navn":"Karlslunde Vest","hovedtype":"Andentopografi punkt","undertype":"rastepladsMedService","navnestatus":"officielt","kommuner":["Greve"]}},{"type":"Feature","geometry":{"type":"Point","coordinates":[12.23071457,55.55983732]},"properties":{"id":"1233766a-178f-6b98-e053-d480220a5a3f","navn":"Karlslunde \u00D8st","hovedtype":"Andentopografi punkt","undertype":"rastepladsMedService","navnestatus":"officielt","kommuner":["Greve"]}},{"type":"Feature","geometry":{"type":"Point","coordinates":[9.36356345,55.02289875]},"properties":{"id":"1233766a-18dc-6b98-e053-d480220a5a3f","navn":"\u00C5rslev \u00D8st","hovedtype":"Andentopografi punkt","undertype":"rastepladsMedService","navnestatus":"officielt","kommuner":["Aabenraa"]}},{"type":"Feature","geometry":{"type":"Point","coordinates":[9.58801625,55.74842584]},"properties":{"id":"1233766a-18e1-6b98-e053-d480220a5a3f","navn":"Danmarks Transport Center","hovedtype":"Andentopografi punkt","undertype":"rastepladsMedService","navnestatus":"officielt","kommuner":["Vejle"]}},{"type":"Feature","geometry":{"type":"Point","coordinates":[9.8447523,55.48792542]},"properties":{"id":"1233766a-18e5-6b98-e053-d480220a5a3f","navn":"Lilleb\u00E6lt Nord","hovedtype":"Andentopografi punkt","undertype":"rastepladsMedService","navnestatus":"officielt","kommuner":["Middelfart"]}},{"type":"Feature","geometry":{"type":"Point","coordinates":[9.87839759,55.47791542]},"properties":{"id":"1233766a-18e6-6b98-e053-d480220a5a3f","navn":"Lilleb\u00E6lt Syd","hovedtype":"Andentopografi punkt","undertype":"rastepladsMedService","navnestatus":"officielt","kommuner":["Middelfart"]}},{"type":"Feature","geometry":{"type":"Point","coordinates":[9.42723991,55.47491127]},"properties":{"id":"1233766a-18e8-6b98-e053-d480220a5a3f","navn":"Hylkedal \u00D8st","hovedtype":"Andentopografi punkt","undertype":"rastepladsMedService","navnestatus":"officielt","kommuner":["Kolding"]}},{"type":"Feature","geometry":{"type":"Point","coordinates":[9.42342241,55.47614462]},"properties":{"id":"1233766a-18e9-6b98-e053-d480220a5a3f","navn":"Hylkedal Vest","hovedtype":"Andentopografi punkt","undertype":"rastepladsMedService","navnestatus":"officielt","kommuner":["Kolding"]}},{"type":"Feature","geometry":{"type":"Point","coordinates":[9.90161227,56.99501917]},"properties":{"id":"1233766a-1907-6b98-e053-d480220a5a3f","navn":"Dall","hovedtype":"Andentopografi punkt","undertype":"rastepladsMedService","navnestatus":"officielt","kommuner":["Aalborg"]}},{"type":"Feature","geometry":{"type":"Point","coordinates":[9.74190357,56.84362667]},"properties":{"id":"1233766a-1908-6b98-e053-d480220a5a3f","navn":"Himmerland Vest","hovedtype":"Andentopografi punkt","undertype":"rastepladsMedService","navnestatus":"officielt","kommuner":["Rebild"]}},{"type":"Feature","geometry":{"type":"Point","coordinates":[9.74175834,56.84060226]},"properties":{"id":"1233766a-1909-6b98-e053-d480220a5a3f","navn":"Himmerland \u00D8st","hovedtype":"Andentopografi punkt","undertype":"rastepladsMedService","navnestatus":"officielt","kommuner":["Rebild"]}},{"type":"Feature","geometry":{"type":"Point","coordinates":[10.00165549,56.4492084]},"properties":{"id":"1233766a-1934-6b98-e053-d480220a5a3f","navn":"Guden\u00E5 \u00D8st","hovedtype":"Andentopografi punkt","undertype":"rastepladsMedService","navnestatus":"officielt","kommuner":["Randers"]}},{"type":"Feature","geometry":{"type":"Point","coordinates":[9.99876384,56.45000745]},"properties":{"id":"1233766a-1935-6b98-e053-d480220a5a3f","navn":"Guden\u00E5 Vest","hovedtype":"Andentopografi punkt","undertype":"rastepladsMedService","navnestatus":"officielt","kommuner":["Randers"]}},{"type":"Feature","geometry":{"type":"Point","coordinates":[11.98740841,54.94886252]},"properties":{"id":"1233766a-1956-6b98-e053-d480220a5a3f","navn":"Far\u00F8","hovedtype":"Andentopografi punkt","undertype":"rastepladsMedService","navnestatus":"officielt","kommuner":["Vordingborg"]}},{"type":"Feature","geometry":{"type":"Point","coordinates":[12.03494144,55.32558107]},"properties":{"id":"1233766a-195e-6b98-e053-d480220a5a3f","navn":"Piberhus Vest","hovedtype":"Andentopografi punkt","undertype":"rastepladsMedService","navnestatus":"officielt","kommuner":["Faxe"]}},{"type":"Feature","geometry":{"type":"Point","coordinates":[12.03070253,55.31211899]},"properties":{"id":"1233766a-195f-6b98-e053-d480220a5a3f","navn":"Piberhus \u00D8st","hovedtype":"Andentopografi punkt","undertype":"rastepladsMedService","navnestatus":"officielt","kommuner":["Faxe"]}},{"type":"Feature","geometry":{"type":"Point","coordinates":[11.89788859,55.65182855]},"properties":{"id":"1233766a-1967-6b98-e053-d480220a5a3f","navn":"Torkilstrup Nord","hovedtype":"Andentopografi punkt","undertype":"rastepladsMedService","navnestatus":"officielt","kommuner":["Lejre"]}},{"type":"Feature","geometry":{"type":"Point","coordinates":[11.89969864,55.65111685]},"properties":{"id":"1233766a-1968-6b98-e053-d480220a5a3f","navn":"Torkilstrup Syd","hovedtype":"Andentopografi punkt","undertype":"rastepladsMedService","navnestatus":"officielt","kommuner":["Lejre"]}},{"type":"Feature","geometry":{"type":"Point","coordinates":[10.06554305,56.17857466]},"properties":{"id":"1233766a-197b-6b98-e053-d480220a5a3f","navn":"Pedersminde","hovedtype":"Andentopografi punkt","undertype":"rastepladsMedService","navnestatus":"officielt","kommuner":["Aarhus"]}},{"type":"Feature","geometry":{"type":"Point","coordinates":[10.06657834,56.17559835]},"properties":{"id":"1233766a-197c-6b98-e053-d480220a5a3f","navn":"Blankh\u00F8j","hovedtype":"Andentopografi punkt","undertype":"rastepladsMedService","navnestatus":"officielt","kommuner":["Aarhus"]}},{"type":"Feature","geometry":{"type":"Point","coordinates":[10.45006946,57.31310982]},"properties":{"id":"1233766a-1989-6b98-e053-d480220a5a3f","navn":"Trafikcenter S\u00E6by Syd","hovedtype":"Andentopografi punkt","undertype":"rastepladsMedService","navnestatus":"officielt","kommuner":["Frederikshavn"]}},{"type":"Feature","geometry":{"type":"Point","coordinates":[9.4015389,55.51473439]},"properties":{"id":"1233766a-198a-6b98-e053-d480220a5a3f","navn":"Harte Nord","hovedtype":"Andentopografi punkt","undertype":"rastepladsMedService","navnestatus":"officielt","kommuner":["Kolding"]}},{"type":"Feature","geometry":{"type":"Point","coordinates":[9.39264648,55.51141729]},"properties":{"id":"1233766a-198b-6b98-e053-d480220a5a3f","navn":"Harte Syd","hovedtype":"Andentopografi punkt","undertype":"rastepladsMedService","navnestatus":"officielt","kommuner":["Kolding"]}},{"type":"Feature","geometry":{"type":"Point","coordinates":[11.11922498,55.3477102]},"properties":{"id":"1233766a-1998-6b98-e053-d480220a5a3f","navn":"Kors\u00F8r","hovedtype":"Andentopografi punkt","undertype":"rastepladsMedService","navnestatus":"officielt","kommuner":["Slagelse"]}},{"type":"Feature","geometry":{"type":"Point","coordinates":[10.15929421,57.15212448]},"properties":{"id":"1233766a-199a-6b98-e053-d480220a5a3f","navn":"Hjallerup Enge \u00D8st","hovedtype":"Andentopografi punkt","undertype":"rastepladsMedService","navnestatus":"officielt","kommuner":["Br\u00F8nderslev"]}},{"type":"Feature","geometry":{"type":"Point","coordinates":[9.94201051,57.22162813]},"properties":{"id":"1233766a-19a1-6b98-e053-d480220a5a3f","navn":"Vildmosen \u00D8st","hovedtype":"Andentopografi punkt","undertype":"rastepladsMedService","navnestatus":"officielt","kommuner":["Br\u00F8nderslev"]}},{"type":"Feature","geometry":{"type":"Point","coordinates":[10.60803617,54.99959824]},"properties":{"id":"1233766a-1b12-6b98-e053-d480220a5a3f","navn":"Lundbykiosken","hovedtype":"Andentopografi punkt","undertype":"rastepladsMedService","navnestatus":"officielt","kommuner":["Svendborg"]}},{"type":"Feature","geometry":{"type":"Point","coordinates":[8.51517104,55.62822287]},"properties":{"id":"1233766a-1b2a-6b98-e053-d480220a5a3f","navn":"Varde Vest","hovedtype":"Andentopografi punkt","undertype":"rastepladsMedService","navnestatus":"officielt","kommuner":["Varde"]}},{"type":"Feature","geometry":{"type":"Point","coordinates":[10.25473319,55.12581703]},"properties":{"id":"1233766a-1bd5-6b98-e053-d480220a5a3f","navn":"Skovlyst","hovedtype":"Andentopografi punkt","undertype":"rastepladsMedService","navnestatus":"uofficielt","kommuner":["Faaborg-Midtfyn"]}},{"type":"Feature","geometry":{"type":"Point","coordinates":[11.80481369,55.20862068]},"properties":{"id":"1233766a-1bde-6b98-e053-d480220a5a3f","navn":"R\u00F8nneb\u00E6k","hovedtype":"Andentopografi punkt","undertype":"rastepladsMedService","navnestatus":"officielt","kommuner":["N\u00E6stved"]}},{"type":"Feature","geometry":{"type":"Point","coordinates":[9.18262988,56.31849285]},"properties":{"id":"1233766a-1be6-6b98-e053-d480220a5a3f","navn":"Midtvejs Vest","hovedtype":"Andentopografi punkt","undertype":"rastepladsMedService","navnestatus":"officielt","kommuner":["Viborg"]}},{"type":"Feature","geometry":{"type":"Point","coordinates":[11.93491714,55.45812078]},"properties":{"id":"1233766a-1bef-6b98-e053-d480220a5a3f","navn":"Kongsted Nord","hovedtype":"Andentopografi punkt","undertype":"rastepladsMedService","navnestatus":"officielt","kommuner":["Ringsted"]}},{"type":"Feature","geometry":{"type":"Point","coordinates":[11.65697154,55.70147256]},"properties":{"id":"56c5fe35-5fc1-685a-e053-d280220afe9d","navn":"Springstrup Nord","hovedtype":"Andentopografi punkt","undertype":"rastepladsMedService","navnestatus":"officielt","kommuner":["Holb\u00E6k"]}},{"type":"Feature","geometry":{"type":"Point","coordinates":[11.65066913,55.70136249]},"properties":{"id":"56c5fe35-5fc2-685a-e053-d280220afe9d","navn":"Springstrup Syd","hovedtype":"Andentopografi punkt","undertype":"rastepladsMedService","navnestatus":"officielt","kommuner":["Holb\u00E6k"]}},{"type":"Feature","geometry":{"type":"Point","coordinates":[8.71986941,56.36688431]},"properties":{"id":"96af2e5e-465c-57a5-e053-d380220a8620","navn":"Mejrup","hovedtype":"Andentopografi punkt","undertype":"rastepladsMedService","navnestatus":"officielt","kommuner":["Holstebro"]}}]}