{"type":"FeatureCollection","features":[{"type":"Feature","geometry":{"type":"Point","coordinates":[9.3833112,54.91588706]},"properties":{"id":"1233766a-18d6-6b98-e053-d480220a5a3f","navn":"Oksek\u00E6r \u00D8st","hovedtype":"Andentopografi punkt","undertype":"rastepladsUdenService","navnestatus":"officielt","kommuner":["Aabenraa"]}},{"type":"Feature","geometry":{"type":"Point","coordinates":[9.38139719,54.9167265]},"properties":{"id":"1233766a-18d7-6b98-e053-d480220a5a3f","navn":"Oksek\u00E6r Vest","hovedtype":"Andentopografi punkt","undertype":"rastepladsUdenService","navnestatus":"officielt","kommuner":["Aabenraa"]}},{"type":"Feature","geometry":{"type":"Point","coordinates":[9.37330305,55.11797916]},"properties":{"id":"1233766a-18d9-6b98-e053-d480220a5a3f","navn":"\u00D8ster L\u00F8gum \u00D8st","hovedtype":"Andentopografi punkt","undertype":"rastepladsUdenService","navnestatus":"officielt","kommuner":["Aabenraa"]}},{"type":"Feature","geometry":{"type":"Point","coordinates":[9.37224065,55.12175666]},"properties":{"id":"1233766a-18da-6b98-e053-d480220a5a3f","navn":"\u00D8ster L\u00F8gum Vest","hovedtype":"Andentopografi punkt","undertype":"rastepladsUdenService","navnestatus":"officielt","kommuner":["Aabenraa"]}},{"type":"Feature","geometry":{"type":"Point","coordinates":[9.35951514,55.02199775]},"properties":{"id":"1233766a-18dd-6b98-e053-d480220a5a3f","navn":"\u00C5rslev Vest","hovedtype":"Andentopografi punkt","undertype":"rastepladsUdenService","navnestatus":"officielt","kommuner":["Aabenraa"]}},{"type":"Feature","geometry":{"type":"Point","coordinates":[9.76835812,55.51325729]},"properties":{"id":"1233766a-18e3-6b98-e053-d480220a5a3f","navn":"Staurby","hovedtype":"Andentopografi punkt","undertype":"rastepladsUdenService","navnestatus":"officielt","kommuner":["Middelfart"]}},{"type":"Feature","geometry":{"type":"Point","coordinates":[9.70107966,55.82741007]},"properties":{"id":"1233766a-18f9-6b98-e053-d480220a5a3f","navn":"Merring","hovedtype":"Andentopografi punkt","undertype":"rastepladsUdenService","navnestatus":"officielt","kommuner":["Hedensted"]}},{"type":"Feature","geometry":{"type":"Point","coordinates":[9.6946071,55.82250479]},"properties":{"id":"1233766a-18fb-6b98-e053-d480220a5a3f","navn":"N\u00F8rremark","hovedtype":"Andentopografi punkt","undertype":"rastepladsUdenService","navnestatus":"officielt","kommuner":["Hedensted"]}},{"type":"Feature","geometry":{"type":"Point","coordinates":[9.85149697,56.57176457]},"properties":{"id":"1233766a-18fe-6b98-e053-d480220a5a3f","navn":"Glensh\u00F8j \u00D8st","hovedtype":"Andentopografi punkt","undertype":"rastepladsUdenService","navnestatus":"officielt","kommuner":["Mariagerfjord"]}},{"type":"Feature","geometry":{"type":"Point","coordinates":[9.84984967,56.57087739]},"properties":{"id":"1233766a-18ff-6b98-e053-d480220a5a3f","navn":"Glensh\u00F8j Vest","hovedtype":"Andentopografi punkt","undertype":"rastepladsUdenService","navnestatus":"officielt","kommuner":["Mariagerfjord"]}},{"type":"Feature","geometry":{"type":"Point","coordinates":[9.89990359,56.99179473]},"properties":{"id":"1233766a-1906-6b98-e053-d480220a5a3f","navn":"Limfjorden","hovedtype":"Andentopografi punkt","undertype":"rastepladsUdenService","navnestatus":"officielt","kommuner":["Aalborg"]}},{"type":"Feature","geometry":{"type":"Point","coordinates":[9.70422954,56.73354924]},"properties":{"id":"1233766a-190c-6b98-e053-d480220a5a3f","navn":"Senh\u00F8j Vest","hovedtype":"Andentopografi punkt","undertype":"rastepladsUdenService","navnestatus":"officielt","kommuner":["Rebild"]}},{"type":"Feature","geometry":{"type":"Point","coordinates":[9.70528557,56.73450745]},"properties":{"id":"1233766a-190d-6b98-e053-d480220a5a3f","navn":"Senh\u00F8j \u00D8st","hovedtype":"Andentopografi punkt","undertype":"rastepladsUdenService","navnestatus":"officielt","kommuner":["Rebild"]}},{"type":"Feature","geometry":{"type":"Point","coordinates":[10.5981287,55.34990564]},"properties":{"id":"1233766a-1919-6b98-e053-d480220a5a3f","navn":"R\u00F8nninge Nord","hovedtype":"Andentopografi punkt","undertype":"rastepladsUdenService","navnestatus":"officielt","kommuner":["Kerteminde"]}},{"type":"Feature","geometry":{"type":"Point","coordinates":[10.59321124,55.34864218]},"properties":{"id":"1233766a-191a-6b98-e053-d480220a5a3f","navn":"R\u00F8nninge Syd","hovedtype":"Andentopografi punkt","undertype":"rastepladsUdenService","navnestatus":"officielt","kommuner":["Kerteminde"]}},{"type":"Feature","geometry":{"type":"Point","coordinates":[9.93004481,56.05007782]},"properties":{"id":"1233766a-192e-6b98-e053-d480220a5a3f","navn":"Fuglsang \u00D8st","hovedtype":"Andentopografi punkt","undertype":"rastepladsUdenService","navnestatus":"officielt","kommuner":["Skanderborg"]}},{"type":"Feature","geometry":{"type":"Point","coordinates":[9.92582041,56.05096741]},"properties":{"id":"1233766a-192f-6b98-e053-d480220a5a3f","navn":"Fuglsang Vest","hovedtype":"Andentopografi punkt","undertype":"rastepladsUdenService","navnestatus":"officielt","kommuner":["Skanderborg"]}},{"type":"Feature","geometry":{"type":"Point","coordinates":[11.4865737,54.78095167]},"properties":{"id":"1233766a-1945-6b98-e053-d480220a5a3f","navn":"Lysemose","hovedtype":"Andentopografi punkt","undertype":"rastepladsUdenService","navnestatus":"officielt","kommuner":["Lolland"]}},{"type":"Feature","geometry":{"type":"Point","coordinates":[11.46244583,54.75803814]},"properties":{"id":"1233766a-1946-6b98-e053-d480220a5a3f","navn":"H\u00E5red","hovedtype":"Andentopografi punkt","undertype":"rastepladsUdenService","navnestatus":"officielt","kommuner":["Lolland"]}},{"type":"Feature","geometry":{"type":"Point","coordinates":[11.37923455,55.39998987]},"properties":{"id":"1233766a-1949-6b98-e053-d480220a5a3f","navn":"Antvorskov Nord","hovedtype":"Andentopografi punkt","undertype":"rastepladsUdenService","navnestatus":"officielt","kommuner":["Slagelse"]}},{"type":"Feature","geometry":{"type":"Point","coordinates":[11.38127463,55.39885803]},"properties":{"id":"1233766a-194a-6b98-e053-d480220a5a3f","navn":"Antvorskov Syd","hovedtype":"Andentopografi punkt","undertype":"rastepladsUdenService","navnestatus":"officielt","kommuner":["Slagelse"]}},{"type":"Feature","geometry":{"type":"Point","coordinates":[11.82105833,54.84070862]},"properties":{"id":"1233766a-1957-6b98-e053-d480220a5a3f","navn":"Dronninghave","hovedtype":"Andentopografi punkt","undertype":"rastepladsUdenService","navnestatus":"officielt","kommuner":["Guldborgsund"]}},{"type":"Feature","geometry":{"type":"Point","coordinates":[11.70401512,54.82117833]},"properties":{"id":"1233766a-1958-6b98-e053-d480220a5a3f","navn":"Studehave","hovedtype":"Andentopografi punkt","undertype":"rastepladsUdenService","navnestatus":"officielt","kommuner":["Guldborgsund"]}},{"type":"Feature","geometry":{"type":"Point","coordinates":[12.0949781,55.47747155]},"properties":{"id":"1233766a-1963-6b98-e053-d480220a5a3f","navn":"Salby","hovedtype":"Andentopografi punkt","undertype":"rastepladsUdenService","navnestatus":"officielt","kommuner":["K\u00F8ge"]}},{"type":"Feature","geometry":{"type":"Point","coordinates":[11.9321403,55.45688369]},"properties":{"id":"1233766a-1964-6b98-e053-d480220a5a3f","navn":"Kongsted Syd","hovedtype":"Andentopografi punkt","undertype":"rastepladsUdenService","navnestatus":"officielt","kommuner":["Ringsted"]}},{"type":"Feature","geometry":{"type":"Point","coordinates":[11.85491577,55.45282268]},"properties":{"id":"1233766a-1965-6b98-e053-d480220a5a3f","navn":"Kv\u00E6rkeby Syd","hovedtype":"Andentopografi punkt","undertype":"rastepladsUdenService","navnestatus":"officielt","kommuner":["Ringsted"]}},{"type":"Feature","geometry":{"type":"Point","coordinates":[11.98097665,55.62246889]},"properties":{"id":"1233766a-1966-6b98-e053-d480220a5a3f","navn":"Kornerup Syd","hovedtype":"Andentopografi punkt","undertype":"rastepladsUdenService","navnestatus":"officielt","kommuner":["Lejre"]}},{"type":"Feature","geometry":{"type":"Point","coordinates":[11.75633247,55.66830617]},"properties":{"id":"1233766a-1969-6b98-e053-d480220a5a3f","navn":"Arnakke Syd","hovedtype":"Andentopografi punkt","undertype":"rastepladsUdenService","navnestatus":"officielt","kommuner":["Holb\u00E6k"]}},{"type":"Feature","geometry":{"type":"Point","coordinates":[11.75766203,55.66792104]},"properties":{"id":"1233766a-196a-6b98-e053-d480220a5a3f","navn":"Arnakke Nord","hovedtype":"Andentopografi punkt","undertype":"rastepladsUdenService","navnestatus":"officielt","kommuner":["Holb\u00E6k"]}},{"type":"Feature","geometry":{"type":"Point","coordinates":[12.48640818,55.86483641]},"properties":{"id":"1233766a-196f-6b98-e053-d480220a5a3f","navn":"Ister\u00F8d \u00D8st","hovedtype":"Andentopografi punkt","undertype":"rastepladsUdenService","navnestatus":"officielt","kommuner":["Rudersdal"]}},{"type":"Feature","geometry":{"type":"Point","coordinates":[12.48465416,55.86545393]},"properties":{"id":"1233766a-1970-6b98-e053-d480220a5a3f","navn":"Ister\u00F8d Vest","hovedtype":"Andentopografi punkt","undertype":"rastepladsUdenService","navnestatus":"officielt","kommuner":["Rudersdal"]}},{"type":"Feature","geometry":{"type":"Point","coordinates":[12.53419581,55.79929353]},"properties":{"id":"1233766a-1971-6b98-e053-d480220a5a3f","navn":"Storkereden","hovedtype":"Andentopografi punkt","undertype":"rastepladsUdenService","navnestatus":"officielt","kommuner":["Lyngby-Taarb\u00E6k"]}},{"type":"Feature","geometry":{"type":"Point","coordinates":[12.53267476,55.8002087]},"properties":{"id":"1233766a-1972-6b98-e053-d480220a5a3f","navn":"L\u00E6rkereden","hovedtype":"Andentopografi punkt","undertype":"rastepladsUdenService","navnestatus":"officielt","kommuner":["Lyngby-Taarb\u00E6k"]}},{"type":"Feature","geometry":{"type":"Point","coordinates":[10.45565332,57.34342547]},"properties":{"id":"1233766a-198c-6b98-e053-d480220a5a3f","navn":"\u00D8ksenhede \u00D8st","hovedtype":"Andentopografi punkt","undertype":"rastepladsUdenService","navnestatus":"officielt","kommuner":["Frederikshavn"]}},{"type":"Feature","geometry":{"type":"Point","coordinates":[10.45771701,57.34937599]},"properties":{"id":"1233766a-198d-6b98-e053-d480220a5a3f","navn":"\u00D8ksenhede Vest","hovedtype":"Andentopografi punkt","undertype":"rastepladsUdenService","navnestatus":"officielt","kommuner":["Frederikshavn"]}},{"type":"Feature","geometry":{"type":"Point","coordinates":[8.84889807,55.51924929]},"properties":{"id":"1233766a-1996-6b98-e053-d480220a5a3f","navn":"Bj\u00F8vlund Nord","hovedtype":"Andentopografi punkt","undertype":"rastepladsUdenService","navnestatus":"officielt","kommuner":["Vejen"]}},{"type":"Feature","geometry":{"type":"Point","coordinates":[8.85099778,55.51663039]},"properties":{"id":"1233766a-1997-6b98-e053-d480220a5a3f","navn":"Bj\u00F8vlund Syd","hovedtype":"Andentopografi punkt","undertype":"rastepladsUdenService","navnestatus":"officielt","kommuner":["Vejen"]}},{"type":"Feature","geometry":{"type":"Point","coordinates":[10.15773986,57.15395001]},"properties":{"id":"1233766a-1999-6b98-e053-d480220a5a3f","navn":"Hjallerup Enge Vest","hovedtype":"Andentopografi punkt","undertype":"rastepladsUdenService","navnestatus":"officielt","kommuner":["Br\u00F8nderslev"]}},{"type":"Feature","geometry":{"type":"Point","coordinates":[9.93681663,57.22313634]},"properties":{"id":"1233766a-19a2-6b98-e053-d480220a5a3f","navn":"Vildmosen Vest","hovedtype":"Andentopografi punkt","undertype":"rastepladsUdenService","navnestatus":"officielt","kommuner":["Br\u00F8nderslev"]}},{"type":"Feature","geometry":{"type":"Point","coordinates":[9.00007929,56.03902331]},"properties":{"id":"1233766a-1af4-6b98-e053-d480220a5a3f","navn":"S\u00F8by Vest","hovedtype":"Andentopografi punkt","undertype":"rastepladsUdenService","navnestatus":"officielt","kommuner":["Herning"]}},{"type":"Feature","geometry":{"type":"Point","coordinates":[9.00449277,56.03929188]},"properties":{"id":"1233766a-1af5-6b98-e053-d480220a5a3f","navn":"S\u00F8by \u00D8st","hovedtype":"Andentopografi punkt","undertype":"rastepladsUdenService","navnestatus":"officielt","kommuner":["Herning"]}},{"type":"Feature","geometry":{"type":"Point","coordinates":[10.50036275,55.21991915]},"properties":{"id":"1233766a-1af6-6b98-e053-d480220a5a3f","navn":"Groven","hovedtype":"Andentopografi punkt","undertype":"rastepladsUdenService","navnestatus":"officielt","kommuner":["Faaborg-Midtfyn"]}},{"type":"Feature","geometry":{"type":"Point","coordinates":[10.50219765,55.22020654]},"properties":{"id":"1233766a-1af7-6b98-e053-d480220a5a3f","navn":"Dynden","hovedtype":"Andentopografi punkt","undertype":"rastepladsUdenService","navnestatus":"officielt","kommuner":["Faaborg-Midtfyn"]}},{"type":"Feature","geometry":{"type":"Point","coordinates":[11.74126316,54.8290848]},"properties":{"id":"1233766a-1afa-6b98-e053-d480220a5a3f","navn":"Majb\u00F8lle Samk\u00F8rselsplads","hovedtype":"Andentopografi punkt","undertype":"rastepladsUdenService","navnestatus":"officielt","kommuner":["Guldborgsund"]}},{"type":"Feature","geometry":{"type":"Point","coordinates":[10.1174859,56.22558819]},"properties":{"id":"1233766a-1afb-6b98-e053-d480220a5a3f","navn":"S\u00F8ften Samk\u00F8rselsplads","hovedtype":"Andentopografi punkt","undertype":"rastepladsUdenService","navnestatus":"officielt","kommuner":["Favrskov"]}},{"type":"Feature","geometry":{"type":"Point","coordinates":[10.50869248,57.37972612]},"properties":{"id":"1233766a-1afc-6b98-e053-d480220a5a3f","navn":"S\u00E6by Samk\u00F8rselsplads","hovedtype":"Andentopografi punkt","undertype":"rastepladsUdenService","navnestatus":"officielt","kommuner":["Frederikshavn"]}},{"type":"Feature","geometry":{"type":"Point","coordinates":[11.82702726,55.45366343]},"properties":{"id":"1233766a-1afd-6b98-e053-d480220a5a3f","navn":"K\u00E6rehave Samk\u00F8rselsplads","hovedtype":"Andentopografi punkt","undertype":"rastepladsUdenService","navnestatus":"officielt","kommuner":["Ringsted"]}},{"type":"Feature","geometry":{"type":"Point","coordinates":[12.31143984,55.90929103]},"properties":{"id":"1233766a-1afe-6b98-e053-d480220a5a3f","navn":"Ny Hammersholt","hovedtype":"Andentopografi punkt","undertype":"rastepladsUdenService","navnestatus":"officielt","kommuner":["Hiller\u00F8d"]}},{"type":"Feature","geometry":{"type":"Point","coordinates":[11.55213173,55.65695458]},"properties":{"id":"1233766a-1aff-6b98-e053-d480220a5a3f","navn":"M\u00F8llekrog","hovedtype":"Andentopografi punkt","undertype":"rastepladsUdenService","navnestatus":"officielt","kommuner":["Holb\u00E6k"]}},{"type":"Feature","geometry":{"type":"Point","coordinates":[11.4893061,55.95077824]},"properties":{"id":"1233766a-1b00-6b98-e053-d480220a5a3f","navn":"Ebbel\u00F8kke Syd","hovedtype":"Andentopografi punkt","undertype":"rastepladsUdenService","navnestatus":"officielt","kommuner":["Odsherred"]}},{"type":"Feature","geometry":{"type":"Point","coordinates":[11.48717364,55.95163754]},"properties":{"id":"1233766a-1b01-6b98-e053-d480220a5a3f","navn":"Ebbel\u00F8kke Nord","hovedtype":"Andentopografi punkt","undertype":"rastepladsUdenService","navnestatus":"officielt","kommuner":["Odsherred"]}},{"type":"Feature","geometry":{"type":"Point","coordinates":[11.19803517,55.56386472]},"properties":{"id":"1233766a-1b02-6b98-e053-d480220a5a3f","navn":"\u00C5gerup","hovedtype":"Andentopografi punkt","undertype":"rastepladsUdenService","navnestatus":"officielt","kommuner":["Kalundborg"]}},{"type":"Feature","geometry":{"type":"Point","coordinates":[11.18039289,55.60407078]},"properties":{"id":"1233766a-1b03-6b98-e053-d480220a5a3f","navn":"Svallerup","hovedtype":"Andentopografi punkt","undertype":"rastepladsUdenService","navnestatus":"officielt","kommuner":["Kalundborg"]}},{"type":"Feature","geometry":{"type":"Point","coordinates":[11.36973346,55.38452901]},"properties":{"id":"1233766a-1b04-6b98-e053-d480220a5a3f","navn":"Korsbjerg Syd","hovedtype":"Andentopografi punkt","undertype":"rastepladsUdenService","navnestatus":"officielt","kommuner":["Slagelse"]}},{"type":"Feature","geometry":{"type":"Point","coordinates":[11.36730768,55.38692285]},"properties":{"id":"1233766a-1b05-6b98-e053-d480220a5a3f","navn":"Korsbjerg Nord","hovedtype":"Andentopografi punkt","undertype":"rastepladsUdenService","navnestatus":"officielt","kommuner":["Slagelse"]}},{"type":"Feature","geometry":{"type":"Point","coordinates":[11.39584378,54.82113112]},"properties":{"id":"1233766a-1b06-6b98-e053-d480220a5a3f","navn":"Vesterroder","hovedtype":"Andentopografi punkt","undertype":"rastepladsUdenService","navnestatus":"officielt","kommuner":["Lolland"]}},{"type":"Feature","geometry":{"type":"Point","coordinates":[12.32785111,55.95282298]},"properties":{"id":"1233766a-1b07-6b98-e053-d480220a5a3f","navn":"Stenholts Vang","hovedtype":"Andentopografi punkt","undertype":"rastepladsUdenService","navnestatus":"officielt","kommuner":["Hiller\u00F8d"]}},{"type":"Feature","geometry":{"type":"Point","coordinates":[12.36748673,55.96255194]},"properties":{"id":"1233766a-1b08-6b98-e053-d480220a5a3f","navn":"Bakkehuset","hovedtype":"Andentopografi punkt","undertype":"rastepladsUdenService","navnestatus":"officielt","kommuner":["Fredensborg"]}},{"type":"Feature","geometry":{"type":"Point","coordinates":[12.45530493,55.99153792]},"properties":{"id":"1233766a-1b09-6b98-e053-d480220a5a3f","navn":"Danstruphegn Vest","hovedtype":"Andentopografi punkt","undertype":"rastepladsUdenService","navnestatus":"officielt","kommuner":["Fredensborg"]}},{"type":"Feature","geometry":{"type":"Point","coordinates":[12.46302278,55.99278033]},"properties":{"id":"1233766a-1b0a-6b98-e053-d480220a5a3f","navn":"Danstrup Syd","hovedtype":"Andentopografi punkt","undertype":"rastepladsUdenService","navnestatus":"officielt","kommuner":["Fredensborg"]}},{"type":"Feature","geometry":{"type":"Point","coordinates":[12.47018723,55.99462039]},"properties":{"id":"1233766a-1b0b-6b98-e053-d480220a5a3f","navn":"Danstrup Hegn","hovedtype":"Andentopografi punkt","undertype":"rastepladsUdenService","navnestatus":"officielt","kommuner":["Fredensborg"]}},{"type":"Feature","geometry":{"type":"Point","coordinates":[12.04337799,55.84434442]},"properties":{"id":"1233766a-1b0d-6b98-e053-d480220a5a3f","navn":"Strandvejsboden","hovedtype":"Andentopografi punkt","undertype":"rastepladsUdenService","navnestatus":"officielt","kommuner":["Frederikssund"]}},{"type":"Feature","geometry":{"type":"Point","coordinates":[12.03454272,55.83769197]},"properties":{"id":"1233766a-1b0e-6b98-e053-d480220a5a3f","navn":"F\u00E6rgelunden","hovedtype":"Andentopografi punkt","undertype":"rastepladsUdenService","navnestatus":"officielt","kommuner":["Frederikssund"]}},{"type":"Feature","geometry":{"type":"Point","coordinates":[11.94948502,55.73737703]},"properties":{"id":"1233766a-1b0f-6b98-e053-d480220a5a3f","navn":"Skibby Mark","hovedtype":"Andentopografi punkt","undertype":"rastepladsUdenService","navnestatus":"officielt","kommuner":["Lejre"]}},{"type":"Feature","geometry":{"type":"Point","coordinates":[11.58044913,55.51962013]},"properties":{"id":"1233766a-1b10-6b98-e053-d480220a5a3f","navn":"Saltofte","hovedtype":"Andentopografi punkt","undertype":"rastepladsUdenService","navnestatus":"officielt","kommuner":["Sor\u00F8"]}},{"type":"Feature","geometry":{"type":"Point","coordinates":[11.75907854,55.27474857]},"properties":{"id":"1233766a-1b11-6b98-e053-d480220a5a3f","navn":"Stenskoven","hovedtype":"Andentopografi punkt","undertype":"rastepladsUdenService","navnestatus":"officielt","kommuner":["N\u00E6stved"]}},{"type":"Feature","geometry":{"type":"Point","coordinates":[10.64839631,54.96899545]},"properties":{"id":"1233766a-1b13-6b98-e053-d480220a5a3f","navn":"Si\u00F8 D\u00E6mning","hovedtype":"Andentopografi punkt","undertype":"rastepladsUdenService","navnestatus":"officielt","kommuner":["Svendborg"]}},{"type":"Feature","geometry":{"type":"Point","coordinates":[9.98134788,54.99279119]},"properties":{"id":"1233766a-1b14-6b98-e053-d480220a5a3f","navn":"Fynshav Samk\u00F8rselsplads","hovedtype":"Andentopografi punkt","undertype":"rastepladsUdenService","navnestatus":"officielt","kommuner":["S\u00F8nderborg"]}},{"type":"Feature","geometry":{"type":"Point","coordinates":[9.68936544,54.95960947]},"properties":{"id":"1233766a-1b16-6b98-e053-d480220a5a3f","navn":"Bas\u00E5 Rasteplads","hovedtype":"Andentopografi punkt","undertype":"rastepladsUdenService","navnestatus":"officielt","kommuner":["S\u00F8nderborg"]}},{"type":"Feature","geometry":{"type":"Point","coordinates":[9.46354129,54.99164022]},"properties":{"id":"1233766a-1b17-6b98-e053-d480220a5a3f","navn":"Hostrupkrat Rasteplads","hovedtype":"Andentopografi punkt","undertype":"rastepladsUdenService","navnestatus":"officielt","kommuner":["Aabenraa"]}},{"type":"Feature","geometry":{"type":"Point","coordinates":[9.43474547,55.46608216]},"properties":{"id":"1233766a-1b18-6b98-e053-d480220a5a3f","navn":"Rydkobbel","hovedtype":"Andentopografi punkt","undertype":"rastepladsUdenService","navnestatus":"officielt","kommuner":["Kolding"]}},{"type":"Feature","geometry":{"type":"Point","coordinates":[9.34610957,55.44407079]},"properties":{"id":"1233766a-1b19-6b98-e053-d480220a5a3f","navn":"Hjarup","hovedtype":"Andentopografi punkt","undertype":"rastepladsUdenService","navnestatus":"officielt","kommuner":["Kolding"]}},{"type":"Feature","geometry":{"type":"Point","coordinates":[8.8974103,55.02249088]},"properties":{"id":"1233766a-1b1a-6b98-e053-d480220a5a3f","navn":"Ellum Mark Rasteplads","hovedtype":"Andentopografi punkt","undertype":"rastepladsUdenService","navnestatus":"officielt","kommuner":["T\u00F8nder"]}},{"type":"Feature","geometry":{"type":"Point","coordinates":[8.93064131,55.08508295]},"properties":{"id":"1233766a-1b1b-6b98-e053-d480220a5a3f","navn":"L\u00F8gumg\u00E5rd rasteplads","hovedtype":"Andentopografi punkt","undertype":"rastepladsUdenService","navnestatus":"officielt","kommuner":["T\u00F8nder"]}},{"type":"Feature","geometry":{"type":"Point","coordinates":[9.12625269,55.23626991]},"properties":{"id":"1233766a-1b1c-6b98-e053-d480220a5a3f","navn":"\u00C5b\u00F8l Rasteplads","hovedtype":"Andentopografi punkt","undertype":"rastepladsUdenService","navnestatus":"officielt","kommuner":["Haderslev"]}},{"type":"Feature","geometry":{"type":"Point","coordinates":[8.93576988,55.29408365]},"properties":{"id":"1233766a-1b1d-6b98-e053-d480220a5a3f","navn":"Gels\u00E5 Rasteplads","hovedtype":"Andentopografi punkt","undertype":"rastepladsUdenService","navnestatus":"officielt","kommuner":["Haderslev"]}},{"type":"Feature","geometry":{"type":"Point","coordinates":[8.96995185,55.28411188]},"properties":{"id":"1233766a-1b1e-6b98-e053-d480220a5a3f","navn":"Sct. Th\u00F8ger Rasteplads","hovedtype":"Andentopografi punkt","undertype":"rastepladsUdenService","navnestatus":"officielt","kommuner":["Haderslev"]}},{"type":"Feature","geometry":{"type":"Point","coordinates":[8.57498326,55.44887341]},"properties":{"id":"1233766a-1b1f-6b98-e053-d480220a5a3f","navn":"Tj\u00E6reborg Syd","hovedtype":"Andentopografi punkt","undertype":"rastepladsUdenService","navnestatus":"officielt","kommuner":["Esbjerg"]}},{"type":"Feature","geometry":{"type":"Point","coordinates":[8.57519524,55.44958268]},"properties":{"id":"1233766a-1b20-6b98-e053-d480220a5a3f","navn":"Tj\u00E6reborg Nord","hovedtype":"Andentopografi punkt","undertype":"rastepladsUdenService","navnestatus":"officielt","kommuner":["Esbjerg"]}},{"type":"Feature","geometry":{"type":"Point","coordinates":[8.74336057,55.3020054]},"properties":{"id":"1233766a-1b21-6b98-e053-d480220a5a3f","navn":"S\u00F8nder Farup","hovedtype":"Andentopografi punkt","undertype":"rastepladsUdenService","navnestatus":"officielt","kommuner":["Esbjerg"]}},{"type":"Feature","geometry":{"type":"Point","coordinates":[8.82820028,55.03189882]},"properties":{"id":"1233766a-1b22-6b98-e053-d480220a5a3f","navn":"S\u00F8lsted Rasteplads","hovedtype":"Andentopografi punkt","undertype":"rastepladsUdenService","navnestatus":"officielt","kommuner":["T\u00F8nder"]}},{"type":"Feature","geometry":{"type":"Point","coordinates":[8.91009553,54.90497376]},"properties":{"id":"1233766a-1b23-6b98-e053-d480220a5a3f","navn":"S\u00E6d","hovedtype":"Andentopografi punkt","undertype":"rastepladsUdenService","navnestatus":"officielt","kommuner":["T\u00F8nder"]}},{"type":"Feature","geometry":{"type":"Point","coordinates":[8.6516708,55.47800582]},"properties":{"id":"1233766a-1b24-6b98-e053-d480220a5a3f","navn":"T\u00F8mmerby Rasteplads","hovedtype":"Andentopografi punkt","undertype":"rastepladsUdenService","navnestatus":"officielt","kommuner":["Esbjerg"]}},{"type":"Feature","geometry":{"type":"Point","coordinates":[8.7382491,55.39069514]},"properties":{"id":"1233766a-1b25-6b98-e053-d480220a5a3f","navn":"Jedsted Rasteplads Vest","hovedtype":"Andentopografi punkt","undertype":"rastepladsUdenService","navnestatus":"officielt","kommuner":["Esbjerg"]}},{"type":"Feature","geometry":{"type":"Point","coordinates":[8.73993934,55.39065103]},"properties":{"id":"1233766a-1b26-6b98-e053-d480220a5a3f","navn":"Jedsted Rasteplads \u00D8st","hovedtype":"Andentopografi punkt","undertype":"rastepladsUdenService","navnestatus":"officielt","kommuner":["Esbjerg"]}},{"type":"Feature","geometry":{"type":"Point","coordinates":[8.77324389,55.34065612]},"properties":{"id":"1233766a-1b27-6b98-e053-d480220a5a3f","navn":"Rasteplads Ribe","hovedtype":"Andentopografi punkt","undertype":"rastepladsUdenService","navnestatus":"officielt","kommuner":["Esbjerg"]}},{"type":"Feature","geometry":{"type":"Point","coordinates":[8.49369637,55.70183129]},"properties":{"id":"1233766a-1b28-6b98-e053-d480220a5a3f","navn":"Vester Horne Vest","hovedtype":"Andentopografi punkt","undertype":"rastepladsUdenService","navnestatus":"officielt","kommuner":["Varde"]}},{"type":"Feature","geometry":{"type":"Point","coordinates":[8.49460643,55.70183872]},"properties":{"id":"1233766a-1b29-6b98-e053-d480220a5a3f","navn":"Vester Horne \u00D8st","hovedtype":"Andentopografi punkt","undertype":"rastepladsUdenService","navnestatus":"officielt","kommuner":["Varde"]}},{"type":"Feature","geometry":{"type":"Point","coordinates":[8.51588648,55.62797972]},"properties":{"id":"1233766a-1b2b-6b98-e053-d480220a5a3f","navn":"Varde \u00D8st","hovedtype":"Andentopografi punkt","undertype":"rastepladsUdenService","navnestatus":"officielt","kommuner":["Varde"]}},{"type":"Feature","geometry":{"type":"Point","coordinates":[8.82567532,55.67236878]},"properties":{"id":"1233766a-1b2c-6b98-e053-d480220a5a3f","navn":"Tofterup","hovedtype":"Andentopografi punkt","undertype":"rastepladsUdenService","navnestatus":"officielt","kommuner":["Varde"]}},{"type":"Feature","geometry":{"type":"Point","coordinates":[8.92298802,55.77860326]},"properties":{"id":"1233766a-1b2d-6b98-e053-d480220a5a3f","navn":"Grindsted NV","hovedtype":"Andentopografi punkt","undertype":"rastepladsUdenService","navnestatus":"officielt","kommuner":["Billund"]}},{"type":"Feature","geometry":{"type":"Point","coordinates":[9.55868992,55.80285641]},"properties":{"id":"1233766a-1b2e-6b98-e053-d480220a5a3f","navn":"Sj\u00F8rens Rast Samk\u00F8rselsplads","hovedtype":"Andentopografi punkt","undertype":"rastepladsUdenService","navnestatus":"officielt","kommuner":["Hedensted"]}},{"type":"Feature","geometry":{"type":"Point","coordinates":[9.36913908,56.09317155]},"properties":{"id":"1233766a-1b30-6b98-e053-d480220a5a3f","navn":"Kolpendal Syd","hovedtype":"Andentopografi punkt","undertype":"rastepladsUdenService","navnestatus":"officielt","kommuner":["Ikast-Brande"]}},{"type":"Feature","geometry":{"type":"Point","coordinates":[9.36522354,56.09678145]},"properties":{"id":"1233766a-1b31-6b98-e053-d480220a5a3f","navn":"Kolpendal Nord","hovedtype":"Andentopografi punkt","undertype":"rastepladsUdenService","navnestatus":"officielt","kommuner":["Ikast-Brande"]}},{"type":"Feature","geometry":{"type":"Point","coordinates":[9.34169886,56.16742753]},"properties":{"id":"1233766a-1b32-6b98-e053-d480220a5a3f","navn":"Engesvang \u00D8st","hovedtype":"Andentopografi punkt","undertype":"rastepladsUdenService","navnestatus":"officielt","kommuner":["Ikast-Brande"]}},{"type":"Feature","geometry":{"type":"Point","coordinates":[9.33927222,56.16874589]},"properties":{"id":"1233766a-1b33-6b98-e053-d480220a5a3f","navn":"Engesvang Vest","hovedtype":"Andentopografi punkt","undertype":"rastepladsUdenService","navnestatus":"officielt","kommuner":["Ikast-Brande"]}},{"type":"Feature","geometry":{"type":"Point","coordinates":[9.32061082,56.18730605]},"properties":{"id":"1233766a-1b34-6b98-e053-d480220a5a3f","navn":"Elb\u00E6k \u00D8st","hovedtype":"Andentopografi punkt","undertype":"rastepladsUdenService","navnestatus":"officielt","kommuner":["Ikast-Brande"]}},{"type":"Feature","geometry":{"type":"Point","coordinates":[9.32013639,56.18725589]},"properties":{"id":"1233766a-1b35-6b98-e053-d480220a5a3f","navn":"Elb\u00E6k Vest","hovedtype":"Andentopografi punkt","undertype":"rastepladsUdenService","navnestatus":"officielt","kommuner":["Ikast-Brande"]}},{"type":"Feature","geometry":{"type":"Point","coordinates":[9.31579315,56.19964431]},"properties":{"id":"1233766a-1b36-6b98-e053-d480220a5a3f","navn":"Klode M\u00F8lle \u00D8st","hovedtype":"Andentopografi punkt","undertype":"rastepladsUdenService","navnestatus":"officielt","kommuner":["Ikast-Brande"]}},{"type":"Feature","geometry":{"type":"Point","coordinates":[9.31544715,56.19960844]},"properties":{"id":"1233766a-1b37-6b98-e053-d480220a5a3f","navn":"Klode M\u00F8lle Vest","hovedtype":"Andentopografi punkt","undertype":"rastepladsUdenService","navnestatus":"officielt","kommuner":["Ikast-Brande"]}},{"type":"Feature","geometry":{"type":"Point","coordinates":[9.32182779,56.25000795]},"properties":{"id":"1233766a-1b38-6b98-e053-d480220a5a3f","navn":"Grathe Hede","hovedtype":"Andentopografi punkt","undertype":"rastepladsUdenService","navnestatus":"officielt","kommuner":["Silkeborg"]}},{"type":"Feature","geometry":{"type":"Point","coordinates":[9.31720488,56.25706302]},"properties":{"id":"1233766a-1b39-6b98-e053-d480220a5a3f","navn":"Sdr. Knudstrup Syd","hovedtype":"Andentopografi punkt","undertype":"rastepladsUdenService","navnestatus":"officielt","kommuner":["Silkeborg"]}},{"type":"Feature","geometry":{"type":"Point","coordinates":[9.31497592,56.26229111]},"properties":{"id":"1233766a-1b3a-6b98-e053-d480220a5a3f","navn":"Sdr. Knudstrup Nord","hovedtype":"Andentopografi punkt","undertype":"rastepladsUdenService","navnestatus":"officielt","kommuner":["Silkeborg"]}},{"type":"Feature","geometry":{"type":"Point","coordinates":[9.32746286,56.31270327]},"properties":{"id":"1233766a-1b3b-6b98-e053-d480220a5a3f","navn":"Stendal Rasteplads","hovedtype":"Andentopografi punkt","undertype":"rastepladsUdenService","navnestatus":"officielt","kommuner":["Silkeborg"]}},{"type":"Feature","geometry":{"type":"Point","coordinates":[9.33103858,56.31749546]},"properties":{"id":"1233766a-1b3c-6b98-e053-d480220a5a3f","navn":"Hvam","hovedtype":"Andentopografi punkt","undertype":"rastepladsUdenService","navnestatus":"officielt","kommuner":["Silkeborg"]}},{"type":"Feature","geometry":{"type":"Point","coordinates":[9.38074476,56.38236468]},"properties":{"id":"1233766a-1b3d-6b98-e053-d480220a5a3f","navn":"Vranum Syd","hovedtype":"Andentopografi punkt","undertype":"rastepladsUdenService","navnestatus":"officielt","kommuner":["Viborg"]}},{"type":"Feature","geometry":{"type":"Point","coordinates":[9.37677704,56.39126009]},"properties":{"id":"1233766a-1b3f-6b98-e053-d480220a5a3f","navn":"Vranum Nord","hovedtype":"Andentopografi punkt","undertype":"rastepladsUdenService","navnestatus":"officielt","kommuner":["Viborg"]}},{"type":"Feature","geometry":{"type":"Point","coordinates":[9.37088435,56.40669118]},"properties":{"id":"1233766a-1b40-6b98-e053-d480220a5a3f","navn":"Nonbo","hovedtype":"Andentopografi punkt","undertype":"rastepladsUdenService","navnestatus":"officielt","kommuner":["Viborg"]}},{"type":"Feature","geometry":{"type":"Point","coordinates":[8.44981786,55.99260732]},"properties":{"id":"1233766a-1b41-6b98-e053-d480220a5a3f","navn":"Dejbjerg Vest","hovedtype":"Andentopografi punkt","undertype":"rastepladsUdenService","navnestatus":"officielt","kommuner":["Ringk\u00F8bing-Skjern"]}},{"type":"Feature","geometry":{"type":"Point","coordinates":[8.45248104,55.99020793]},"properties":{"id":"1233766a-1b42-6b98-e053-d480220a5a3f","navn":"Dejbjerg \u00D8st","hovedtype":"Andentopografi punkt","undertype":"rastepladsUdenService","navnestatus":"officielt","kommuner":["Ringk\u00F8bing-Skjern"]}},{"type":"Feature","geometry":{"type":"Point","coordinates":[9.03037824,55.74787632]},"properties":{"id":"1233766a-1b43-6b98-e053-d480220a5a3f","navn":"Grindsted N\u00D8 (L\u00F8vlund)","hovedtype":"Andentopografi punkt","undertype":"rastepladsUdenService","navnestatus":"officielt","kommuner":["Billund"]}},{"type":"Feature","geometry":{"type":"Point","coordinates":[8.9847476,55.75247044]},"properties":{"id":"1233766a-1b44-6b98-e053-d480220a5a3f","navn":"Grindsted S\u00D8 (Hinnum)","hovedtype":"Andentopografi punkt","undertype":"rastepladsUdenService","navnestatus":"officielt","kommuner":["Billund"]}},{"type":"Feature","geometry":{"type":"Point","coordinates":[9.51713172,55.703909]},"properties":{"id":"1233766a-1b45-6b98-e053-d480220a5a3f","navn":"Vejle Nord","hovedtype":"Andentopografi punkt","undertype":"rastepladsUdenService","navnestatus":"officielt","kommuner":["Vejle"]}},{"type":"Feature","geometry":{"type":"Point","coordinates":[9.27059355,55.70697885]},"properties":{"id":"1233766a-1b46-6b98-e053-d480220a5a3f","navn":"Lille G\u00F8dding Skov","hovedtype":"Andentopografi punkt","undertype":"rastepladsUdenService","navnestatus":"officielt","kommuner":["Vejle"]}},{"type":"Feature","geometry":{"type":"Point","coordinates":[9.26638748,55.70713513]},"properties":{"id":"1233766a-1b47-6b98-e053-d480220a5a3f","navn":"G\u00F8dding Skov","hovedtype":"Andentopografi punkt","undertype":"rastepladsUdenService","navnestatus":"officielt","kommuner":["Vejle"]}},{"type":"Feature","geometry":{"type":"Point","coordinates":[9.51670015,55.70372724]},"properties":{"id":"1233766a-1b48-6b98-e053-d480220a5a3f","navn":"Vejle Syd","hovedtype":"Andentopografi punkt","undertype":"rastepladsUdenService","navnestatus":"officielt","kommuner":["Vejle"]}},{"type":"Feature","geometry":{"type":"Point","coordinates":[9.43000736,55.70231908]},"properties":{"id":"1233766a-1b49-6b98-e053-d480220a5a3f","navn":"Kvak M\u00F8lle","hovedtype":"Andentopografi punkt","undertype":"rastepladsUdenService","navnestatus":"officielt","kommuner":["Vejle"]}},{"type":"Feature","geometry":{"type":"Point","coordinates":[8.87620792,56.04337325]},"properties":{"id":"1233766a-1b4c-6b98-e053-d480220a5a3f","navn":"Kib\u00E6k","hovedtype":"Andentopografi punkt","undertype":"rastepladsUdenService","navnestatus":"officielt","kommuner":["Herning"]}},{"type":"Feature","geometry":{"type":"Point","coordinates":[8.84710912,56.00644064]},"properties":{"id":"1233766a-1b4d-6b98-e053-d480220a5a3f","navn":"Assing \u00D8st","hovedtype":"Andentopografi punkt","undertype":"rastepladsUdenService","navnestatus":"officielt","kommuner":["Herning"]}},{"type":"Feature","geometry":{"type":"Point","coordinates":[8.84678474,56.00646962]},"properties":{"id":"1233766a-1b4e-6b98-e053-d480220a5a3f","navn":"Assing Vest","hovedtype":"Andentopografi punkt","undertype":"rastepladsUdenService","navnestatus":"officielt","kommuner":["Herning"]}},{"type":"Feature","geometry":{"type":"Point","coordinates":[8.79238765,55.92123507]},"properties":{"id":"1233766a-1b4f-6b98-e053-d480220a5a3f","navn":"Sdr. Felding Rasteplads","hovedtype":"Andentopografi punkt","undertype":"rastepladsUdenService","navnestatus":"officielt","kommuner":["Herning"]}},{"type":"Feature","geometry":{"type":"Point","coordinates":[8.79942745,55.90999021]},"properties":{"id":"1233766a-1b50-6b98-e053-d480220a5a3f","navn":"Ilderh\u00F8j","hovedtype":"Andentopografi punkt","undertype":"rastepladsUdenService","navnestatus":"officielt","kommuner":["Herning"]}},{"type":"Feature","geometry":{"type":"Point","coordinates":[8.62234724,55.77326788]},"properties":{"id":"1233766a-1b51-6b98-e053-d480220a5a3f","navn":"\u00D8lgod SV","hovedtype":"Andentopografi punkt","undertype":"rastepladsUdenService","navnestatus":"officielt","kommuner":["Varde"]}},{"type":"Feature","geometry":{"type":"Point","coordinates":[8.62329099,55.77334608]},"properties":{"id":"1233766a-1b52-6b98-e053-d480220a5a3f","navn":"\u00D8lgod S\u00D8","hovedtype":"Andentopografi punkt","undertype":"rastepladsUdenService","navnestatus":"officielt","kommuner":["Varde"]}},{"type":"Feature","geometry":{"type":"Point","coordinates":[10.59481667,56.29354098]},"properties":{"id":"1233766a-1b53-6b98-e053-d480220a5a3f","navn":"Tirstrup Nord","hovedtype":"Andentopografi punkt","undertype":"rastepladsUdenService","navnestatus":"officielt","kommuner":["Syddjurs"]}},{"type":"Feature","geometry":{"type":"Point","coordinates":[10.61627103,56.29274934]},"properties":{"id":"1233766a-1b54-6b98-e053-d480220a5a3f","navn":"Tirstrup Syd","hovedtype":"Andentopografi punkt","undertype":"rastepladsUdenService","navnestatus":"officielt","kommuner":["Syddjurs"]}},{"type":"Feature","geometry":{"type":"Point","coordinates":[8.33557425,56.08296166]},"properties":{"id":"1233766a-1b57-6b98-e053-d480220a5a3f","navn":"Velling Syd","hovedtype":"Andentopografi punkt","undertype":"rastepladsUdenService","navnestatus":"officielt","kommuner":["Ringk\u00F8bing-Skjern"]}},{"type":"Feature","geometry":{"type":"Point","coordinates":[8.33880219,56.08300567]},"properties":{"id":"1233766a-1b58-6b98-e053-d480220a5a3f","navn":"Velling Nord","hovedtype":"Andentopografi punkt","undertype":"rastepladsUdenService","navnestatus":"officielt","kommuner":["Ringk\u00F8bing-Skjern"]}},{"type":"Feature","geometry":{"type":"Point","coordinates":[8.79129011,56.11799977]},"properties":{"id":"1233766a-1b59-6b98-e053-d480220a5a3f","navn":"Havnstrup Rasteplads","hovedtype":"Andentopografi punkt","undertype":"rastepladsUdenService","navnestatus":"officielt","kommuner":["Herning"]}},{"type":"Feature","geometry":{"type":"Point","coordinates":[10.07207724,56.19090473]},"properties":{"id":"1233766a-1b5a-6b98-e053-d480220a5a3f","navn":"Tilst-Sabroe Samk\u00F8rselsplads","hovedtype":"Andentopografi punkt","undertype":"rastepladsUdenService","navnestatus":"officielt","kommuner":["Aarhus"]}},{"type":"Feature","geometry":{"type":"Point","coordinates":[9.99370067,56.21527681]},"properties":{"id":"1233766a-1b5b-6b98-e053-d480220a5a3f","navn":"Lading","hovedtype":"Andentopografi punkt","undertype":"rastepladsUdenService","navnestatus":"officielt","kommuner":["Favrskov"]}},{"type":"Feature","geometry":{"type":"Point","coordinates":[9.70385892,56.28162084]},"properties":{"id":"1233766a-1b5c-6b98-e053-d480220a5a3f","navn":"F\u00E5rvang \u00D8st","hovedtype":"Andentopografi punkt","undertype":"rastepladsUdenService","navnestatus":"officielt","kommuner":["Silkeborg"]}},{"type":"Feature","geometry":{"type":"Point","coordinates":[9.70090887,56.28252779]},"properties":{"id":"1233766a-1b5d-6b98-e053-d480220a5a3f","navn":"F\u00E5rvang Vest","hovedtype":"Andentopografi punkt","undertype":"rastepladsUdenService","navnestatus":"officielt","kommuner":["Silkeborg"]}},{"type":"Feature","geometry":{"type":"Point","coordinates":[9.58124912,56.31516196]},"properties":{"id":"1233766a-1b5e-6b98-e053-d480220a5a3f","navn":"Tange S\u00F8 Nord","hovedtype":"Andentopografi punkt","undertype":"rastepladsUdenService","navnestatus":"officielt","kommuner":["Silkeborg"]}},{"type":"Feature","geometry":{"type":"Point","coordinates":[9.58121325,56.31497129]},"properties":{"id":"1233766a-1b5f-6b98-e053-d480220a5a3f","navn":"Tange S\u00F8 Syd","hovedtype":"Andentopografi punkt","undertype":"rastepladsUdenService","navnestatus":"officielt","kommuner":["Silkeborg"]}},{"type":"Feature","geometry":{"type":"Point","coordinates":[9.42453366,56.41076362]},"properties":{"id":"1233766a-1b60-6b98-e053-d480220a5a3f","navn":"Veds\u00F8","hovedtype":"Andentopografi punkt","undertype":"rastepladsUdenService","navnestatus":"officielt","kommuner":["Viborg"]}},{"type":"Feature","geometry":{"type":"Point","coordinates":[9.39676105,56.42359024]},"properties":{"id":"1233766a-1b62-6b98-e053-d480220a5a3f","navn":"Vintm\u00F8lle S\u00F8","hovedtype":"Andentopografi punkt","undertype":"rastepladsUdenService","navnestatus":"officielt","kommuner":["Viborg"]}},{"type":"Feature","geometry":{"type":"Point","coordinates":[9.42798057,56.49338122]},"properties":{"id":"1233766a-1b63-6b98-e053-d480220a5a3f","navn":"Toug\u00E5rddal Rasteplads","hovedtype":"Andentopografi punkt","undertype":"rastepladsUdenService","navnestatus":"officielt","kommuner":["Viborg"]}},{"type":"Feature","geometry":{"type":"Point","coordinates":[9.46207487,56.53309676]},"properties":{"id":"1233766a-1b64-6b98-e053-d480220a5a3f","navn":"L\u00F8vel","hovedtype":"Andentopografi punkt","undertype":"rastepladsUdenService","navnestatus":"officielt","kommuner":["Viborg"]}},{"type":"Feature","geometry":{"type":"Point","coordinates":[9.48136485,56.55311086]},"properties":{"id":"1233766a-1b65-6b98-e053-d480220a5a3f","navn":"\u00C5strup Syd","hovedtype":"Andentopografi punkt","undertype":"rastepladsUdenService","navnestatus":"officielt","kommuner":["Viborg"]}},{"type":"Feature","geometry":{"type":"Point","coordinates":[9.49992911,56.58503562]},"properties":{"id":"1233766a-1b66-6b98-e053-d480220a5a3f","navn":"Bjerregrav Hede","hovedtype":"Andentopografi punkt","undertype":"rastepladsUdenService","navnestatus":"officielt","kommuner":["Viborg"]}},{"type":"Feature","geometry":{"type":"Point","coordinates":[9.51848719,56.6386767]},"properties":{"id":"1233766a-1b67-6b98-e053-d480220a5a3f","navn":"\u00C5strup Nord","hovedtype":"Andentopografi punkt","undertype":"rastepladsUdenService","navnestatus":"officielt","kommuner":["Viborg"]}},{"type":"Feature","geometry":{"type":"Point","coordinates":[9.53344094,56.73136257]},"properties":{"id":"1233766a-1b68-6b98-e053-d480220a5a3f","navn":"Skatskov \u00D8st","hovedtype":"Andentopografi punkt","undertype":"rastepladsUdenService","navnestatus":"officielt","kommuner":["Vesthimmerlands"]}},{"type":"Feature","geometry":{"type":"Point","coordinates":[9.53303795,56.73428851]},"properties":{"id":"1233766a-1b69-6b98-e053-d480220a5a3f","navn":"Skatskov Vest","hovedtype":"Andentopografi punkt","undertype":"rastepladsUdenService","navnestatus":"officielt","kommuner":["Vesthimmerlands"]}},{"type":"Feature","geometry":{"type":"Point","coordinates":[9.55622536,56.76038642]},"properties":{"id":"1233766a-1b6a-6b98-e053-d480220a5a3f","navn":"Store Binderup \u00D8st","hovedtype":"Andentopografi punkt","undertype":"rastepladsUdenService","navnestatus":"officielt","kommuner":["Rebild"]}},{"type":"Feature","geometry":{"type":"Point","coordinates":[9.56629588,56.77134776]},"properties":{"id":"1233766a-1b6b-6b98-e053-d480220a5a3f","navn":"Store Binderup Vest","hovedtype":"Andentopografi punkt","undertype":"rastepladsUdenService","navnestatus":"officielt","kommuner":["Rebild"]}},{"type":"Feature","geometry":{"type":"Point","coordinates":[10.57096247,56.29440277]},"properties":{"id":"1233766a-1b6c-6b98-e053-d480220a5a3f","navn":"Feldballe Samk\u00F8rselsplads","hovedtype":"Andentopografi punkt","undertype":"rastepladsUdenService","navnestatus":"officielt","kommuner":["Syddjurs"]}},{"type":"Feature","geometry":{"type":"Point","coordinates":[10.59590686,56.27748744]},"properties":{"id":"1233766a-1b6d-6b98-e053-d480220a5a3f","navn":"Havreballe \u00D8st","hovedtype":"Andentopografi punkt","undertype":"rastepladsUdenService","navnestatus":"officielt","kommuner":["Syddjurs"]}},{"type":"Feature","geometry":{"type":"Point","coordinates":[10.59727519,56.27616424]},"properties":{"id":"1233766a-1b6e-6b98-e053-d480220a5a3f","navn":"Havreballe Vest","hovedtype":"Andentopografi punkt","undertype":"rastepladsUdenService","navnestatus":"officielt","kommuner":["Syddjurs"]}},{"type":"Feature","geometry":{"type":"Point","coordinates":[10.63345693,56.25696402]},"properties":{"id":"1233766a-1b6f-6b98-e053-d480220a5a3f","navn":"Ulstrup Rasteplads","hovedtype":"Andentopografi punkt","undertype":"rastepladsUdenService","navnestatus":"officielt","kommuner":["Syddjurs"]}},{"type":"Feature","geometry":{"type":"Point","coordinates":[10.65709121,56.24081123]},"properties":{"id":"1233766a-1b70-6b98-e053-d480220a5a3f","navn":"Handrup Rasteplads","hovedtype":"Andentopografi punkt","undertype":"rastepladsUdenService","navnestatus":"officielt","kommuner":["Syddjurs"]}},{"type":"Feature","geometry":{"type":"Point","coordinates":[10.43107495,56.3145958]},"properties":{"id":"1233766a-1b71-6b98-e053-d480220a5a3f","navn":"R\u00F8nde Samk\u00F8rselsplads","hovedtype":"Andentopografi punkt","undertype":"rastepladsUdenService","navnestatus":"officielt","kommuner":["Syddjurs"]}},{"type":"Feature","geometry":{"type":"Point","coordinates":[10.40385496,56.42630504]},"properties":{"id":"1233766a-1b72-6b98-e053-d480220a5a3f","navn":"L\u00F8venholm","hovedtype":"Andentopografi punkt","undertype":"rastepladsUdenService","navnestatus":"officielt","kommuner":["Norddjurs"]}},{"type":"Feature","geometry":{"type":"Point","coordinates":[10.76582665,56.43879095]},"properties":{"id":"1233766a-1b73-6b98-e053-d480220a5a3f","navn":"Skiftensh\u00F8je Syd","hovedtype":"Andentopografi punkt","undertype":"rastepladsUdenService","navnestatus":"officielt","kommuner":["Norddjurs"]}},{"type":"Feature","geometry":{"type":"Point","coordinates":[10.76850012,56.43841509]},"properties":{"id":"1233766a-1b74-6b98-e053-d480220a5a3f","navn":"Skiftensh\u00F8je  Nord","hovedtype":"Andentopografi punkt","undertype":"rastepladsUdenService","navnestatus":"officielt","kommuner":["Norddjurs"]}},{"type":"Feature","geometry":{"type":"Point","coordinates":[9.4617167,56.46990046]},"properties":{"id":"1233766a-1b75-6b98-e053-d480220a5a3f","navn":"Kokholm","hovedtype":"Andentopografi punkt","undertype":"rastepladsUdenService","navnestatus":"officielt","kommuner":["Viborg"]}},{"type":"Feature","geometry":{"type":"Point","coordinates":[9.25102867,56.43751677]},"properties":{"id":"1233766a-1b76-6b98-e053-d480220a5a3f","navn":"Midtpunkt","hovedtype":"Andentopografi punkt","undertype":"rastepladsUdenService","navnestatus":"officielt","kommuner":["Viborg"]}},{"type":"Feature","geometry":{"type":"Point","coordinates":[9.25031766,56.43721724]},"properties":{"id":"1233766a-1b77-6b98-e053-d480220a5a3f","navn":"Midtpunkt Syd","hovedtype":"Andentopografi punkt","undertype":"rastepladsUdenService","navnestatus":"officielt","kommuner":["Viborg"]}},{"type":"Feature","geometry":{"type":"Point","coordinates":[9.04059713,56.41964594]},"properties":{"id":"1233766a-1b79-6b98-e053-d480220a5a3f","navn":"R\u00F8verdalen","hovedtype":"Andentopografi punkt","undertype":"rastepladsUdenService","navnestatus":"officielt","kommuner":["Viborg"]}},{"type":"Feature","geometry":{"type":"Point","coordinates":[8.92374813,56.40013321]},"properties":{"id":"1233766a-1b7a-6b98-e053-d480220a5a3f","navn":"Bjergby","hovedtype":"Andentopografi punkt","undertype":"rastepladsUdenService","navnestatus":"officielt","kommuner":["Holstebro"]}},{"type":"Feature","geometry":{"type":"Point","coordinates":[8.86285279,56.39519315]},"properties":{"id":"1233766a-1b7b-6b98-e053-d480220a5a3f","navn":"Borbjerg Plantage \u00D8st","hovedtype":"Andentopografi punkt","undertype":"rastepladsUdenService","navnestatus":"officielt","kommuner":["Holstebro"]}},{"type":"Feature","geometry":{"type":"Point","coordinates":[8.83909966,56.39337223]},"properties":{"id":"1233766a-1b7c-6b98-e053-d480220a5a3f","navn":"Borbjerg","hovedtype":"Andentopografi punkt","undertype":"rastepladsUdenService","navnestatus":"officielt","kommuner":["Holstebro"]}},{"type":"Feature","geometry":{"type":"Point","coordinates":[8.64482563,56.36033579]},"properties":{"id":"1233766a-1b7d-6b98-e053-d480220a5a3f","navn":"Holstebro \u00D8st","hovedtype":"Andentopografi punkt","undertype":"rastepladsUdenService","navnestatus":"officielt","kommuner":["Holstebro"]}},{"type":"Feature","geometry":{"type":"Point","coordinates":[8.61260612,56.34095324]},"properties":{"id":"1233766a-1b7e-6b98-e053-d480220a5a3f","navn":"Galgebakken Rasteplads","hovedtype":"Andentopografi punkt","undertype":"rastepladsUdenService","navnestatus":"officielt","kommuner":["Holstebro"]}},{"type":"Feature","geometry":{"type":"Point","coordinates":[8.62241363,56.3423257]},"properties":{"id":"1233766a-1b80-6b98-e053-d480220a5a3f","navn":"Nyboh\u00F8je Vest","hovedtype":"Andentopografi punkt","undertype":"rastepladsUdenService","navnestatus":"officielt","kommuner":["Holstebro"]}},{"type":"Feature","geometry":{"type":"Point","coordinates":[8.62487712,56.3432983]},"properties":{"id":"1233766a-1b81-6b98-e053-d480220a5a3f","navn":"Nyboh\u00F8je \u00D8st","hovedtype":"Andentopografi punkt","undertype":"rastepladsUdenService","navnestatus":"officielt","kommuner":["Holstebro"]}},{"type":"Feature","geometry":{"type":"Point","coordinates":[8.63913335,56.35244022]},"properties":{"id":"1233766a-1b82-6b98-e053-d480220a5a3f","navn":"Stor\u00E5 \u00D8st","hovedtype":"Andentopografi punkt","undertype":"rastepladsUdenService","navnestatus":"officielt","kommuner":["Holstebro"]}},{"type":"Feature","geometry":{"type":"Point","coordinates":[8.63897154,56.35329517]},"properties":{"id":"1233766a-1b83-6b98-e053-d480220a5a3f","navn":"Stor\u00E5 Vest","hovedtype":"Andentopografi punkt","undertype":"rastepladsUdenService","navnestatus":"officielt","kommuner":["Holstebro"]}},{"type":"Feature","geometry":{"type":"Point","coordinates":[8.57883135,56.50415172]},"properties":{"id":"1233766a-1b84-6b98-e053-d480220a5a3f","navn":"Bremdal","hovedtype":"Andentopografi punkt","undertype":"rastepladsUdenService","navnestatus":"officielt","kommuner":["Struer"]}},{"type":"Feature","geometry":{"type":"Point","coordinates":[8.6375819,56.93240734]},"properties":{"id":"1233766a-1b85-6b98-e053-d480220a5a3f","navn":"Nordentoft Rasteplads","hovedtype":"Andentopografi punkt","undertype":"rastepladsUdenService","navnestatus":"officielt","kommuner":["Thisted"]}},{"type":"Feature","geometry":{"type":"Point","coordinates":[8.60604386,56.90974206]},"properties":{"id":"1233766a-1b86-6b98-e053-d480220a5a3f","navn":"Skjoldborg","hovedtype":"Andentopografi punkt","undertype":"rastepladsUdenService","navnestatus":"officielt","kommuner":["Thisted"]}},{"type":"Feature","geometry":{"type":"Point","coordinates":[8.56637259,56.86326013]},"properties":{"id":"1233766a-1b87-6b98-e053-d480220a5a3f","navn":"Harring Rasteplads","hovedtype":"Andentopografi punkt","undertype":"rastepladsUdenService","navnestatus":"officielt","kommuner":["Thisted"]}},{"type":"Feature","geometry":{"type":"Point","coordinates":[8.48143072,56.81046797]},"properties":{"id":"1233766a-1b88-6b98-e053-d480220a5a3f","navn":"Villerslev","hovedtype":"Andentopografi punkt","undertype":"rastepladsUdenService","navnestatus":"officielt","kommuner":["Thisted"]}},{"type":"Feature","geometry":{"type":"Point","coordinates":[8.46695228,56.78013022]},"properties":{"id":"1233766a-1b89-6b98-e053-d480220a5a3f","navn":"Visby Rasteplads","hovedtype":"Andentopografi punkt","undertype":"rastepladsUdenService","navnestatus":"officielt","kommuner":["Thisted"]}},{"type":"Feature","geometry":{"type":"Point","coordinates":[8.40609322,56.67024707]},"properties":{"id":"1233766a-1b8a-6b98-e053-d480220a5a3f","navn":"Draget","hovedtype":"Andentopografi punkt","undertype":"rastepladsUdenService","navnestatus":"officielt","kommuner":["Struer"]}},{"type":"Feature","geometry":{"type":"Point","coordinates":[8.48153639,56.64687061]},"properties":{"id":"1233766a-1b8b-6b98-e053-d480220a5a3f","navn":"Kallerup","hovedtype":"Andentopografi punkt","undertype":"rastepladsUdenService","navnestatus":"officielt","kommuner":["Struer"]}},{"type":"Feature","geometry":{"type":"Point","coordinates":[8.75907568,56.97960192]},"properties":{"id":"1233766a-1b8c-6b98-e053-d480220a5a3f","navn":"Guldagerh\u00F8j","hovedtype":"Andentopografi punkt","undertype":"rastepladsUdenService","navnestatus":"officielt","kommuner":["Thisted"]}},{"type":"Feature","geometry":{"type":"Point","coordinates":[9.02262735,57.02368835]},"properties":{"id":"1233766a-1b8d-6b98-e053-d480220a5a3f","navn":"\u00D8sl\u00F8s Rasteplads","hovedtype":"Andentopografi punkt","undertype":"rastepladsUdenService","navnestatus":"officielt","kommuner":["Thisted"]}},{"type":"Feature","geometry":{"type":"Point","coordinates":[9.05195312,57.02210779]},"properties":{"id":"1233766a-1b8e-6b98-e053-d480220a5a3f","navn":"Holmk\u00E6r Rasteplads","hovedtype":"Andentopografi punkt","undertype":"rastepladsUdenService","navnestatus":"officielt","kommuner":["Thisted"]}},{"type":"Feature","geometry":{"type":"Point","coordinates":[9.16145498,57.04591388]},"properties":{"id":"1233766a-1b8f-6b98-e053-d480220a5a3f","navn":"Klim","hovedtype":"Andentopografi punkt","undertype":"rastepladsUdenService","navnestatus":"officielt","kommuner":["Jammerbugt"]}},{"type":"Feature","geometry":{"type":"Point","coordinates":[9.68777285,57.14765519]},"properties":{"id":"1233766a-1b90-6b98-e053-d480220a5a3f","navn":"Birkelse Nord","hovedtype":"Andentopografi punkt","undertype":"rastepladsUdenService","navnestatus":"officielt","kommuner":["Jammerbugt"]}},{"type":"Feature","geometry":{"type":"Point","coordinates":[9.68784296,57.14706018]},"properties":{"id":"1233766a-1b91-6b98-e053-d480220a5a3f","navn":"Birkelse Syd","hovedtype":"Andentopografi punkt","undertype":"rastepladsUdenService","navnestatus":"officielt","kommuner":["Jammerbugt"]}},{"type":"Feature","geometry":{"type":"Point","coordinates":[9.55940672,57.10341725]},"properties":{"id":"1233766a-1b92-6b98-e053-d480220a5a3f","navn":"J\u00E6gerum","hovedtype":"Andentopografi punkt","undertype":"rastepladsUdenService","navnestatus":"officielt","kommuner":["Jammerbugt"]}},{"type":"Feature","geometry":{"type":"Point","coordinates":[9.4102998,57.08863285]},"properties":{"id":"1233766a-1b93-6b98-e053-d480220a5a3f","navn":"Tingskov","hovedtype":"Andentopografi punkt","undertype":"rastepladsUdenService","navnestatus":"officielt","kommuner":["Jammerbugt"]}},{"type":"Feature","geometry":{"type":"Point","coordinates":[9.36580182,57.08805839]},"properties":{"id":"1233766a-1b94-6b98-e053-d480220a5a3f","navn":"Fruebro","hovedtype":"Andentopografi punkt","undertype":"rastepladsUdenService","navnestatus":"officielt","kommuner":["Jammerbugt"]}},{"type":"Feature","geometry":{"type":"Point","coordinates":[9.28152628,57.08616722]},"properties":{"id":"1233766a-1b96-6b98-e053-d480220a5a3f","navn":"Fjerritslev","hovedtype":"Andentopografi punkt","undertype":"rastepladsUdenService","navnestatus":"officielt","kommuner":["Jammerbugt"]}},{"type":"Feature","geometry":{"type":"Point","coordinates":[8.96810947,56.52492553]},"properties":{"id":"1233766a-1b97-6b98-e053-d480220a5a3f","navn":"Estvad","hovedtype":"Andentopografi punkt","undertype":"rastepladsUdenService","navnestatus":"officielt","kommuner":["Skive"]}},{"type":"Feature","geometry":{"type":"Point","coordinates":[10.49791335,57.47308456]},"properties":{"id":"1233766a-1b98-6b98-e053-d480220a5a3f","navn":"Lerb\u00E6k","hovedtype":"Andentopografi punkt","undertype":"rastepladsUdenService","navnestatus":"officielt","kommuner":["Frederikshavn"]}},{"type":"Feature","geometry":{"type":"Point","coordinates":[10.4137474,57.58340461]},"properties":{"id":"1233766a-1b99-6b98-e053-d480220a5a3f","navn":"\u00C5lb\u00E6k","hovedtype":"Andentopografi punkt","undertype":"rastepladsUdenService","navnestatus":"officielt","kommuner":["Frederikshavn"]}},{"type":"Feature","geometry":{"type":"Point","coordinates":[10.45805407,57.63942786]},"properties":{"id":"1233766a-1b9a-6b98-e053-d480220a5a3f","navn":"Bunken Syd","hovedtype":"Andentopografi punkt","undertype":"rastepladsUdenService","navnestatus":"officielt","kommuner":["Frederikshavn"]}},{"type":"Feature","geometry":{"type":"Point","coordinates":[10.46145339,57.64332937]},"properties":{"id":"1233766a-1b9b-6b98-e053-d480220a5a3f","navn":"Bunken Nord","hovedtype":"Andentopografi punkt","undertype":"rastepladsUdenService","navnestatus":"officielt","kommuner":["Frederikshavn"]}},{"type":"Feature","geometry":{"type":"Point","coordinates":[9.18239229,56.31782888]},"properties":{"id":"1233766a-1b9c-6b98-e053-d480220a5a3f","navn":"Midtvejs \u00D8st","hovedtype":"Andentopografi punkt","undertype":"rastepladsUdenService","navnestatus":"officielt","kommuner":["Viborg"]}},{"type":"Feature","geometry":{"type":"Point","coordinates":[9.37862199,56.48016519]},"properties":{"id":"1233766a-1b9d-6b98-e053-d480220a5a3f","navn":"Undallslund","hovedtype":"Andentopografi punkt","undertype":"rastepladsUdenService","navnestatus":"officielt","kommuner":["Viborg"]}},{"type":"Feature","geometry":{"type":"Point","coordinates":[9.34938061,56.50064353]},"properties":{"id":"1233766a-1b9e-6b98-e053-d480220a5a3f","navn":"Rogenstrup","hovedtype":"Andentopografi punkt","undertype":"rastepladsUdenService","navnestatus":"officielt","kommuner":["Viborg"]}},{"type":"Feature","geometry":{"type":"Point","coordinates":[9.20081006,56.53282756]},"properties":{"id":"1233766a-1b9f-6b98-e053-d480220a5a3f","navn":"Jordbrom\u00F8lle","hovedtype":"Andentopografi punkt","undertype":"rastepladsUdenService","navnestatus":"officielt","kommuner":["Skive"]}},{"type":"Feature","geometry":{"type":"Point","coordinates":[9.13522986,56.54137804]},"properties":{"id":"1233766a-1ba0-6b98-e053-d480220a5a3f","navn":"Korsbakken","hovedtype":"Andentopografi punkt","undertype":"rastepladsUdenService","navnestatus":"officielt","kommuner":["Skive"]}},{"type":"Feature","geometry":{"type":"Point","coordinates":[9.12622643,56.54783526]},"properties":{"id":"1233766a-1ba1-6b98-e053-d480220a5a3f","navn":"N\u00F8rre S\u00F8by \u00D8st","hovedtype":"Andentopografi punkt","undertype":"rastepladsUdenService","navnestatus":"officielt","kommuner":["Skive"]}},{"type":"Feature","geometry":{"type":"Point","coordinates":[9.12044765,56.55226793]},"properties":{"id":"1233766a-1ba2-6b98-e053-d480220a5a3f","navn":"H\u00F8jslev","hovedtype":"Andentopografi punkt","undertype":"rastepladsUdenService","navnestatus":"officielt","kommuner":["Skive"]}},{"type":"Feature","geometry":{"type":"Point","coordinates":[8.83468877,56.75846096]},"properties":{"id":"1233766a-1ba3-6b98-e053-d480220a5a3f","navn":"Legindbjerge \u00D8st","hovedtype":"Andentopografi punkt","undertype":"rastepladsUdenService","navnestatus":"officielt","kommuner":["Mors\u00F8"]}},{"type":"Feature","geometry":{"type":"Point","coordinates":[8.83168085,56.76159338]},"properties":{"id":"1233766a-1ba4-6b98-e053-d480220a5a3f","navn":"Legindbjerge Vest","hovedtype":"Andentopografi punkt","undertype":"rastepladsUdenService","navnestatus":"officielt","kommuner":["Mors\u00F8"]}},{"type":"Feature","geometry":{"type":"Point","coordinates":[8.83177632,56.76712962]},"properties":{"id":"1233766a-1ba5-6b98-e053-d480220a5a3f","navn":"Mors Samk\u00F8rselsplads","hovedtype":"Andentopografi punkt","undertype":"rastepladsUdenService","navnestatus":"officielt","kommuner":["Mors\u00F8"]}},{"type":"Feature","geometry":{"type":"Point","coordinates":[8.80985879,56.79821316]},"properties":{"id":"1233766a-1ba6-6b98-e053-d480220a5a3f","navn":"Nyk\u00F8bing Mors \u00D8st","hovedtype":"Andentopografi punkt","undertype":"rastepladsUdenService","navnestatus":"officielt","kommuner":["Mors\u00F8"]}},{"type":"Feature","geometry":{"type":"Point","coordinates":[8.80949113,56.79816489]},"properties":{"id":"1233766a-1ba7-6b98-e053-d480220a5a3f","navn":"Nyk\u00F8bing Mors Vest","hovedtype":"Andentopografi punkt","undertype":"rastepladsUdenService","navnestatus":"officielt","kommuner":["Mors\u00F8"]}},{"type":"Feature","geometry":{"type":"Point","coordinates":[8.66549392,56.87734872]},"properties":{"id":"1233766a-1ba8-6b98-e053-d480220a5a3f","navn":"Sundby Rasteplads","hovedtype":"Andentopografi punkt","undertype":"rastepladsUdenService","navnestatus":"officielt","kommuner":["Mors\u00F8"]}},{"type":"Feature","geometry":{"type":"Point","coordinates":[9.91640136,57.09516679]},"properties":{"id":"1233766a-1ba9-6b98-e053-d480220a5a3f","navn":"Hvorup","hovedtype":"Andentopografi punkt","undertype":"rastepladsUdenService","navnestatus":"officielt","kommuner":["Aalborg"]}},{"type":"Feature","geometry":{"type":"Point","coordinates":[9.82923161,57.11244793]},"properties":{"id":"1233766a-1baa-6b98-e053-d480220a5a3f","navn":"Vadum","hovedtype":"Andentopografi punkt","undertype":"rastepladsUdenService","navnestatus":"officielt","kommuner":["Aalborg"]}},{"type":"Feature","geometry":{"type":"Point","coordinates":[9.7347498,57.15085233]},"properties":{"id":"1233766a-1bab-6b98-e053-d480220a5a3f","navn":"Aabybro","hovedtype":"Andentopografi punkt","undertype":"rastepladsUdenService","navnestatus":"officielt","kommuner":["Jammerbugt"]}},{"type":"Feature","geometry":{"type":"Point","coordinates":[9.91842123,57.45306076]},"properties":{"id":"1233766a-1bac-6b98-e053-d480220a5a3f","navn":"L\u00F8nstrup","hovedtype":"Andentopografi punkt","undertype":"rastepladsUdenService","navnestatus":"officielt","kommuner":["Hj\u00F8rring"]}},{"type":"Feature","geometry":{"type":"Point","coordinates":[9.90185415,57.44483477]},"properties":{"id":"1233766a-1bad-6b98-e053-d480220a5a3f","navn":"Harritslev","hovedtype":"Andentopografi punkt","undertype":"rastepladsUdenService","navnestatus":"officielt","kommuner":["Hj\u00F8rring"]}},{"type":"Feature","geometry":{"type":"Point","coordinates":[9.74386244,57.37941751]},"properties":{"id":"1233766a-1bae-6b98-e053-d480220a5a3f","navn":"Furreby \u00D8st","hovedtype":"Andentopografi punkt","undertype":"rastepladsUdenService","navnestatus":"officielt","kommuner":["Hj\u00F8rring"]}},{"type":"Feature","geometry":{"type":"Point","coordinates":[9.74351175,57.37954436]},"properties":{"id":"1233766a-1baf-6b98-e053-d480220a5a3f","navn":"Furreby Vest","hovedtype":"Andentopografi punkt","undertype":"rastepladsUdenService","navnestatus":"officielt","kommuner":["Hj\u00F8rring"]}},{"type":"Feature","geometry":{"type":"Point","coordinates":[9.70754337,57.3526051]},"properties":{"id":"1233766a-1bb0-6b98-e053-d480220a5a3f","navn":"Nyb\u00E6k","hovedtype":"Andentopografi punkt","undertype":"rastepladsUdenService","navnestatus":"officielt","kommuner":["Hj\u00F8rring"]}},{"type":"Feature","geometry":{"type":"Point","coordinates":[9.7081862,57.3443526]},"properties":{"id":"1233766a-1bb1-6b98-e053-d480220a5a3f","navn":"L\u00F8kken Klit Camping","hovedtype":"Andentopografi punkt","undertype":"rastepladsUdenService","navnestatus":"officielt","kommuner":["Jammerbugt"]}},{"type":"Feature","geometry":{"type":"Point","coordinates":[9.70987581,57.32904615]},"properties":{"id":"1233766a-1bb2-6b98-e053-d480220a5a3f","navn":"Klinkeb\u00E6k","hovedtype":"Andentopografi punkt","undertype":"rastepladsUdenService","navnestatus":"officielt","kommuner":["Jammerbugt"]}},{"type":"Feature","geometry":{"type":"Point","coordinates":[9.69256371,57.25852254]},"properties":{"id":"1233766a-1bb4-6b98-e053-d480220a5a3f","navn":"Saltum Syd","hovedtype":"Andentopografi punkt","undertype":"rastepladsUdenService","navnestatus":"officielt","kommuner":["Jammerbugt"]}},{"type":"Feature","geometry":{"type":"Point","coordinates":[9.68558148,57.23198585]},"properties":{"id":"1233766a-1bb5-6b98-e053-d480220a5a3f","navn":"Pandrup \u00D8st","hovedtype":"Andentopografi punkt","undertype":"rastepladsUdenService","navnestatus":"officielt","kommuner":["Jammerbugt"]}},{"type":"Feature","geometry":{"type":"Point","coordinates":[9.68537132,57.23178325]},"properties":{"id":"1233766a-1bb6-6b98-e053-d480220a5a3f","navn":"Pandrup Vest","hovedtype":"Andentopografi punkt","undertype":"rastepladsUdenService","navnestatus":"officielt","kommuner":["Jammerbugt"]}},{"type":"Feature","geometry":{"type":"Point","coordinates":[9.69232781,57.18688451]},"properties":{"id":"1233766a-1bb7-6b98-e053-d480220a5a3f","navn":"K\u00E5s Rasteplads","hovedtype":"Andentopografi punkt","undertype":"rastepladsUdenService","navnestatus":"officielt","kommuner":["Jammerbugt"]}},{"type":"Feature","geometry":{"type":"Point","coordinates":[10.16399208,57.46519532]},"properties":{"id":"1233766a-1bb8-6b98-e053-d480220a5a3f","navn":"Fjelsted","hovedtype":"Andentopografi punkt","undertype":"rastepladsUdenService","navnestatus":"officielt","kommuner":["Hj\u00F8rring"]}},{"type":"Feature","geometry":{"type":"Point","coordinates":[10.2950533,57.46243357]},"properties":{"id":"1233766a-1bb9-6b98-e053-d480220a5a3f","navn":"Sk\u00F8rb\u00E6k","hovedtype":"Andentopografi punkt","undertype":"rastepladsUdenService","navnestatus":"officielt","kommuner":["Hj\u00F8rring"]}},{"type":"Feature","geometry":{"type":"Point","coordinates":[10.04891345,56.4945817]},"properties":{"id":"1233766a-1bbb-6b98-e053-d480220a5a3f","navn":"Lem","hovedtype":"Andentopografi punkt","undertype":"rastepladsUdenService","navnestatus":"officielt","kommuner":["Randers"]}},{"type":"Feature","geometry":{"type":"Point","coordinates":[10.16003067,56.65522844]},"properties":{"id":"1233766a-1bbc-6b98-e053-d480220a5a3f","navn":"Havndal Vest","hovedtype":"Andentopografi punkt","undertype":"rastepladsUdenService","navnestatus":"officielt","kommuner":["Randers"]}},{"type":"Feature","geometry":{"type":"Point","coordinates":[10.16009169,56.65623784]},"properties":{"id":"1233766a-1bbd-6b98-e053-d480220a5a3f","navn":"Havndal \u00D8st","hovedtype":"Andentopografi punkt","undertype":"rastepladsUdenService","navnestatus":"officielt","kommuner":["Randers"]}},{"type":"Feature","geometry":{"type":"Point","coordinates":[10.15882048,56.65938669]},"properties":{"id":"1233766a-1bbe-6b98-e053-d480220a5a3f","navn":"Trudsholm","hovedtype":"Andentopografi punkt","undertype":"rastepladsUdenService","navnestatus":"officielt","kommuner":["Randers"]}},{"type":"Feature","geometry":{"type":"Point","coordinates":[9.56447334,56.77861742]},"properties":{"id":"1233766a-1bc0-6b98-e053-d480220a5a3f","navn":"Borremose F\u00E6stningen","hovedtype":"Andentopografi punkt","undertype":"rastepladsUdenService","navnestatus":"officielt","kommuner":["Vesthimmerlands"]}},{"type":"Feature","geometry":{"type":"Point","coordinates":[9.52658164,56.80963512]},"properties":{"id":"1233766a-1bc1-6b98-e053-d480220a5a3f","navn":"Aars","hovedtype":"Andentopografi punkt","undertype":"rastepladsUdenService","navnestatus":"officielt","kommuner":["Vesthimmerlands"]}},{"type":"Feature","geometry":{"type":"Point","coordinates":[9.52631107,56.81020755]},"properties":{"id":"1233766a-1bc2-6b98-e053-d480220a5a3f","navn":"Dronningholm","hovedtype":"Andentopografi punkt","undertype":"rastepladsUdenService","navnestatus":"officielt","kommuner":["Vesthimmerlands"]}},{"type":"Feature","geometry":{"type":"Point","coordinates":[9.45923503,56.8553766]},"properties":{"id":"1233766a-1bc3-6b98-e053-d480220a5a3f","navn":"S\u00F8ttrup","hovedtype":"Andentopografi punkt","undertype":"rastepladsUdenService","navnestatus":"officielt","kommuner":["Vesthimmerlands"]}},{"type":"Feature","geometry":{"type":"Point","coordinates":[9.43743559,56.87426789]},"properties":{"id":"1233766a-1bc4-6b98-e053-d480220a5a3f","navn":"Navns\u00F8 Rasteplads","hovedtype":"Andentopografi punkt","undertype":"rastepladsUdenService","navnestatus":"officielt","kommuner":["Vesthimmerlands"]}},{"type":"Feature","geometry":{"type":"Point","coordinates":[9.31455905,56.98237038]},"properties":{"id":"1233766a-1bc5-6b98-e053-d480220a5a3f","navn":"Tolstrup","hovedtype":"Andentopografi punkt","undertype":"rastepladsUdenService","navnestatus":"officielt","kommuner":["Vesthimmerlands"]}},{"type":"Feature","geometry":{"type":"Point","coordinates":[9.29019445,57.00106947]},"properties":{"id":"1233766a-1bc6-6b98-e053-d480220a5a3f","navn":"Aggersund","hovedtype":"Andentopografi punkt","undertype":"rastepladsUdenService","navnestatus":"officielt","kommuner":["Vesthimmerlands"]}},{"type":"Feature","geometry":{"type":"Point","coordinates":[8.68215898,57.05157256]},"properties":{"id":"1233766a-1bc7-6b98-e053-d480220a5a3f","navn":"Tved","hovedtype":"Andentopografi punkt","undertype":"rastepladsUdenService","navnestatus":"officielt","kommuner":["Thisted"]}},{"type":"Feature","geometry":{"type":"Point","coordinates":[8.7222408,57.07856964]},"properties":{"id":"1233766a-1bc8-6b98-e053-d480220a5a3f","navn":"Hesseldal Bjerg","hovedtype":"Andentopografi punkt","undertype":"rastepladsUdenService","navnestatus":"officielt","kommuner":["Thisted"]}},{"type":"Feature","geometry":{"type":"Point","coordinates":[11.86745244,54.82415807]},"properties":{"id":"1233766a-1bca-6b98-e053-d480220a5a3f","navn":"Bruntofte","hovedtype":"Andentopografi punkt","undertype":"rastepladsUdenService","navnestatus":"officielt","kommuner":["Guldborgsund"]}},{"type":"Feature","geometry":{"type":"Point","coordinates":[11.85483061,54.85605035]},"properties":{"id":"1233766a-1bcb-6b98-e053-d480220a5a3f","navn":"\u00D8nslev Samk\u00F8rselsplads","hovedtype":"Andentopografi punkt","undertype":"rastepladsUdenService","navnestatus":"officielt","kommuner":["Guldborgsund"]}},{"type":"Feature","geometry":{"type":"Point","coordinates":[9.95800593,57.0196927]},"properties":{"id":"1233766a-1bcc-6b98-e053-d480220a5a3f","navn":"Th. Sauersvej Samk\u00F8rselsplads","hovedtype":"Andentopografi punkt","undertype":"rastepladsUdenService","navnestatus":"officielt","kommuner":["Aalborg"]}},{"type":"Feature","geometry":{"type":"Point","coordinates":[11.91617043,54.74545369]},"properties":{"id":"1233766a-1bcd-6b98-e053-d480220a5a3f","navn":"Hallerup Skov, nord","hovedtype":"Andentopografi punkt","undertype":"rastepladsUdenService","navnestatus":"officielt","kommuner":["Guldborgsund"]}},{"type":"Feature","geometry":{"type":"Point","coordinates":[11.92001305,54.7376707]},"properties":{"id":"1233766a-1bce-6b98-e053-d480220a5a3f","navn":"Hallerup Vest","hovedtype":"Andentopografi punkt","undertype":"rastepladsUdenService","navnestatus":"officielt","kommuner":["Guldborgsund"]}},{"type":"Feature","geometry":{"type":"Point","coordinates":[11.91114702,54.65719183]},"properties":{"id":"1233766a-1bcf-6b98-e053-d480220a5a3f","navn":"Stavreby","hovedtype":"Andentopografi punkt","undertype":"rastepladsUdenService","navnestatus":"officielt","kommuner":["Guldborgsund"]}},{"type":"Feature","geometry":{"type":"Point","coordinates":[9.25652144,55.52075972]},"properties":{"id":"1233766a-1bd0-6b98-e053-d480220a5a3f","navn":"Gejsing Skov \u00D8st","hovedtype":"Andentopografi punkt","undertype":"rastepladsUdenService","navnestatus":"officielt","kommuner":["Vejen"]}},{"type":"Feature","geometry":{"type":"Point","coordinates":[9.24184484,55.54640319]},"properties":{"id":"1233766a-1bd1-6b98-e053-d480220a5a3f","navn":"Ravnholt","hovedtype":"Andentopografi punkt","undertype":"rastepladsUdenService","navnestatus":"officielt","kommuner":["Vejen"]}},{"type":"Feature","geometry":{"type":"Point","coordinates":[10.32670878,55.20278385]},"properties":{"id":"1233766a-1bd2-6b98-e053-d480220a5a3f","navn":"Hillerslev Nord","hovedtype":"Andentopografi punkt","undertype":"rastepladsUdenService","navnestatus":"officielt","kommuner":["Faaborg-Midtfyn"]}},{"type":"Feature","geometry":{"type":"Point","coordinates":[10.26714343,55.15074074]},"properties":{"id":"1233766a-1bd4-6b98-e053-d480220a5a3f","navn":"Arreskov S\u00F8 Syd","hovedtype":"Andentopografi punkt","undertype":"rastepladsUdenService","navnestatus":"officielt","kommuner":["Faaborg-Midtfyn"]}},{"type":"Feature","geometry":{"type":"Point","coordinates":[12.33312837,55.74304105]},"properties":{"id":"1233766a-1bd6-6b98-e053-d480220a5a3f","navn":"Stormose","hovedtype":"Andentopografi punkt","undertype":"rastepladsUdenService","navnestatus":"officielt","kommuner":["Ballerup"]}},{"type":"Feature","geometry":{"type":"Point","coordinates":[9.75802894,55.60384402]},"properties":{"id":"1233766a-1bd7-6b98-e053-d480220a5a3f","navn":"Egeskov Vest","hovedtype":"Andentopografi punkt","undertype":"rastepladsUdenService","navnestatus":"officielt","kommuner":["Fredericia"]}},{"type":"Feature","geometry":{"type":"Point","coordinates":[9.7587851,55.6036218]},"properties":{"id":"1233766a-1bd8-6b98-e053-d480220a5a3f","navn":"Egeskov \u00D8st","hovedtype":"Andentopografi punkt","undertype":"rastepladsUdenService","navnestatus":"officielt","kommuner":["Fredericia"]}},{"type":"Feature","geometry":{"type":"Point","coordinates":[9.89299509,55.46711788]},"properties":{"id":"1233766a-1bd9-6b98-e053-d480220a5a3f","navn":"N\u00F8rre Aaby Samk\u00F8rselsplads","hovedtype":"Andentopografi punkt","undertype":"rastepladsUdenService","navnestatus":"officielt","kommuner":["Middelfart"]}},{"type":"Feature","geometry":{"type":"Point","coordinates":[11.93080466,55.26035915]},"properties":{"id":"1233766a-1bda-6b98-e053-d480220a5a3f","navn":"Boserup Syd","hovedtype":"Andentopografi punkt","undertype":"rastepladsUdenService","navnestatus":"officielt","kommuner":["N\u00E6stved"]}},{"type":"Feature","geometry":{"type":"Point","coordinates":[11.93537182,55.26142084]},"properties":{"id":"1233766a-1bdb-6b98-e053-d480220a5a3f","navn":"Boserup Nord","hovedtype":"Andentopografi punkt","undertype":"rastepladsUdenService","navnestatus":"officielt","kommuner":["N\u00E6stved"]}},{"type":"Feature","geometry":{"type":"Point","coordinates":[11.9915868,55.25811247]},"properties":{"id":"1233766a-1bdc-6b98-e053-d480220a5a3f","navn":"Borup Samk\u00F8rselsplads","hovedtype":"Andentopografi punkt","undertype":"rastepladsUdenService","navnestatus":"officielt","kommuner":["Faxe"]}},{"type":"Feature","geometry":{"type":"Point","coordinates":[11.99731878,55.25814895]},"properties":{"id":"1233766a-1bdd-6b98-e053-d480220a5a3f","navn":"R\u00F8nnede Samk\u00F8rselsplads","hovedtype":"Andentopografi punkt","undertype":"rastepladsUdenService","navnestatus":"officielt","kommuner":["Faxe"]}},{"type":"Feature","geometry":{"type":"Point","coordinates":[11.89850114,55.14497115]},"properties":{"id":"1233766a-1bdf-6b98-e053-d480220a5a3f","navn":"Hammer Torup","hovedtype":"Andentopografi punkt","undertype":"rastepladsUdenService","navnestatus":"officielt","kommuner":["N\u00E6stved"]}},{"type":"Feature","geometry":{"type":"Point","coordinates":[11.99603888,54.99974701]},"properties":{"id":"1233766a-1be0-6b98-e053-d480220a5a3f","navn":"Bakkeb\u00F8lle Samk\u00F8rselsplads","hovedtype":"Andentopografi punkt","undertype":"rastepladsUdenService","navnestatus":"officielt","kommuner":["Vordingborg"]}},{"type":"Feature","geometry":{"type":"Point","coordinates":[12.20752472,54.96622607]},"properties":{"id":"1233766a-1be1-6b98-e053-d480220a5a3f","navn":"De Hvide Sten","hovedtype":"Andentopografi punkt","undertype":"rastepladsUdenService","navnestatus":"officielt","kommuner":["Vordingborg"]}},{"type":"Feature","geometry":{"type":"Point","coordinates":[10.67012678,55.25114985]},"properties":{"id":"1233766a-1be2-6b98-e053-d480220a5a3f","navn":"\u00D8rb\u00E6k Syd","hovedtype":"Andentopografi punkt","undertype":"rastepladsUdenService","navnestatus":"officielt","kommuner":["Nyborg"]}},{"type":"Feature","geometry":{"type":"Point","coordinates":[10.29106448,55.13190754]},"properties":{"id":"1233766a-1be3-6b98-e053-d480220a5a3f","navn":"Knagelbjerg","hovedtype":"Andentopografi punkt","undertype":"rastepladsUdenService","navnestatus":"officielt","kommuner":["Faaborg-Midtfyn"]}},{"type":"Feature","geometry":{"type":"Point","coordinates":[9.16090697,55.77618547]},"properties":{"id":"1233766a-1be4-6b98-e053-d480220a5a3f","navn":"H\u00F8gelund","hovedtype":"Andentopografi punkt","undertype":"rastepladsUdenService","navnestatus":"officielt","kommuner":["Vejle"]}},{"type":"Feature","geometry":{"type":"Point","coordinates":[9.1432608,55.76000142]},"properties":{"id":"1233766a-1be5-6b98-e053-d480220a5a3f","navn":"B\u00E5stlund","hovedtype":"Andentopografi punkt","undertype":"rastepladsUdenService","navnestatus":"officielt","kommuner":["Vejle"]}},{"type":"Feature","geometry":{"type":"Point","coordinates":[14.74881819,55.08427091]},"properties":{"id":"1233766a-1be9-6b98-e053-d480220a5a3f","navn":"R\u00F8nne Plantage","hovedtype":"Andentopografi punkt","undertype":"rastepladsUdenService","navnestatus":"officielt","kommuner":["Bornholm"]}},{"type":"Feature","geometry":{"type":"Point","coordinates":[9.39853,55.83681573]},"properties":{"id":"1233766a-1bea-6b98-e053-d480220a5a3f","navn":"H\u00E6rvejen Nord","hovedtype":"Andentopografi punkt","undertype":"rastepladsUdenService","navnestatus":"officielt","kommuner":["Vejle"]}},{"type":"Feature","geometry":{"type":"Point","coordinates":[9.39539758,55.83574105]},"properties":{"id":"1233766a-1beb-6b98-e053-d480220a5a3f","navn":"H\u00E6rvejen Syd","hovedtype":"Andentopografi punkt","undertype":"rastepladsUdenService","navnestatus":"officielt","kommuner":["Vejle"]}},{"type":"Feature","geometry":{"type":"Point","coordinates":[9.30050783,56.13455021]},"properties":{"id":"1233766a-1bec-6b98-e053-d480220a5a3f","navn":"R\u00F8nkilde Nord","hovedtype":"Andentopografi punkt","undertype":"rastepladsUdenService","navnestatus":"officielt","kommuner":["Ikast-Brande"]}},{"type":"Feature","geometry":{"type":"Point","coordinates":[9.3002715,56.13325587]},"properties":{"id":"1233766a-1bed-6b98-e053-d480220a5a3f","navn":"R\u00F8nkilde Syd","hovedtype":"Andentopografi punkt","undertype":"rastepladsUdenService","navnestatus":"officielt","kommuner":["Ikast-Brande"]}},{"type":"Feature","geometry":{"type":"Point","coordinates":[8.83324081,54.91369585]},"properties":{"id":"1233766a-1bee-6b98-e053-d480220a5a3f","navn":"L\u00E6gan","hovedtype":"Andentopografi punkt","undertype":"rastepladsUdenService","navnestatus":"officielt","kommuner":["T\u00F8nder"]}},{"type":"Feature","geometry":{"type":"Point","coordinates":[9.76576823,56.1495566]},"properties":{"id":"205454e2-0877-b6bb-e053-d480220a5059","navn":"Kalbyg\u00E5rd Skov Nord","hovedtype":"Andentopografi punkt","undertype":"rastepladsUdenService","navnestatus":"officielt","kommuner":["Skanderborg"]}},{"type":"Feature","geometry":{"type":"Point","coordinates":[9.76171183,56.14791785]},"properties":{"id":"205454e2-0878-b6bb-e053-d480220a5059","navn":"Kalbyg\u00E5rd Skov Syd","hovedtype":"Andentopografi punkt","undertype":"rastepladsUdenService","navnestatus":"officielt","kommuner":["Skanderborg"]}},{"type":"Feature","geometry":{"type":"Point","coordinates":[11.56885927,55.88931932]},"properties":{"id":"56c5fe35-5fc0-685a-e053-d280220afe9d","navn":"Solvognen Rasteplads","hovedtype":"Andentopografi punkt","undertype":"rastepladsUdenService","navnestatus":"officielt","kommuner":["Odsherred"]}},{"type":"Feature","geometry":{"type":"Point","coordinates":[12.22056169,55.94009366]},"properties":{"id":"67351b1c-47a9-495d-e053-d480220af72c","navn":"Tj\u00E6reby","hovedtype":"Andentopografi punkt","undertype":"rastepladsUdenService","navnestatus":"officielt","kommuner":["Hiller\u00F8d"]}},{"type":"Feature","geometry":{"type":"Point","coordinates":[12.09039995,55.93306237]},"properties":{"id":"67351b1c-47ab-495d-e053-d480220af72c","navn":"Lyngby Skov","hovedtype":"Andentopografi punkt","undertype":"rastepladsUdenService","navnestatus":"officielt","kommuner":["Hiller\u00F8d"]}},{"type":"Feature","geometry":{"type":"Point","coordinates":[11.93543988,55.9604897]},"properties":{"id":"67351b1c-47ad-495d-e053-d480220af72c","navn":"Thorup Syd","hovedtype":"Andentopografi punkt","undertype":"rastepladsUdenService","navnestatus":"officielt","kommuner":["Halsn\u00E6s"]}},{"type":"Feature","geometry":{"type":"Point","coordinates":[11.43150154,55.9610841]},"properties":{"id":"67703ce4-7738-756f-e053-d380220a170e","navn":"Drusbjerg","hovedtype":"Andentopografi punkt","undertype":"rastepladsUdenService","navnestatus":"officielt","kommuner":["Odsherred"]}},{"type":"Feature","geometry":{"type":"Point","coordinates":[12.1092746,55.69979371]},"properties":{"id":"6772c83f-0bed-ee6a-e053-d280220a73e7","navn":"Ris\u00F8","hovedtype":"Andentopografi punkt","undertype":"rastepladsUdenService","navnestatus":"officielt","kommuner":["Roskilde"]}},{"type":"Feature","geometry":{"type":"Point","coordinates":[12.16443628,55.83157501]},"properties":{"id":"6772c83f-0bef-ee6a-e053-d280220a73e7","navn":"J\u00F8rlunden","hovedtype":"Andentopografi punkt","undertype":"rastepladsUdenService","navnestatus":"officielt","kommuner":["Frederikssund"]}},{"type":"Feature","geometry":{"type":"Point","coordinates":[12.18386935,55.8685555]},"properties":{"id":"6772c83f-0bf1-ee6a-e053-d280220a73e7","navn":"Lystrup Vest","hovedtype":"Andentopografi punkt","undertype":"rastepladsUdenService","navnestatus":"officielt","kommuner":["Frederikssund"]}},{"type":"Feature","geometry":{"type":"Point","coordinates":[12.17885275,55.86579519]},"properties":{"id":"6772c83f-0bf2-ee6a-e053-d280220a73e7","navn":"Lystrup \u00D8st","hovedtype":"Andentopografi punkt","undertype":"rastepladsUdenService","navnestatus":"officielt","kommuner":["Frederikssund"]}},{"type":"Feature","geometry":{"type":"Point","coordinates":[11.96790396,55.78106022]},"properties":{"id":"678562c4-f9cf-cb89-e053-d480220a298e","navn":"Julianeh\u00F8j","hovedtype":"Andentopografi punkt","undertype":"rastepladsUdenService","navnestatus":"officielt","kommuner":["Frederikssund"]}},{"type":"Feature","geometry":{"type":"Point","coordinates":[11.6918982,55.67751178]},"properties":{"id":"678562c4-f9d1-cb89-e053-d480220a298e","navn":"Hellestrup","hovedtype":"Andentopografi punkt","undertype":"rastepladsUdenService","navnestatus":"officielt","kommuner":["Holb\u00E6k"]}},{"type":"Feature","geometry":{"type":"Point","coordinates":[11.66412825,55.63293702]},"properties":{"id":"678562c4-f9d3-cb89-e053-d480220a298e","navn":"Igels\u00F8","hovedtype":"Andentopografi punkt","undertype":"rastepladsUdenService","navnestatus":"officielt","kommuner":["Holb\u00E6k"]}},{"type":"Feature","geometry":{"type":"Point","coordinates":[11.65823306,55.59169823]},"properties":{"id":"678562c4-f9d4-cb89-e053-d480220a298e","navn":"Ugerl\u00F8se","hovedtype":"Andentopografi punkt","undertype":"rastepladsUdenService","navnestatus":"officielt","kommuner":["Holb\u00E6k"]}},{"type":"Feature","geometry":{"type":"Point","coordinates":[10.62653326,54.9845157]},"properties":{"id":"67eb8f8c-346b-dcbd-e053-d480220aad1e","navn":"Lunkebugten","hovedtype":"Andentopografi punkt","undertype":"rastepladsUdenService","navnestatus":"officielt","kommuner":["Svendborg"]}},{"type":"Feature","geometry":{"type":"Point","coordinates":[9.28149861,55.24470204]},"properties":{"id":"67eb8f8c-346e-dcbd-e053-d480220aad1e","navn":"Bregnbjerg Rasteplads","hovedtype":"Andentopografi punkt","undertype":"rastepladsUdenService","navnestatus":"officielt","kommuner":["Haderslev"]}},{"type":"Feature","geometry":{"type":"Point","coordinates":[8.92745025,55.29565754]},"properties":{"id":"67eb8f8c-3470-dcbd-e053-d480220aad1e","navn":"Gelsbro Rasteplads","hovedtype":"Andentopografi punkt","undertype":"rastepladsUdenService","navnestatus":"officielt","kommuner":["Haderslev"]}},{"type":"Feature","geometry":{"type":"Point","coordinates":[8.95743797,55.28685677]},"properties":{"id":"67eb8f8c-3471-dcbd-e053-d480220aad1e","navn":"Enderupskov Rasteplads","hovedtype":"Andentopografi punkt","undertype":"rastepladsUdenService","navnestatus":"officielt","kommuner":["Haderslev"]}},{"type":"Feature","geometry":{"type":"Point","coordinates":[8.72493503,55.26878202]},"properties":{"id":"67eb8f8c-3472-dcbd-e053-d480220aad1e","navn":"Hviding","hovedtype":"Andentopografi punkt","undertype":"rastepladsUdenService","navnestatus":"officielt","kommuner":["Esbjerg"]}},{"type":"Feature","geometry":{"type":"Point","coordinates":[8.75458819,55.17006769]},"properties":{"id":"67eb8f8c-3474-dcbd-e053-d480220aad1e","navn":"Bomhuset","hovedtype":"Andentopografi punkt","undertype":"rastepladsUdenService","navnestatus":"officielt","kommuner":["T\u00F8nder"]}},{"type":"Feature","geometry":{"type":"Point","coordinates":[8.96282231,55.12077978]},"properties":{"id":"6992d1d2-22e6-027a-e053-d480220ae118","navn":"H\u00F8jg\u00E5rd Rasteplads","hovedtype":"Andentopografi punkt","undertype":"rastepladsUdenService","navnestatus":"officielt","kommuner":["T\u00F8nder"]}},{"type":"Feature","geometry":{"type":"Point","coordinates":[8.96877868,55.72464004]},"properties":{"id":"6b4cd64a-00b3-7206-e053-d480220af859","navn":"Hejnsvig","hovedtype":"Andentopografi punkt","undertype":"rastepladsUdenService","navnestatus":"officielt","kommuner":["Billund"]}},{"type":"Feature","geometry":{"type":"Point","coordinates":[8.73801135,56.10688885]},"properties":{"id":"6baead16-2b8d-0605-e053-d480220a3a4a","navn":"Barde Rasteplads","hovedtype":"Andentopografi punkt","undertype":"rastepladsUdenService","navnestatus":"officielt","kommuner":["Ringk\u00F8bing-Skjern"]}},{"type":"Feature","geometry":{"type":"Point","coordinates":[9.44088178,56.39629326]},"properties":{"id":"6baead16-2b8e-0605-e053-d480220a3a4a","navn":"Rindsholm \u00D8st","hovedtype":"Andentopografi punkt","undertype":"rastepladsUdenService","navnestatus":"officielt","kommuner":["Viborg"]}},{"type":"Feature","geometry":{"type":"Point","coordinates":[9.44021533,56.39638414]},"properties":{"id":"6baead16-2b92-0605-e053-d480220a3a4a","navn":"Rindsholm Vest","hovedtype":"Andentopografi punkt","undertype":"rastepladsUdenService","navnestatus":"officielt","kommuner":["Viborg"]}},{"type":"Feature","geometry":{"type":"Point","coordinates":[9.42223375,56.48527971]},"properties":{"id":"6bc2b505-ae6e-1429-e053-d480220a0675","navn":"Loldrup Rasteplads","hovedtype":"Andentopografi punkt","undertype":"rastepladsUdenService","navnestatus":"officielt","kommuner":["Viborg"]}},{"type":"Feature","geometry":{"type":"Point","coordinates":[9.49943615,56.5881827]},"properties":{"id":"6bc2b505-ae70-1429-e053-d480220a0675","navn":"Bjerregrav","hovedtype":"Andentopografi punkt","undertype":"rastepladsUdenService","navnestatus":"officielt","kommuner":["Viborg"]}},{"type":"Feature","geometry":{"type":"Point","coordinates":[10.30883875,56.37557166]},"properties":{"id":"6bc2b505-ae73-1429-e053-d480220a0675","navn":"Syvveje Rasteplads","hovedtype":"Andentopografi punkt","undertype":"rastepladsUdenService","navnestatus":"officielt","kommuner":["Syddjurs"]}},{"type":"Feature","geometry":{"type":"Point","coordinates":[10.40224082,56.32400951]},"properties":{"id":"6bc2b505-ae74-1429-e053-d480220a0675","navn":"Ommestrup Rasteplads","hovedtype":"Andentopografi punkt","undertype":"rastepladsUdenService","navnestatus":"officielt","kommuner":["Syddjurs"]}},{"type":"Feature","geometry":{"type":"Point","coordinates":[10.32771052,56.44280642]},"properties":{"id":"6bc2b505-ae75-1429-e053-d480220a0675","navn":"Gammel Estrup Rasteplads","hovedtype":"Andentopografi punkt","undertype":"rastepladsUdenService","navnestatus":"officielt","kommuner":["Norddjurs"]}},{"type":"Feature","geometry":{"type":"Point","coordinates":[9.88833743,56.47957132]},"properties":{"id":"6c276acb-5d2a-f164-e053-d380220a8036","navn":"Fussing\u00F8 \u00D8st","hovedtype":"Andentopografi punkt","undertype":"rastepladsUdenService","navnestatus":"officielt","kommuner":["Randers"]}},{"type":"Feature","geometry":{"type":"Point","coordinates":[9.88331229,56.48037616]},"properties":{"id":"6c276acb-5d2b-f164-e053-d380220a8036","navn":"Fussing\u00F8 Vest","hovedtype":"Andentopografi punkt","undertype":"rastepladsUdenService","navnestatus":"officielt","kommuner":["Randers"]}},{"type":"Feature","geometry":{"type":"Point","coordinates":[8.28818146,56.17406789]},"properties":{"id":"6c276acb-5d2d-f164-e053-d380220a8036","navn":"Tudsemose","hovedtype":"Andentopografi punkt","undertype":"rastepladsUdenService","navnestatus":"officielt","kommuner":["Ringk\u00F8bing-Skjern"]}},{"type":"Feature","geometry":{"type":"Point","coordinates":[8.5906791,56.35094582]},"properties":{"id":"6c276acb-5d2f-f164-e053-d380220a8036","navn":"Fladmose","hovedtype":"Andentopografi punkt","undertype":"rastepladsUdenService","navnestatus":"officielt","kommuner":["Holstebro"]}},{"type":"Feature","geometry":{"type":"Point","coordinates":[8.60392452,56.27548191]},"properties":{"id":"6c276acb-5d30-f164-e053-d380220a8036","navn":"Vind Rasteplads","hovedtype":"Andentopografi punkt","undertype":"rastepladsUdenService","navnestatus":"officielt","kommuner":["Herning"]}},{"type":"Feature","geometry":{"type":"Point","coordinates":[8.59692682,56.22155416]},"properties":{"id":"6c276acb-5d31-f164-e053-d380220a8036","navn":"Pr\u00E6stbjerg","hovedtype":"Andentopografi punkt","undertype":"rastepladsUdenService","navnestatus":"officielt","kommuner":["Herning"]}},{"type":"Feature","geometry":{"type":"Point","coordinates":[8.52050035,56.84132292]},"properties":{"id":"6c276acb-5d34-f164-e053-d380220a8036","navn":"Koldby Rasteplads","hovedtype":"Andentopografi punkt","undertype":"rastepladsUdenService","navnestatus":"officielt","kommuner":["Thisted"]}},{"type":"Feature","geometry":{"type":"Point","coordinates":[8.4025066,56.6934321]},"properties":{"id":"6c276acb-5d35-f164-e053-d380220a8036","navn":"S\u00F8nder Ydby Rasteplads","hovedtype":"Andentopografi punkt","undertype":"rastepladsUdenService","navnestatus":"officielt","kommuner":["Thisted"]}},{"type":"Feature","geometry":{"type":"Point","coordinates":[8.52997397,56.60477245]},"properties":{"id":"6c276acb-5d38-f164-e053-d380220a8036","navn":"Odby Rasteplads","hovedtype":"Andentopografi punkt","undertype":"rastepladsUdenService","navnestatus":"officielt","kommuner":["Struer"]}},{"type":"Feature","geometry":{"type":"Point","coordinates":[8.74238662,56.97237214]},"properties":{"id":"6c276acb-5d39-f164-e053-d380220a8036","navn":"Kjelstrup","hovedtype":"Andentopografi punkt","undertype":"rastepladsUdenService","navnestatus":"officielt","kommuner":["Thisted"]}},{"type":"Feature","geometry":{"type":"Point","coordinates":[8.90761885,57.03749693]},"properties":{"id":"6c276acb-5d3a-f164-e053-d380220a8036","navn":"Arup Vejle","hovedtype":"Andentopografi punkt","undertype":"rastepladsUdenService","navnestatus":"officielt","kommuner":["Thisted"]}},{"type":"Feature","geometry":{"type":"Point","coordinates":[8.93310879,57.0365632]},"properties":{"id":"6c276acb-5d3b-f164-e053-d380220a8036","navn":"Vesl\u00F8s Vejle Rasteplads","hovedtype":"Andentopografi punkt","undertype":"rastepladsUdenService","navnestatus":"officielt","kommuner":["Thisted"]}},{"type":"Feature","geometry":{"type":"Point","coordinates":[9.10213184,57.03315754]},"properties":{"id":"6c276acb-5d3c-f164-e053-d380220a8036","navn":"Bygholm Vejle Vest","hovedtype":"Andentopografi punkt","undertype":"rastepladsUdenService","navnestatus":"officielt","kommuner":["Jammerbugt"]}},{"type":"Feature","geometry":{"type":"Point","coordinates":[10.5245975,57.71102646]},"properties":{"id":"6c276acb-5d3d-f164-e053-d380220a8036","navn":"Gyvelstien Rasteplads","hovedtype":"Andentopografi punkt","undertype":"rastepladsUdenService","navnestatus":"officielt","kommuner":["Frederikshavn"]}},{"type":"Feature","geometry":{"type":"Point","coordinates":[9.12431616,56.54955256]},"properties":{"id":"6c3c30d8-268f-9379-e053-d280220a35dc","navn":"N\u00F8rre S\u00F8by Vest","hovedtype":"Andentopografi punkt","undertype":"rastepladsUdenService","navnestatus":"officielt","kommuner":["Skive"]}},{"type":"Feature","geometry":{"type":"Point","coordinates":[8.9937456,56.54794451]},"properties":{"id":"6c686b0e-0f85-b41d-e053-d480220a9eb0","navn":"Skive \u00C5dal Rasteplads","hovedtype":"Andentopografi punkt","undertype":"rastepladsUdenService","navnestatus":"officielt","kommuner":["Skive"]}},{"type":"Feature","geometry":{"type":"Point","coordinates":[10.12963066,56.69894332]},"properties":{"id":"6c78965a-4913-491e-e053-d480220ad28c","navn":"Hadsund Syd","hovedtype":"Andentopografi punkt","undertype":"rastepladsUdenService","navnestatus":"officielt","kommuner":["Mariagerfjord"]}},{"type":"Feature","geometry":{"type":"Point","coordinates":[9.26424713,57.07631797]},"properties":{"id":"6c78965a-4916-491e-e053-d480220ad28c","navn":"Husby","hovedtype":"Andentopografi punkt","undertype":"rastepladsUdenService","navnestatus":"officielt","kommuner":["Jammerbugt"]}},{"type":"Feature","geometry":{"type":"Point","coordinates":[8.46708684,56.51765656]},"properties":{"id":"6c78965a-4917-491e-e053-d480220ad28c","navn":"Gudum","hovedtype":"Andentopografi punkt","undertype":"rastepladsUdenService","navnestatus":"officielt","kommuner":["Lemvig"]}},{"type":"Feature","geometry":{"type":"Point","coordinates":[10.00953719,56.96716063]},"properties":{"id":"6c78965a-491a-491e-e053-d480220ad28c","navn":"Lundby","hovedtype":"Andentopografi punkt","undertype":"rastepladsUdenService","navnestatus":"officielt","kommuner":["Aalborg"]}},{"type":"Feature","geometry":{"type":"Point","coordinates":[10.02582801,56.92655193]},"properties":{"id":"6c78965a-491d-491e-e053-d480220ad28c","navn":"Fjellerad","hovedtype":"Andentopografi punkt","undertype":"rastepladsUdenService","navnestatus":"officielt","kommuner":["Aalborg"]}},{"type":"Feature","geometry":{"type":"Point","coordinates":[10.04400105,56.8205646]},"properties":{"id":"6c78965a-491e-491e-e053-d480220ad28c","navn":"Terndrup Vest","hovedtype":"Andentopografi punkt","undertype":"rastepladsUdenService","navnestatus":"officielt","kommuner":["Rebild"]}},{"type":"Feature","geometry":{"type":"Point","coordinates":[10.04455477,56.82014534]},"properties":{"id":"6c78965a-491f-491e-e053-d480220ad28c","navn":"Terndrup \u00D8st","hovedtype":"Andentopografi punkt","undertype":"rastepladsUdenService","navnestatus":"officielt","kommuner":["Rebild"]}},{"type":"Feature","geometry":{"type":"Point","coordinates":[10.06083867,56.79746615]},"properties":{"id":"6c78965a-4920-491e-e053-d480220ad28c","navn":"Terndrupmark","hovedtype":"Andentopografi punkt","undertype":"rastepladsUdenService","navnestatus":"officielt","kommuner":["Rebild"]}},{"type":"Feature","geometry":{"type":"Point","coordinates":[10.0610578,56.77316837]},"properties":{"id":"6c78965a-4921-491e-e053-d480220ad28c","navn":"Trinnerup","hovedtype":"Andentopografi punkt","undertype":"rastepladsUdenService","navnestatus":"officielt","kommuner":["Rebild"]}},{"type":"Feature","geometry":{"type":"Point","coordinates":[9.04650149,55.66356281]},"properties":{"id":"6c78965a-4922-491e-e053-d480220ad28c","navn":"Hegnsvig-Vorbasse Vest","hovedtype":"Andentopografi punkt","undertype":"rastepladsUdenService","navnestatus":"officielt","kommuner":["Billund"]}},{"type":"Feature","geometry":{"type":"Point","coordinates":[9.04747288,55.6641432]},"properties":{"id":"6c78965a-4923-491e-e053-d480220ad28c","navn":"Hegnsvig-Vorbasse \u00D8st","hovedtype":"Andentopografi punkt","undertype":"rastepladsUdenService","navnestatus":"officielt","kommuner":["Billund"]}},{"type":"Feature","geometry":{"type":"Point","coordinates":[10.32525509,55.19952093]},"properties":{"id":"6c78965a-4926-491e-e053-d480220ad28c","navn":"Hillerslev Syd","hovedtype":"Andentopografi punkt","undertype":"rastepladsUdenService","navnestatus":"officielt","kommuner":["Faaborg-Midtfyn"]}},{"type":"Feature","geometry":{"type":"Point","coordinates":[10.2787494,55.16788708]},"properties":{"id":"6c78965a-4927-491e-e053-d480220ad28c","navn":"Arreskov S\u00F8 Nord","hovedtype":"Andentopografi punkt","undertype":"rastepladsUdenService","navnestatus":"officielt","kommuner":["Faaborg-Midtfyn"]}},{"type":"Feature","geometry":{"type":"Point","coordinates":[10.26040606,55.13525609]},"properties":{"id":"6c78965a-4928-491e-e053-d480220ad28c","navn":"Faaborg Golfbane","hovedtype":"Andentopografi punkt","undertype":"rastepladsUdenService","navnestatus":"officielt","kommuner":["Faaborg-Midtfyn"]}},{"type":"Feature","geometry":{"type":"Point","coordinates":[12.12187853,55.78432686]},"properties":{"id":"6c78965a-4929-491e-e053-d480220ad28c","navn":"\u00C5leb\u00E6k","hovedtype":"Andentopografi punkt","undertype":"rastepladsUdenService","navnestatus":"officielt","kommuner":["Egedal"]}},{"type":"Feature","geometry":{"type":"Point","coordinates":[12.08730647,55.85457522]},"properties":{"id":"6c78965a-492d-491e-e053-d480220ad28c","navn":"Kilden","hovedtype":"Andentopografi punkt","undertype":"rastepladsUdenService","navnestatus":"officielt","kommuner":["Frederikssund"]}},{"type":"Feature","geometry":{"type":"Point","coordinates":[12.06056755,55.90857181]},"properties":{"id":"6c78965a-492e-491e-e053-d480220ad28c","navn":"\u00D8lsted","hovedtype":"Andentopografi punkt","undertype":"rastepladsUdenService","navnestatus":"officielt","kommuner":["Halsn\u00E6s"]}},{"type":"Feature","geometry":{"type":"Point","coordinates":[12.04916381,55.92846914]},"properties":{"id":"6c78965a-492f-491e-e053-d480220ad28c","navn":"Kregme","hovedtype":"Andentopografi punkt","undertype":"rastepladsUdenService","navnestatus":"officielt","kommuner":["Halsn\u00E6s"]}},{"type":"Feature","geometry":{"type":"Point","coordinates":[9.94452298,55.30487961]},"properties":{"id":"6c78965a-4930-491e-e053-d480220ad28c","navn":"Holevad","hovedtype":"Andentopografi punkt","undertype":"rastepladsUdenService","navnestatus":"officielt","kommuner":["Assens"]}},{"type":"Feature","geometry":{"type":"Point","coordinates":[9.91656565,55.38741675]},"properties":{"id":"6c78965a-4931-491e-e053-d480220ad28c","navn":"Tellerup Syd","hovedtype":"Andentopografi punkt","undertype":"rastepladsUdenService","navnestatus":"officielt","kommuner":["Middelfart"]}},{"type":"Feature","geometry":{"type":"Point","coordinates":[9.91432328,55.39034915]},"properties":{"id":"6c78965a-4932-491e-e053-d480220ad28c","navn":"Tellerup Nord","hovedtype":"Andentopografi punkt","undertype":"rastepladsUdenService","navnestatus":"officielt","kommuner":["Middelfart"]}},{"type":"Feature","geometry":{"type":"Point","coordinates":[11.8635769,55.25888446]},"properties":{"id":"6c78965a-4933-491e-e053-d480220ad28c","navn":"Holme-Olstrup","hovedtype":"Andentopografi punkt","undertype":"rastepladsUdenService","navnestatus":"officielt","kommuner":["N\u00E6stved"]}},{"type":"Feature","geometry":{"type":"Point","coordinates":[10.63960159,55.23118814]},"properties":{"id":"6c78965a-4934-491e-e053-d480220ad28c","navn":"Pr\u00E6steskov","hovedtype":"Andentopografi punkt","undertype":"rastepladsUdenService","navnestatus":"officielt","kommuner":["Faaborg-Midtfyn"]}},{"type":"Feature","geometry":{"type":"Point","coordinates":[10.19672405,55.10873012]},"properties":{"id":"6c78965a-4935-491e-e053-d480220ad28c","navn":"Hvedholms All\u00E9 Rasteplads","hovedtype":"Andentopografi punkt","undertype":"rastepladsUdenService","navnestatus":"officielt","kommuner":["Faaborg-Midtfyn"]}},{"type":"Feature","geometry":{"type":"Point","coordinates":[10.08377717,55.1044166]},"properties":{"id":"6c78965a-4936-491e-e053-d480220ad28c","navn":"B\u00F8jden F\u00E6rgehavn","hovedtype":"Andentopografi punkt","undertype":"rastepladsUdenService","navnestatus":"officielt","kommuner":["Faaborg-Midtfyn"]}},{"type":"Feature","geometry":{"type":"Point","coordinates":[10.52486972,55.07202026]},"properties":{"id":"6c78965a-4937-491e-e053-d480220ad28c","navn":"Hvidkilde","hovedtype":"Andentopografi punkt","undertype":"rastepladsUdenService","navnestatus":"officielt","kommuner":["Svendborg"]}},{"type":"Feature","geometry":{"type":"Point","coordinates":[10.407821,55.08249384]},"properties":{"id":"6c78965a-4938-491e-e053-d480220ad28c","navn":"Magrethesminde","hovedtype":"Andentopografi punkt","undertype":"rastepladsUdenService","navnestatus":"officielt","kommuner":["Svendborg"]}},{"type":"Feature","geometry":{"type":"Point","coordinates":[10.28002506,55.08304001]},"properties":{"id":"6c78965a-4939-491e-e053-d480220ad28c","navn":"Faaborg \u00D8st","hovedtype":"Andentopografi punkt","undertype":"rastepladsUdenService","navnestatus":"officielt","kommuner":["Faaborg-Midtfyn"]}},{"type":"Feature","geometry":{"type":"Point","coordinates":[9.69245945,57.28991351]},"properties":{"id":"6cc88fd6-e627-0806-e053-d480220a6bd7","navn":"Saltum Nord","hovedtype":"Andentopografi punkt","undertype":"rastepladsUdenService","navnestatus":"officielt","kommuner":["Jammerbugt"]}},{"type":"Feature","geometry":{"type":"Point","coordinates":[9.25550871,55.52021621]},