{"type":"FeatureCollection","features":[{"type":"Feature","geometry":{"type":"Point","coordinates":[8.68251157,54.95663713]},"properties":{"id":"1233766a-108b-6b98-e053-d480220a5a3f","navn":"H\u00F8jer Sluse","hovedtype":"Andentopografi punkt","undertype":"sluse","navnestatus":"officielt","kommuner":["T\u00F8nder"]}},{"type":"Feature","geometry":{"type":"Point","coordinates":[8.66181554,54.96254076]},"properties":{"id":"1233766a-108c-6b98-e053-d480220a5a3f","navn":"Vid\u00E5 Sluse","hovedtype":"Andentopografi punkt","undertype":"sluse","navnestatus":"officielt","kommuner":["T\u00F8nder"]}},{"type":"Feature","geometry":{"type":"Point","coordinates":[8.64747716,55.38072366]},"properties":{"id":"1233766a-1099-6b98-e053-d480220a5a3f","navn":"Konge\u00E5 Sluse","hovedtype":"Andentopografi punkt","undertype":"sluse","navnestatus":"officielt","kommuner":["Esbjerg"]}},{"type":"Feature","geometry":{"type":"Point","coordinates":[8.676047,55.33995549]},"properties":{"id":"1233766a-10a0-6b98-e053-d480220a5a3f","navn":"Kammerslusen","hovedtype":"Andentopografi punkt","undertype":"sluse","navnestatus":"uofficielt","kommuner":["Esbjerg"]}},{"type":"Feature","geometry":{"type":"Point","coordinates":[8.68640897,55.13088766]},"properties":{"id":"1233766a-10a9-6b98-e053-d480220a5a3f","navn":"Ballum Sluse","hovedtype":"Andentopografi punkt","undertype":"sluse","navnestatus":"officielt","kommuner":["T\u00F8nder"]}},{"type":"Feature","geometry":{"type":"Point","coordinates":[11.30877746,54.67841184]},"properties":{"id":"1233766a-1607-6b98-e053-d480220a5a3f","navn":"Dragsminde Sluse","hovedtype":"Andentopografi punkt","undertype":"sluse","navnestatus":"officielt","kommuner":["Lolland"]}},{"type":"Feature","geometry":{"type":"Point","coordinates":[11.25131066,54.70801737]},"properties":{"id":"1233766a-1616-6b98-e053-d480220a5a3f","navn":"Kramnitze Sluse","hovedtype":"Andentopografi punkt","undertype":"sluse","navnestatus":"officielt","kommuner":["Lolland"]}},{"type":"Feature","geometry":{"type":"Point","coordinates":[8.60717173,55.43302228]},"properties":{"id":"1233766a-19a0-6b98-e053-d480220a5a3f","navn":"Sneum Sluse","hovedtype":"Andentopografi punkt","undertype":"sluse","navnestatus":"officielt","kommuner":["Esbjerg"]}},{"type":"Feature","geometry":{"type":"Point","coordinates":[9.55436369,56.17014236]},"properties":{"id":"135fa467-2cda-1d25-e063-6f4f210ac86e","navn":"Kammerslusen","hovedtype":"Andentopografi punkt","undertype":"sluse","navnestatus":"officielt","kommuner":["Silkeborg"]}},{"type":"Feature","geometry":{"type":"Point","coordinates":[10.20293692,55.43473459]},"properties":{"id":"b32f4186-691a-a183-e053-d280220a9e80","navn":"\u00C5lekisten","hovedtype":"Andentopografi punkt","undertype":"sluse","navnestatus":"officielt","kommuner":["Nordfyns"]}},{"type":"Feature","geometry":{"type":"Point","coordinates":[9.09744759,57.03214378]},"properties":{"id":"e7852fd7-5bc0-8c0f-e053-0c4f210a61c9","navn":"Centralslusen","hovedtype":"Andentopografi punkt","undertype":"sluse","navnestatus":"officielt","kommuner":["Jammerbugt"]}}]}