{"type":"FeatureCollection","features":[{"type":"Feature","geometry":{"type":"Point","coordinates":[12.55756299,55.69131876]},"properties":{"id":"3820f156-7c13-4629-e053-d480220ad1d0","navn":"Mosaisk Nordre Begravelsesplads","hovedtype":"Begravelsesplads","undertype":"j\u00F8disk","navnestatus":"officielt","kommuner":["K\u00F8benhavn"]}},{"type":"Feature","geometry":{"type":"Point","coordinates":[12.53456525,55.66153174]},"properties":{"id":"58fa0346-45da-3f51-e053-d280220a1d81","navn":"Mosaisk Vestre Begravelsesplads","hovedtype":"Begravelsesplads","undertype":"j\u00F8disk","navnestatus":"officielt","kommuner":["K\u00F8benhavn"]}},{"type":"Feature","geometry":{"type":"Point","coordinates":[9.74967185,55.5648912]},"properties":{"id":"6b37cee7-4c44-f2da-e053-d480220aa460","navn":"Den J\u00F8diske Kirkeg\u00E5rd","hovedtype":"Begravelsesplads","undertype":"j\u00F8disk","navnestatus":"officielt","kommuner":["Fredericia"]}},{"type":"Feature","geometry":{"type":"Point","coordinates":[9.91196352,57.04685874]},"properties":{"id":"89ee90a6-88c1-40c6-e053-d480220ac0bd","navn":"Aalborg Begravelsesplads","hovedtype":"Begravelsesplads","undertype":"j\u00F8disk","navnestatus":"officielt","kommuner":["Aalborg"]}},{"type":"Feature","geometry":{"type":"Point","coordinates":[9.85484193,55.86606008]},"properties":{"id":"89ee90a6-88c2-40c6-e053-d480220ac0bd","navn":"Den J\u00F8diske Kirkeg\u00E5rd i Horsens","hovedtype":"Begravelsesplads","undertype":"j\u00F8disk","navnestatus":"officielt","kommuner":["Horsens"]}},{"type":"Feature","geometry":{"type":"Point","coordinates":[9.75070438,55.56545816]},"properties":{"id":"89ee90a6-88c3-40c6-e053-d480220ac0bd","navn":"Fredericia Begravelsesplads","hovedtype":"Begravelsesplads","undertype":"j\u00F8disk","navnestatus":"officielt","kommuner":["Fredericia"]}},{"type":"Feature","geometry":{"type":"Point","coordinates":[10.20086353,56.15207946]},"properties":{"id":"89ee90a6-88c4-40c6-e053-d480220ac0bd","navn":"Det Mosaiske Trossamfunds Kirkeg\u00E5rd","hovedtype":"Begravelsesplads","undertype":"j\u00F8disk","navnestatus":"officielt","kommuner":["Aarhus"]}},{"type":"Feature","geometry":{"type":"Point","coordinates":[10.04362566,56.46415156]},"properties":{"id":"89ee90a6-88c5-40c6-e053-d480220ac0bd","navn":"Den J\u00F8diske Kirkeg\u00E5rd i Randers","hovedtype":"Begravelsesplads","undertype":"j\u00F8disk","navnestatus":"officielt","kommuner":["Randers"]}},{"type":"Feature","geometry":{"type":"Point","coordinates":[10.37600802,55.39128573]},"properties":{"id":"89ee90a6-88c6-40c6-e053-d480220ac0bd","navn":"Den J\u00F8diske Kirkeg\u00E5rd i Odense","hovedtype":"Begravelsesplads","undertype":"j\u00F8disk","navnestatus":"officielt","kommuner":["Odense"]}},{"type":"Feature","geometry":{"type":"Point","coordinates":[10.25121215,55.09023135]},"properties":{"id":"89ee90a6-88c7-40c6-e053-d480220ac0bd","navn":"Den J\u00F8diske Kirkeg\u00E5rd i F\u00E5borg","hovedtype":"Begravelsesplads","undertype":"j\u00F8disk","navnestatus":"officielt","kommuner":["Faaborg-Midtfyn"]}},{"type":"Feature","geometry":{"type":"Point","coordinates":[9.89865953,55.26672127]},"properties":{"id":"89ee90a6-88c8-40c6-e053-d480220ac0bd","navn":"Den J\u00F8diske Kirkeg\u00E5rd i Assens","hovedtype":"Begravelsesplads","undertype":"j\u00F8disk","navnestatus":"officielt","kommuner":["Assens"]}},{"type":"Feature","geometry":{"type":"Point","coordinates":[11.13045321,54.83808199]},"properties":{"id":"89ee90a6-88c9-40c6-e053-d480220ac0bd","navn":"Den J\u00F8diske Kirkeg\u00E5rd i Nakskov","hovedtype":"Begravelsesplads","undertype":"j\u00F8disk","navnestatus":"officielt","kommuner":["Lolland"]}},{"type":"Feature","geometry":{"type":"Point","coordinates":[11.36600729,55.40450949]},"properties":{"id":"89ee90a6-88ca-40c6-e053-d480220ac0bd","navn":"Den J\u00F8diske Kirkeg\u00E5rd i Slagelse","hovedtype":"Begravelsesplads","undertype":"j\u00F8disk","navnestatus":"officielt","kommuner":["Slagelse"]}}]}